No,name,region,address,경도,위도,상태
1,이사부길(새천년해안도로),강원 삼척시,강원도 삼척시 새천년도로 61-18,129.1880110492,37.4392628748493,정좌표
2,홍천 은행나무숲,강원 홍천군,강원도 홍천군 내면 광원리 686-4,128.470617513153,37.8321745094165,정좌표
3,원대리 자작나무 숲 (속삭이는 자작나무 숲),강원 인제군,강원도 인제군 인제읍 자작나무숲길 760,128.194290810109,38.0092075119377,정좌표
4,해피초원목장,강원 춘천시,강원도 춘천시 사북면 춘화로 330-48,127.695808450353,37.979249271456,정좌표
5,남이섬,강원 춘천시,강원도 춘천시 남산면 남이섬길 1,127.526454928082,37.7890362165127,정좌표
6,원주 소금산 출렁다리,강원 원주시,강원도 원주시 지정면 소금산길 12,127.834034497179,37.3645712675232,정좌표
7,병방치 스카이워크,강원 정선군,강원도 정선군 정선읍 병방치길 225,128.635426631696,37.3623601538986,정좌표
8,강릉 경포해수욕장,강원 강릉시,강원도 강릉시 창해로 514,128.907431431626,37.8057967079412,정좌표
9,설악산국립공원,강원 속초시,강원도 속초시 설악산로 833,128.517258383806,38.1671227543991,정좌표
10,하늬라벤더팜,강원 고성군,강원도 고성군 간성읍 꽃대마을길 175,128.415350067654,38.3485236577805,정좌표
11,대관령 양떼목장,강원 평창군,강원도 평창군 대관령면 대관령마루길 483-32,128.753122484665,37.6877702522454,정좌표
12,강릉 경포대,강원 강릉시,강원도 강릉시 경포로 365,128.896633273333,37.7951001095246,정좌표
13,점봉산 곰배령,강원 인제군,강원도 인제군 기린면 곰배령길 12,128.471865665664,38.0364090525963,정좌표
14,추암 출렁다리,강원 동해시,강원도 동해시 촛대바위길 28,129.159184546354,37.4770875297323,정좌표
15,소양강 스카이워크,강원 춘천시,강원도 춘천시 영서로 2675,127.724322297866,37.8934218105607,정좌표
16,외옹치해변,강원 속초시,강원도 속초시 해오름로 83,128.607653154881,38.1821607334639,정좌표
17,낙산사,강원 양양군,강원도 양양군 강현면 낙산사로 100,128.627285013659,38.1248452523087,정좌표
18,고성 통일전망타워,강원 고성군,강원도 고성군 현내면 금강산로 481,128.417206147405,38.5149917849494,정좌표
19,강릉커피거리,강원 강릉시,강원도 강릉시 창해로14번길 20-1,128.947304645587,37.7725372844491,정좌표
20,장호항,강원 삼척시,강원도 삼척시 근덕면 장호항길 103,129.317618871302,37.2878662324917,정좌표
21,알파카월드,강원 홍천군,강원도 홍천군 화촌면 덕밭재길 146-155,127.883098282061,37.8279445975827,정좌표
22,송정해변(송정해수욕장),강원 강릉시,강원도 강릉시 송정길30번안길 20-3,128.938092274773,37.7768634508834,정좌표
23,별마로천문대,강원 영월군,강원도 영월군 영월읍 천문대길 397,128.485729594842,37.1994660629309,정좌표
24,안목해변,강원 강릉시,강원도 강릉시 창해로14번길 20-1,128.947304645587,37.7725372844491,정좌표
25,하슬라아트월드,강원 강릉시,강원도 강릉시 강동면 율곡로 1441,129.011509381821,37.7062585412871,정좌표
26,오죽헌,강원 강릉시,강원도 강릉시 율곡로3139번길 24,128.879242119303,37.7792907697809,정좌표
27,백룡동굴 (강원고생대 국가지질공원),강원 평창군,강원도 평창군 미탄면 문희길 63,128.577065861366,37.277862439902,정좌표
28,월정사·월정사 전나무숲,강원 평창군,강원도 평창군 진부면 오대산로 374-8,128.593842051628,37.7320666016502,정좌표
29,제이드가든 수목원,강원 춘천시,강원도 춘천시 남산면 햇골길 80,127.543056875029,37.832123382182,정좌표
30,척산온천지구,강원 속초시,강원도 속초시 관광로 288,128.543789779897,38.1870650618778,정좌표
31,수로부인 헌화공원 (남화산 해맞이공원),강원 삼척시,강원도 삼척시 원덕읍 임원항구로 33-17,129.347035887659,37.2305029731259,정좌표
32,속초해변,강원 속초시,강원도 속초시 해오름로 190,128.602013699414,38.1905546068306,정좌표
33,안반데기 마을,강원 강릉시,강원도 강릉시 왕산면 안반데기길 428,128.738912966123,37.6226051719442,정좌표
34,영금정,강원 속초시,강원도 속초시 동명항길 35,128.597509934686,38.2124998595281,정좌표
35,삼척해상케이블카,강원 삼척시,강원도 삼척시 근덕면 삼척로 2154-31,129.30849024716,37.2890933158186,정좌표
36,허브나라농원,강원 평창군,강원도 평창군 봉평면 흥정계곡길 225,128.342650244385,37.635809137701,정좌표
38,추암 촛대바위,강원 동해시,강원도 동해시 촛대바위길 28,129.159184546354,37.4770875297323,정좌표
39,강원도 탄광문화촌,강원 영월군,강원도 영월군 북면 밤재로 351,128.467318178093,37.263373121537,정좌표
40,하이원리조트,강원 정선군,강원도 정선군 고한읍 하이원길 424,128.8357046178,37.2065723360752,정좌표
41,춘천 옥산가(옥광산),강원 춘천시,강원도 춘천시 동면 금옥길 228,127.805404523711,37.919876157852,정좌표
42,아바이마을,강원 속초시,강원도 속초시 청호로 122-1,128.594850445823,38.2006128308413,정좌표
45,대금굴 (대이리 동굴지대),강원 삼척시,강원도 삼척시 신기면 환선로 800,129.020911990929,37.3261089775053,정좌표
46,대관령 하늘목장,강원 평창군,강원도 평창군 대관령면 꽃밭양지길 458-23,128.728642059007,37.7119829074961,정좌표
48,강릉 선교장,강원 강릉시,강원도 강릉시 운정길 63,128.885026043867,37.7868160045796,정좌표
49,한반도지형 (강원고생대 국가지질공원),강원 영월군,강원도 영월군 한반도면 한반도로 555,128.357529644609,37.2198782124701,정좌표
50,국립횡성숲체원,강원 횡성군,강원도 횡성군 둔내면 청태산로 777,128.286463019334,37.5372984793059,정좌표
51,간현관광지,강원 원주시,강원도 원주시 지정면 소금산길 26,127.832549548742,37.3648988681479,정좌표
52,속초 엑스포타워,강원 속초시,강원도 속초시 엑스포로 72,128.583108276853,38.1916239231112,정좌표
53,묵호항,강원 동해시,강원도 동해시 묵호동 15-133,129.115109437532,37.5520725634837,정좌표
54,환선굴 (대이리 동굴지대),강원 삼척시,강원도 삼척시 신기면 환선로 800,129.020911990929,37.3261089775053,정좌표
55,천곡황금박쥐동굴,강원 동해시,강원도 동해시 동굴로 50,129.110482206196,37.5175268507865,정좌표
57,국립 청태산자연휴양림,강원 횡성군,강원도 횡성군 둔내면 청태산로 610,128.290410326882,37.5229464102405,정좌표
58,구봉산 전망대 카페거리,강원 춘천시,강원도 춘천시 동면 순환대로 1154-113,127.776752813069,37.8928268516459,정좌표
60,무릉계곡,강원 동해시,강원도 동해시 삼화로 538,129.019395370747,37.4634717122061,정좌표
61,울산바위촬영휴게소,강원 고성군,강원도 고성군 토성면 미시령로 2653,128.496642713009,38.2074853231561,정좌표
63,삼양목장,강원 평창군,강원도 평창군 대관령면 꽃밭양지길 708-9,128.719088565437,37.7246380205175,정좌표
64,강원도립화목원,강원 춘천시,강원도 춘천시 화목원길 24,127.72440725451,37.923534160471,정좌표
65,민둥산,강원 정선군,강원도 정선군 남면 민둥산로 12,128.781610294094,37.2540130301093,정좌표
66,속초 등대전망대,강원 속초시,강원도 속초시 영금정로5길 8-28,128.599750826245,38.2132009417925,인근좌표
67,강릉 모래내 한과마을(갈골한과),강원 강릉시,강원도 강릉시 사천면 한과마을길 20,128.8329156736,37.8137890738238,정좌표
68,강릉 솔향수목원,강원 강릉시,강원도 강릉시 구정면 구정중앙로 92-177,128.869076345633,37.709288741394,인근좌표
69,고씨굴 (강원고생대 국가지질공원),강원 영월군,강원도 영월군 김삿갓면 영월동로 1117,128.535383301757,37.13072821944,정좌표
70,아우라지,강원 정선군,강원도 정선군 여량면 아우라지길 69,128.724147196278,37.4755580518619,정좌표
71,화진포의 성(김일성별장),강원 고성군,강원도 고성군 거진읍 화진포길 280,128.443603937815,38.4740484306314,정좌표
73,평화의댐(화천),강원 화천군,강원도 화천군 화천읍 평화로 3481-90,127.843446913114,38.2132176970483,정좌표
74,청간정,강원 고성군,강원도 고성군 토성면 동해대로 5110,128.557055627595,38.265044837306,정좌표
75,사북 탄광문화관광촌,강원 정선군,강원도 정선군 사북읍 하이원길 57-3,128.815089265143,37.2208990037727,정좌표
77,속초엑스포유람선,강원 속초시,강원도 속초시 엑스포로 12-26,128.59100446923,38.1921951840366,정좌표
78,태백고원자연휴양림,강원 태백시,강원도 태백시 머리골길 153,129.068634117678,37.1323504841378,정좌표
79,오색탄산온천,강원 양양군,강원도 양양군 서면 대청봉길 34,128.447955804714,38.080255210605,정좌표
80,설악 케이블카,강원 속초시,강원도 속초시 설악산로 1085,128.489141674067,38.1730947913109,정좌표
81,등대해변,강원 속초시,강원도 속초시 영랑해안길 37,128.600625008484,38.2136039739368,정좌표
82,설악산 권금성,강원 속초시,강원도 속초시 설악산로 1091,128.488472248835,38.1735026480205,정좌표
83,365세이프타운,강원 태백시,강원도 태백시 평화길 15,129.025883327626,37.1029448195952,정좌표
84,고성 왕곡마을,강원 고성군,강원도 고성군 죽왕면 왕곡마을길 35,128.500099931979,38.3402602229003,정좌표
86,이사부사자공원&그림책 나라,강원 삼척시,강원도 삼척시 수로부인길 333,129.159550847094,37.475559235774,정좌표
87,휴휴암(강원),강원 양양군,강원도 양양군 현남면 광진2길 3-16,128.767795215122,37.9613761537609,정좌표
88,소노벨 비발디파크,강원 홍천군,강원도 홍천군 서면 한치골길 262,127.683439871549,37.6645644766645,정좌표
89,웰컴투동막골촬영지,강원 평창군,강원도 평창군 미탄면 동막골길 122,128.470746396165,37.3139544076383,정좌표
90,청령포 (강원고생대 국가지질공원),강원 영월군,강원도 영월군 영월읍 청령포로 133,128.447771102925,37.177448650183,정좌표
91,강릉 월화거리,강원 강릉시,강원도 강릉시 경강로 2111,128.896871092337,37.7564490492181,정좌표
93,영랑호,강원 속초시,강원도 속초시 영랑호반길 140,128.580780071633,38.2142131174464,정좌표
94,춘천 명동거리,강원 춘천시,강원도 춘천시 중앙로 55,127.727391019686,37.8800552381933,정좌표
95,백담계곡,강원 인제군,강원도 인제군 북면 백담로 150,128.357512727069,38.1916690730842,정좌표
96,정동진해변,강원 강릉시,강원도 강릉시 강동면 정동역길 17,129.033164678339,37.69098201771,정좌표
97,화암동굴 (강원고생대 국가지질공원),강원 정선군,강원도 정선군 화암면 화암동굴길 12,128.789489433764,37.3518891308352,인근좌표
98,버드나무 브루어리,강원 강릉시,강원도 강릉시 경강로 1961,128.88444724987,37.7482511626696,정좌표
99,추암해변,강원 동해시,강원도 동해시 촛대바위길 26,129.15917416409,37.4772521575401,정좌표
100,횡성 풍수원천주교회(풍수원성당),강원 횡성군,강원도 횡성군 서원면 경강로유현1길 30,127.818844772226,37.5294198809502,정좌표
101,아바이마을 갯배,강원 속초시,강원도 속초시 중앙부두길 39,128.592098714712,38.202665035765,정좌표
102,DMZ 생태평화공원,강원 철원군,강원도 철원군 김화읍 생창길 481-1,127.45140340136,38.2811326812198,정좌표
104,주문진해변,강원 강릉시,강원도 강릉시 주문진읍 주문북로 210,128.818864863686,37.9106977919188,정좌표
105,구문소 (강원고생대 국가지질공원),강원 태백시,강원도 태백시 태백로 2249,129.039632077622,37.0948995474084,정좌표
107,태백산 국립공원,강원 태백시,강원도 태백시 태백산로 4778,128.962066257764,37.1311476571231,정좌표
110,용연동굴 (강원고생대 국가지질공원),강원 태백시,강원도 태백시 태백로 283-29,128.941750219812,37.2089793112768,정좌표
111,대관령 눈꽃마을,강원 평창군,강원도 평창군 대관령면 차항서녘길 27-22,128.676388581288,37.7157582964101,정좌표
112,원주한지테마파크,강원 원주시,강원도 원주시 한지공원길 151,127.935395943461,37.3343753462568,정좌표
113,설악산 울산바위,강원 속초시,강원도 속초시 설악산로 1091,128.488472248835,38.1735026480205,정좌표
114,집다리골자연휴양림,강원 춘천시,강원도 춘천시 사북면 화악지암1길 130,127.580552271444,37.9780732840624,정좌표
115,홍천 배바위카누마을,강원 홍천군,강원도 홍천군 서면 마곡길 153-5,127.585314003955,37.7253621726443,정좌표
116,삼척 맹방유채꽃 마을,강원 삼척시,강원도 삼척시 근덕면 삼척로 3906-11,129.21166725725,37.3996991794193,정좌표
119,영월 장릉(단종) [유네스코 세계문화유산],강원 영월군,강원도 영월군 영월읍 단종로 190,128.45480392264,37.1955144394699,정좌표
120,바다열차,강원 삼척시,강원도 삼척시 수로부인길 542 / 강원도 강릉시 용지로 176 강릉역,129.166275339405,37.4683062272076,정좌표
121,천학정/문암포구,강원 고성군,강원도 고성군 토성면 천학정길 5,128.547567489614,38.2891685911552,정좌표
122,송지호관망타워,강원 고성군,강원도 고성군 죽왕면 동해대로 6021,128.517610892141,38.3362524102731,정좌표
123,초당두부마을,강원 강릉시,강원도 강릉시 초당순두부길 89-8,128.91520415908,37.7918998188541,정좌표
124,국립 가리왕산자연휴양림,강원 정선군,강원도 정선군 정선읍 가리왕산로 707,128.575532627716,37.4220502146854,정좌표
126,고석정국민관광지,강원 철원군,강원도 철원군 동송읍 태봉로 1825,127.289356619231,38.1879928883534,정좌표
127,제2땅굴(철원),강원 철원군,강원도 철원군 동송읍 태봉로 1825,127.289356619231,38.1879928883534,정좌표
129,신흥사(설악산),강원 속초시,강원도 속초시 설악산로 1137,128.484786589801,38.1762947187973,정좌표
131,속초 설악해맞이공원,강원 속초시,강원도 속초시 동해대로 3664,128.608526695183,38.1631456914718,정좌표
132,정선아리랑열차(A-train),강원 정선군,강원도 정선군 여량면 여량6길 17,128.72247160948,37.4731057939202,정좌표
133,김유정 문학촌,강원 춘천시,강원도 춘천시 신동면 김유정로 1430-14,127.718000564533,37.8183252289783,정좌표
134,강릉 통일공원,강원 강릉시,강원도 강릉시 강동면 율곡로 1616,129.004492106378,37.7184025962996,정좌표
135,알펜시아 리조트,강원 평창군,강원도 평창군 대관령면 솔봉로 325,128.667839773832,37.6623382167551,정좌표
136,황지연못,강원 태백시,강원도 태백시 황지연못길 12,128.991001145941,37.1726823867704,정좌표
137,알펜시아 오션700,강원 평창군,강원도 평창군 대관령면 솔봉로 325,128.667839773832,37.6623382167551,정좌표
138,속초스파랜드,강원 속초시,강원도 속초시 미시령로3359번길 20,128.574601704648,38.207117489713,정좌표
139,한화리조트 설악 워터피아,강원 속초시,강원도 속초시 미시령로2983번길 111,128.528721589073,38.2103009558525,정좌표
140,하조대해변,강원 양양군,강원도 양양군 현북면 하조대해안길 35,128.724317300958,38.0228766857817,정좌표
141,삼척 너와마을,강원 삼척시,강원도 삼척시 도계읍 문의재로 1113,129.129739580413,37.1843061360213,정좌표
146,춘천 강언덕마을 [농촌전통테마],강원 춘천시,강원도 춘천시 남면 한덕발산길 61,127.614767193669,37.6805262209383,정좌표
148,화천조경철천문대,강원 화천군,강원도 화천군 사내면 천문대길 431,127.433856312219,38.118592200683,정좌표
149,삼탄아트마인,강원 정선군,강원도 정선군 고한읍 함백산로 1445-44,128.882596682651,37.1855106666805,정좌표
150,모래시계공원,강원 강릉시,강원도 강릉시 강동면 헌화로 990-1,129.037499296601,37.687518826581,정좌표
151,정암사,강원 정선군,강원도 정선군 고한읍 함백산로 1410,128.892873059148,37.1832586071542,정좌표
152,백담사,강원 인제군,강원도 인제군 북면 백담로 746,128.373861036726,38.1657381694899,정좌표
153,원주 허브팜,강원 원주시,강원도 원주시 마장2길 33,127.92502646829,37.3080080806633,정좌표
156,낙산해수욕장,강원 양양군,강원도 양양군 강현면 해맞이길 59,128.633880766306,38.1169185471889,정좌표
157,속초 얼라이브 하트(Alive Heart),강원 속초시,강원도 속초시 원암학사평길 88,128.517388812252,38.2055364478568,정좌표
160,돼지문화원,강원 원주시,강원도 원주시 지정면 송정로 130,127.868848126737,37.3910574677092,정좌표
161,묵호 등대,강원 동해시,강원도 동해시 해맞이길 300,129.118140207091,37.5538176915499,정좌표
162,삼척 죽서루,강원 삼척시,강원도 삼척시 죽서루길 37,129.160974637142,37.4405032954552,정좌표
163,영월 섶다리 마을,강원 영월군,강원도 영월군 주천면 평창강로 262-7,128.348003098547,37.3003732239469,정좌표
164,소양호 유람선,강원 춘천시,강원도 춘천시 북산면 신샘밭로 1133,127.814875832336,37.9496278775263,정좌표
165,양구 펀치볼마을 (펀치볼),강원 양구군,강원도 양구군 해안면 동막동길 50-3,128.130519432865,38.2942614829757,정좌표
166,썬크루즈 테마공원,강원 강릉시,강원도 강릉시 강동면 헌화로 950-39,129.041897295676,37.6840524858285,정좌표
167,양양 송천떡마을,강원 양양군,강원도 양양군 서면 떡마을길 107,128.554644528543,38.0518559958404,정좌표
168,삼척 해신당공원,강원 삼척시,강원도 삼척시 원덕읍 삼척로 1852-6,129.328520400396,37.2670950743515,정좌표
170,의암호 스카이워크,강원 춘천시,강원도 춘천시 옛경춘로 253-41,127.681864414119,37.8471058704006,정좌표
171,동구래마을,강원 화천군,강원도 화천군 하남면 호수길 329,127.663986031882,38.0411059864535,정좌표
173,소노벨 델피노(설악) 아쿠아월드,강원 고성군,강원도 고성군 토성면 미시령옛길 1153,128.496948021326,38.2092524673536,정좌표
175,부연동마을,강원 강릉시,강원도 강릉시 연곡면 부연동길 787,128.632052297678,37.8671000900398,정좌표
176,광치자연휴양림,강원 양구군,강원도 양구군 남면 광치령로1794번길 265,128.071991555161,38.1449817256667,정좌표
177,상원사(오대산),강원 평창군,강원도 평창군 진부면 오대산로 1215-89,128.566204076897,37.8030708184383,정좌표
178,강릉 복사꽃마을,강원 강릉시,강원도 강릉시 주문진읍 신리천로 527-3,128.777270974248,37.8801040152275,정좌표
179,강원도 자연환경연구공원,강원 홍천군,강원도 홍천군 북방면 생태공원길 319,127.852432747965,37.754071449918,정좌표
180,박경리문학공원,강원 원주시,강원도 원주시 토지길 1,127.959930291856,37.3224710350699,정좌표
181,다이나믹 메이즈 (속초점),강원 속초시,강원도 속초시 원암학사평길 88,128.517388812252,38.2055364478568,정좌표
182,매봉산풍력발전단지(바람의 언덕),강원 태백시,강원도 태백시 매봉산길 206,128.970205660734,37.2165330696745,정좌표
184,평창 의야지 바람마을,강원 평창군,강원도 평창군 대관령면 꽃밭양지길 137,128.711575676065,37.6868458758409,정좌표
185,속초 하도문쌈채 마을,강원 속초시,강원도 속초시 설악산로 110,128.596100945535,38.1619454608461,정좌표
187,국립 삼봉자연휴양림,강원 홍천군,강원도 홍천군 내면 삼봉휴양길 276,128.463583878664,37.8565459715488,정좌표
188,공지천(황금비늘테마거리),강원 춘천시,강원도 춘천시 이디오피아길 25,127.709526122085,37.8746185342941,정좌표
190,화암사(고성),강원 고성군,강원도 고성군 토성면 화암사길 100,128.469457687026,38.2271862180148,정좌표
191,"홍천테마파크(구, 예술촌)",강원 홍천군,강원도 홍천군 서석면 구룡령로 2800-22,128.215394413374,37.7038496937873,정좌표
192,태백 상장동 벽화마을,강원 태백시,강원도 태백시 상장남길 64,128.990349492344,37.1478915156766,정좌표
193,휘닉스 블루캐니언,강원 평창군,강원도 평창군 봉평면 태기로 174,128.322392554019,37.5844897156322,정좌표
194,장호어촌체험마을,강원 삼척시,강원도 삼척시 근덕면 장호항길 62,129.318226258305,37.2860927406342,정좌표
195,강촌유원지,강원 춘천시,강원도 춘천시 남산면 강촌로 34,127.632586453183,37.8157067443494,정좌표
196,강릉 녹색도시체험센터,강원 강릉시,강원도 강릉시 강릉대로 33,128.875958317462,37.7520626165638,정좌표
198,용평리조트,강원 평창군,강원도 평창군 대관령면 올림픽로 715,128.68482725028,37.6512664708239,정좌표
199,청평사(춘천),강원 춘천시,강원도 춘천시 북산면 오봉산길 810,127.808638117086,37.9859314930752,정좌표
200,철원 노동당사,강원 철원군,강원도 철원군 철원읍 금강산로 265,127.202080973172,38.2544841794715,정좌표
203,이승만별장(고성),강원 고성군,강원도 고성군 현내면 이승만별장길 33,128.436573885091,38.4708369568335,정좌표
204,한탄리버스파,강원 철원군,강원도 철원군 동송읍 태봉로 1799-22,127.289762469504,38.1860919575299,정좌표
205,경포호(철새도래지),강원 강릉시,강원도 강릉시 경포로 365,128.896633273333,37.7951001095246,정좌표
206,한반도 뗏목마을,강원 영월군,강원도 영월군 한반도면 선암길 70,128.346748582513,37.222382754024,정좌표
207,강릉 이광노가옥,강원 강릉시,강원도 강릉시 난설헌로193번길 1-16,128.909514608237,37.7919871418139,정좌표
208,삼척해변,강원 삼척시,강원도 삼척시 테마타운길 76,129.168334585752,37.468430379754,정좌표
209,대포항,강원 속초시,강원도 속초시 대포항길 64,128.607493197675,38.1749885119087,정좌표
210,김순자명인 김치테마파크,강원 정선군,강원도 정선군 신동읍 의림로 141-109,128.636796411588,37.2049236054842,정좌표
211,주문진 등대,강원 강릉시,강원도 강릉시 주문진읍 옛등대길 24-7,128.833581326184,37.897519141316,정좌표
212,진부령 흘리마을,강원 고성군,강원도 고성군 간성읍 흘리길 185,128.374125652314,38.2648604577952,정좌표
213,화암관광지(화암8경),강원 정선군,강원도 정선군 화암면 약수길 1328,128.785659928305,37.3293434773355,정좌표
214,수타사,강원 홍천군,강원도 홍천군 동면 수타사로 473,127.959399444851,37.6985656813329,정좌표
215,오색약수터,강원 양양군,강원도 양양군 서면 약수길 45,128.445689547279,38.0771382975252,정좌표
216,붕어섬,강원 화천군,강원도 화천군 화천읍 강변로 2-54,127.697052454736,38.100713046422,정좌표
218,소양강 처녀상,강원 춘천시,강원도 춘천시 영서로 2675,127.724322297866,37.8934218105607,정좌표
219,팔봉산(홍천),강원 홍천군,강원도 홍천군 서면 한치골길 1124,127.69592707054,37.7036252929571,정좌표
220,송이밸리자연휴양림,강원 양양군,강원도 양양군 손양면 상왕도리 산158-3,128.621454089773,38.0483670237423,인근좌표
222,오대산국립공원,강원 강릉시,강원도 강릉시 연곡면 소금강길 500,128.704511466567,37.8135736716076,정좌표
223,로하스파크&와카푸카,강원 평창군,	강원도 평창군 용평면 작은도사길 162-28,128.458419598213,37.641432932812,정좌표
225,송지호 해수욕장,강원 고성군,강원도 고성군 죽왕면 심층수길 85,128.526538686648,38.3315029295796,정좌표
226,구룡사,강원 원주시,강원도 원주시 소초면 구룡사로 500,128.049822213178,37.3990413674239,정좌표
227,강문해변,강원 강릉시,강원도 강릉시 창해로 352,128.918257348311,37.7948450720315,정좌표
228,동해무릉건강숲,강원 동해시,강원도 동해시 삼화로 455,129.032120520776,37.4655820450222,정좌표
229,화천 풍산마을,강원 화천군,강원도 화천군 화천읍 평화로 1260-13,127.7413785658,38.1451823425604,정좌표
231,화랑도체험관광단지,강원 속초시,강원도 속초시 영랑호반길 421,128.570991845567,38.218958713645,정좌표
232,아침가리계곡,강원 인제군,강원도 인제군 기린면 추대길 58,128.39888590173,37.9655319368642,정좌표
233,임해자연휴양림,강원 강릉시,강원도 강릉시 강동면 율곡로 1715-85,128.998544575655,37.7185639790314,정좌표
235,원주 강원감영,강원 원주시,강원도 원주시 원일로 85,127.949551486801,37.3484054425705,인근좌표
236,금대봉야생화 군락지,강원 태백시,강원도 태백시 창죽동 산 1-1 삼수동 일대,128.93544998396,37.2251642449094,정좌표
237,DMZ 안보견학,강원 철원군,강원도 철원군 동송읍 태봉로 1825,127.289356619231,38.1879928883534,정좌표
240,타임캡슐공원,강원 정선군,강원도 정선군 신동읍 엽기소나무길 518-23,128.687889492724,37.2008585099641,정좌표
241,아라리촌,강원 정선군,강원도 정선군 정선읍 애산로 37,128.670432741039,37.374644375838,정좌표
242,단경골 휴양지,강원 강릉시,강원도 강릉시 강동면 단경로 841,128.916416694256,37.6719644930807,정좌표
243,속초 조양동 유적,강원 속초시,강원도 속초시 선사로1길 16,128.591033097994,38.1877000736708,정좌표
244,설악산 자생식물원,강원 속초시,강원도 속초시 바람꽃마을길 164,128.524929198206,38.196843880947,정좌표
245,건봉사,강원 고성군,강원도 고성군 거진읍 건봉사로 723,128.379274599194,38.4032687150286,정좌표
247,한국DMZ평화생명동산,강원 인제군,강원도 인제군 서화면 금강로 1630,128.208247121179,38.2405878299522,정좌표
250,소양댐,강원 춘천시,강원도 춘천시 신북읍 신샘밭로 1128,127.815102096331,37.9487991624288,정좌표
251,글로리아 허브리조트,강원 횡성군,강원도 횡성군 갑천면 갑천로872번길 148,128.176336879414,37.5120138708755,정좌표
253,속초관광수산시장 닭강정골목,강원 속초시,강원도 속초시 중앙로147번길 16,128.590190577892,38.2045224320049,정좌표
254,국립 방태산자연휴양림,강원 인제군,강원도 인제군 기린면 방태산길 377,128.398713266497,37.922976398587,정좌표
255,정선 백두대간 약초마을,강원 정선군,강원도 정선군 임계면 눈꽃마을길 178-30,128.907924304371,37.5025224236359,정좌표
256,강릉 구라미온천,강원 강릉시,강원도 강릉시 사천면 구라미등길 25-15,128.839707843458,37.8435604822002,정좌표
258,해담마을,강원 양양군,강원도 양양군 서면 구룡령로 2110-17,128.532428200742,37.9876160174364,정좌표
259,소똥령마을,강원 고성군,강원도 고성군 간성읍 소똥령마을길 82,128.380367072979,38.3315929664052,정좌표
260,청옥산(평창),강원 평창군,강원도 평창군 미탄면 청옥산길 557-4,128.49019414738,37.3747282563543,정좌표
262,검봉산자연휴양림,강원 삼척시,강원도 삼척시 원덕읍 임원안길 525-145,129.30059145095,37.2379656565391,정좌표
263,춘천숲자연휴양림,강원 춘천시,강원도 춘천시 동산면 종자리로 224-104,127.743893738716,37.7481797915513,정좌표
264,유현문화관광지,강원 횡성군,강원도 횡성군 서원면 경강로유현1길 50,127.819925926641,37.5306552432976,정좌표
265,경원선 철도중단점 (백마고지역),강원 철원군,강원도 철원군 철원읍 평화로 3591,127.166284658238,38.2574589359798,정좌표
267,가리왕산,강원 정선군,강원도 정선군 정선읍 가리왕산로 707,128.575532627716,37.4220502146854,정좌표
268,홍천 무궁화마을,강원 홍천군,강원도 홍천군 서면 보리울길17번길 51,127.589995569591,37.6895903089094,정좌표
269,홍천온천원탕,강원 홍천군,강원도 홍천군 북방면 온천길 179,127.83834613682,37.6953979544579,정좌표
270,태백체험공원,강원 태백시,강원도 태백시 소도길 9-11,128.972833289173,37.1337296369136,정좌표
271,치악산황둔청소년수련원,강원 원주시,강원도 원주시 신림면 소야1길 88,128.166760842144,37.2584109169168,정좌표
273,봉정암(인제),강원 인제군,강원도 인제군 북면 백담로 1700,128.447854244286,38.1281109298008,정좌표
274,몰운대(정선),강원 정선군,강원도 정선군 화암면 약수길 1330,128.785827532118,37.3292435908209,정좌표
275,피니시타워,강원 화천군,강원도 화천군 하남면 춘화로 3331-50,127.699592918853,38.0964817858147,정좌표
276,화천 산약초 마을,강원 화천군,강원도 화천군 상서면 갈목길 157,127.603744127362,38.1605888986995,정좌표
278,안흥찐빵마을,강원 횡성군,강원도 횡성군 안흥면 안흥로 27,128.156122098663,37.4128129667342,정좌표
280,화천 목재문화체험장,강원 화천군,강원도 화천군 하남면 영서로 5289-11,127.64530823189,38.0670119208789,정좌표
282,환선굴,강원 삼척시,강원도 삼척시 신기면 환선로 800,129.020911990929,37.3261089775053,정좌표
283,고성DMZ,강원 고성군,강원도 고성군 현내면 금강산로 481,128.417206147405,38.5149917849494,정좌표
284,철원 오대미마을,강원 철원군,강원도 철원군 철원읍 묘장로 301,127.169180935783,38.2648144568327,정좌표
285,화천 토고미마을,강원 화천군,강원도 화천군 상서면 토고미길 22-8,127.677810945928,38.1346236821527,정좌표
286,하조대 무인등대,강원 양양군,강원도 양양군 현북면 조준길 99,128.734924481234,38.0211289215266,정좌표
288,칠성전망대,강원 화천군,강원도 화천군 상서면 주파령로 4,127.664237775887,38.2108947620661,정좌표
289,태백 구와우마을(고원자생식물원),강원 태백시,강원도 태백시 구와우길 38-33,128.991108933562,37.2072414877365,정좌표
290,낙산사 의상대,강원 양양군,강원도 양양군 강현면 낙산사로 100,128.627285013659,38.1248452523087,정좌표
292,효석문화마을 메밀음식거리,강원 평창군,강원도 평창군 봉평면 기풍3길 31,128.377716784669,37.6155733573607,정좌표
293,방아다리약수터,강원 평창군,강원도 평창군 진부면 방아다리로 1011-26,128.503849006304,37.6924215975969,정좌표
294,치악산국립공원,강원 원주시,강원도 원주시 소초면 무쇠점2길 26,128.050383853708,37.4140409757316,정좌표
295,화천 반지교&아를테마수목공원,강원 화천군,강원도 화천군 하남면 거례리 514-1,127.688584177917,38.0719960493092,정좌표
296,파로호(화천),강원 화천군,강원도 화천군 간동면 배터길 36-8,127.777544990626,38.0959742843856,정좌표
297,삼척 척주동해비 및 평수토찬비,강원 삼척시,강원도 삼척시 허목길 13-7,129.184298246656,37.4357445579036,정좌표
299,휘닉스 평창 곤돌라,강원 평창군,강원도 평창군 봉평면 태기로 174,128.322392554019,37.5844897156322,정좌표
300,이기붕별장,강원 고성군,강원도 고성군 거진읍 화진포길 300-1,128.443603937815,38.4740484306314,인근좌표
301,국립대관령치유의숲,강원 강릉시,강원도 강릉시 성산면 대관령옛길 127-42,128.798710973628,37.7079060992003,정좌표
304,태백산 천제단,강원 태백시,강원도 태백시 천제단길 168,128.95092232591,37.1198420337625,정좌표
305,맹방해변,강원 삼척시,강원도 삼척시 근덕면 맹방해변로 228-239,129.232935193923,37.3894527604637,정좌표
306,철원DMZ,강원 철원군,강원도 철원군 김화읍 생창길 481-1,127.45140340136,38.2811326812198,정좌표
307,카페 테일,강원 고성군,강원도 고성군 죽왕면 가진길 40-5,128.508784481374,38.3728138759584,정좌표
308,갈골한과마을 명인의 집,강원 강릉시,강원도 강릉시 사천면 중앙서로 62,128.843285721215,37.8244965092667,정좌표
309,DMZ펀치볼둘레길,강원 양구군,강원도 양구군 해안면 후리 621번지,128.145233757212,38.2901608062315,정좌표
310,사천진해변(사천뒷불해수욕장),강원 강릉시,강원도 강릉시 사천면 진리해변길 111,128.87543137836,37.8411512516785,정좌표
311,순담계곡,강원 철원군,강원도 철원군 갈말읍 순담길 143-3,127.298059349384,38.1768821155556,인근좌표
312,인제 하추마을,강원 인제군,강원도 인제군 인제읍 하추로 187,128.28203460482,38.0196431643116,정좌표
314,소금산 스카이워크 브릿지,강원 원주시,강원도 원주시 지정면 소금산길 26,127.832549548742,37.3648988681479,정좌표
316,김하인 아트홀 국화꽃향기,강원 고성군,강원도 고성군 죽왕면 자작도선사길 120-4,128.541435662095,38.3072643157499,정좌표
317,직탕폭포 (한탄강 국가지질공원),강원 철원군,강원도 철원군 동송읍 직탕길 94,127.265366200149,38.2092508786435,정좌표
318,만해마을,강원 인제군,강원도 인제군 북면 만해로 91,128.318119756884,38.187540776665,정좌표
319,대금굴,강원 삼척시,강원도 삼척시 신기면 환선로 800,129.020911990929,37.3261089775053,정좌표
320,국토정중앙천문대,강원 양구군,강원도 양구군 남면 국토정중앙로 127,128.029687741767,38.0689545172053,정좌표
321,서봉사계곡 마을관리휴양지,강원 홍천군,강원도 홍천군 서석면 구룡령로 2838,128.217484747041,37.7049028902744,정좌표
322,월정리역,강원 철원군,강원도 철원군 철원읍 두루미로 1882,127.230200028054,38.309382815415,정좌표
325,속초설악 삼포비치바이크 고성점,강원 고성군,강원도 고성군 죽왕면 삼포해변길 9,128.531012400245,38.3170883644277,정좌표
328,엘리시안 강촌,강원 춘천시,강원도 춘천시 남산면 북한강변길 688,127.589598568911,37.8254938604981,정좌표
330,국립 대관령자연휴양림,강원 강릉시,강원 강릉시 성산면 어흘리 삼포암길 133,128.787478551665,37.7099389299354,정좌표
331,평창 어름치마을,강원 평창군,강원도 평창군 미탄면 마하길 42-5,128.541512193171,37.2925764125068,정좌표
332,화암약수 (강원고생대 국가지질공원),강원 정선군,강원도 정선군 화암면 약수길 1328,128.785659928305,37.3293434773355,정좌표
334,강릉향교,강원 강릉시,강원도 강릉시 명륜로 29,128.895260911663,37.7635633805056,정좌표
335,비치조각공원,강원 삼척시,강원도 삼척시 새천년도로 326,129.186044854565,37.4567249704517,정좌표
337,관음굴(삼척 대이리 동굴지대),강원 삼척시,강원도 삼척시 신기면 환선로 557,129.04384793626,37.3296694603523,정좌표
339,등명락가사(강릉),강원 강릉시,강원도 강릉시 강동면 괘방산길 16,129.005837043633,37.7109332171352,정좌표
340,정강원 (한국전통음식문화체험관),강원 평창군,강원도 평창군 용평면 금당계곡로 2010-13,128.408051619614,37.5708241285826,정좌표
341,천곡동굴,강원 동해시,강원도 동해시 동굴로 50,129.110482206196,37.5175268507865,정좌표
342,홍천 살둔마을,강원 홍천군,강원도 홍천군 내면 내린천로 638,128.3765503239,37.8333284301717,정좌표
343,홍천 아로마 허브동산,강원 홍천군,강원도 홍천군 화촌면 장평골말길 74-27,128.061094978478,37.7595527912625,정좌표
346,고씨동굴,강원 영월군,강원도 영월군 김삿갓면 영월동로 1117,128.535383301757,37.13072821944,정좌표
349,덕풍계곡,강원 삼척시,강원도 삼척시 가곡면 덕풍길 44,129.158554045888,37.1224645212796,정좌표
350,고성 어명기 고택,강원 고성군,강원도 고성군 죽왕면 봉수대길 131-7,128.517949666779,38.3149696361384,정좌표
351,주문진읍 BTS 앨범사진 촬영지 (버스정류장),강원 강릉시,강원도 강릉시 주문진읍 주문북로 20,128.831130430146,37.896656817477,정좌표
352,정동진역,강원 강릉시,강원도 강릉시 강동면 정동역길 17,129.033164678339,37.69098201771,정좌표
353,무궁화공원,강원 홍천군,강원도 홍천군 홍천읍 장전평로 18,127.871818074147,37.6823460918725,정좌표
354,정동진,강원 강릉시,강원도 강릉시 강동면 정동역길 17,129.033164678339,37.69098201771,정좌표
356,국립 용화산자연휴양림,강원 춘천시,강원도 춘천시 사북면 사여골길 294,127.760438551449,38.0113292202537,정좌표
359,강릉 해살이마을,강원 강릉시,강원도 강릉시 사천면 중앙서로 557-1,128.811012720561,37.7929071992795,정좌표
360,삼척장미공원,강원 삼척시,강원도 삼척시 오십천로 586,129.179927170825,37.4324056391951,정좌표
362,육림랜드,강원 춘천시,강원도 춘천시 영서로 2965,127.72014862921,37.9183642325561,정좌표
364,점봉산,강원 양양군,강원도 인제군 인제읍 한석산로 2221-101,128.362253757794,38.0355122412577,정좌표
365,함백산,강원 태백시,강원도 태백시 태백산로 4246-55,128.909439262448,37.1158087567891,정좌표
366,상원사(원주),강원 원주시,강원도 원주시 신림면 성남로 930,128.053756029214,37.3067253332343,정좌표
368,거진항,강원 고성군,강원도 고성군 거진읍 거진항1길 62-3,128.4617383533,38.4456857593768,정좌표
369,강원 영월 김삿갓 [슬로시티],강원 영월군,강원도 영월군 김삿갓면 옥동장터길 36,128.570348681072,37.1257417321039,정좌표
371,국립 두타산자연휴양림,강원 평창군,강원도 평창군 진부면 아차골길 132,128.576056410028,37.5598019298165,정좌표
372,삼화사,강원 동해시,강원도 동해시 삼화로 584,129.014301151077,37.4633096307781,정좌표
373,한국통나무학교,강원 횡성군,강원도 횡성군 강림면 월안길 88,128.178576366801,37.3566662245192,정좌표
375,국형사,강원 원주시,강원도 원주시 고문골길 155,128.013504196293,37.3347201321431,정좌표
376,영월 동강애래프팅마을,강원 영월군,강원도 영월군 영월읍 동강로 1349-10,128.512736661949,37.26976371256,정좌표
378,천은사(삼척),강원 삼척시,강원도 삼척시 미로면 동안로 816,129.04267644302,37.4447668871883,정좌표
381,승리전망대,강원 철원군,강원도 철원군 근남면 영서로 9579,127.526152893415,38.2728708858435,정좌표
382,사천해변(사천해수욕장),강원 강릉시,강원도 강릉시 사천면 해안로 877,128.87778391182,37.8291629861915,정좌표
383,남항진해변(남항진해수욕장),강원 강릉시,강원도 강릉시 공항길127번길 67,128.954444394842,37.7639674041438,정좌표
386,산타우체국,강원 화천군,강원도 화천군 화천읍 산수화로 10,127.706055093374,38.1071158373545,정좌표
387,미산계곡,강원 인제군,강원도 인제군 상남면 내린천로 1712,128.315097904953,37.8687466899948,인근좌표
389,삼수령,강원 태백시,강원도 태백시 된각길 81,128.989814770568,37.2202909747587,정좌표
391,홍천동키마을,강원 홍천군,강원도 홍천군 화촌면 구룡령로 170,127.959295075861,37.7522940593427,정좌표
393,횡계 오삼불고기 거리,강원 평창군,강원도 평창군 대관령면 대관령로 97,128.707366138037,37.6725641617672,정좌표
396,"남애해변(남애1, 3리)",강원 양양군,강원도 양양군 현남면 매호길 14,128.769220443664,37.9539852885322,정좌표
397,양구생태식물원,강원 양구군,강원도 양구군 동면 숨골로310번길 169,128.07628098236,38.1919047866283,정좌표
399,솔내음 평창 먹을거리촌,강원 평창군,강원도 평창군 용평면 운두령로 500-11,128.465273355533,37.6716869333427,정좌표
400,백마고지 위령비와 기념관,강원 철원군,강원도 철원군 철원읍 대마1길 72,127.165607382978,38.2693150606104,정좌표
401,철원 두루미자는 버들골마을,강원 철원군,강원도 철원군 동송읍 금강산로 1556,127.321025845317,38.2830284569357,정좌표
402,덕산해변,강원 삼척시,강원도 삼척시 근덕면 덕산해변길 114,129.240966049448,37.3858389050892,정좌표
404,홍련암,강원 양양군,강원도 양양군 강현면 낙산사로 98-19,128.629770916687,38.1266182394162,정좌표
405,가리산자연휴양림,강원 홍천군,강원도 홍천군 두촌면 가리산길 426,127.98363121104,37.8642443178893,정좌표
406,보광사(속초),강원 속초시,강원도 속초시 영랑호반길 69-2,128.585320398324,38.2140078337095,정좌표
407,소이산 생태숲 녹색길,강원 철원군,강원도 철원군 철원읍 금강산로 265,127.202080973172,38.2544841794715,정좌표
409,황영조 기념공원,강원 삼척시,강원도 삼척시 근덕면 초곡길 176,129.294737179618,37.3072697113248,정좌표
410,화천 비목공원,강원 화천군,강원도 화천군 화천읍 평화로 3481-70,127.844283957623,38.2128231999939,정좌표
412,해가사의 터(수로부인공원),강원 삼척시,강원도 삼척시 수로부인길 401,129.162857845449,37.473422862254,정좌표
414,용오름맥주마을 (관광두레 주민사업체),강원 홍천군,강원도 홍천군 서석면 검산길 263,128.236038200296,37.7209400966554,정좌표
415,용소막성당,강원 원주시,강원도 원주시 신림면 구학산로 1857,128.08786173397,37.2124341950078,정좌표
416,합강정,강원 인제군,강원도 인제군 인제읍 설악로 2254,128.185964076891,38.0777741699652,정좌표
421,국립 복주산자연휴양림,강원 철원군,강원도 철원군 근남면 하오재로 818,127.473258018711,38.1448144469142,정좌표
422,삼악산(춘천),강원 춘천시,강원도 춘천시 서면 경춘로 1401-25,127.659310287203,37.8257119580429,정좌표
423,추암조각공원,강원 동해시,강원도 춘천시 서면 경춘로 1401-25,127.659310287203,37.8257119580429,정좌표
425,순긋해변,강원 강릉시,강원도 강릉시 해안로 682-5,128.89327274774,37.8168521699968,정좌표
426,방동약수,강원 인제군,강원도 인제군 기린면 방동약수로 89-59,128.396261776353,37.9438696604852,정좌표
427,통일안보공원,강원 고성군,강원도 고성군 현내면 금강산로 481,128.417206147405,38.5149917849494,정좌표
428,남애어촌체험마을,강원 양양군,강원도 양양군 현남면 매바위길 127,128.786131811627,37.9445470243282,정좌표
429,영월 삼굿마을 [농촌체험휴양마을],강원 영월군,강원도 영월군 중동면 유전길 115,128.684945953666,37.155262061802,정좌표
430,인제 황태마을,강원 인제군,강원도 인제군 북면 진부령로 307,128.361146664786,38.2355054867732,정좌표
431,천불동계곡,강원 속초시,강원도 속초시 설악산로 1091,128.488472248835,38.1735026480205,정좌표
433,신흥사(삼척),강원 삼척시,강원도 삼척시 근덕면 양리길 220,129.20583192078,37.3235046484155,정좌표
434,양구DMZ,강원 양구군,강원도 양구군 해안면 해안서화로 35,128.146226598083,38.2896304678625,정좌표
435,평창 스키점프 전망대,강원 평창군,강원도 평창군 대관령면 솔봉로 325,128.667839773832,37.6623382167551,정좌표
436,매월대폭포,강원 철원군,강원도 철원군 근남면 잠곡리 222-5,127.476848335526,38.194973388926,정좌표
437,지경리해변,강원 양양군,강원도 양양군 현남면 동해대로 62,128.803290342317,37.9204278468859,정좌표
438,동강(영월),강원 영월군,강원도 영월군 영월읍 동강로 826,128.510037632666,37.2333962499851,정좌표
439,구룡폭포(소금강),강원 강릉시,강원도 강릉시 연곡면 소금강길 500,128.704511466567,37.8135736716076,정좌표
441,국립 백운산자연휴양림(원주),강원 원주시,강원도 원주시 판부면 백운산길 81,127.942100808948,37.2771777111507,정좌표
442,태백 추전역,강원 태백시,강원도 태백시 싸리밭길 47-63,128.950459281232,37.2002776742981,정좌표
443,수타사계곡,강원 홍천군,강원도 홍천군 동면 수타사로 473,127.959399444851,37.6985656813329,정좌표
444,금진해변,강원 강릉시,강원도 강릉시 옥계면 헌화로 271,129.043457216151,37.6395380385295,정좌표
445,정감이마을,강원 강릉시,강원도 강릉시 강동면 둔지길 81,128.955962006478,37.7168569442471,정좌표
448,강릉 임영관 삼문,강원 강릉시,강원도 강릉시 임영로131번길 6,128.891797150219,37.7531282807985,정좌표
449,삼척 덕풍계곡마을,강원 삼척시,강원도 삼척시 가곡면 풍곡안길 17-18,129.155807191864,37.1250942252772,정좌표
450,칠봉유원지,강원 원주시,강원도 원주시 호저면 칠봉마을길 35,127.884252076245,37.440650427905,정좌표
451,새말관광농원,강원 횡성군,강원도 횡성군 우천면 전재로90번길 49,128.079978570334,37.4401032756649,정좌표
454,도피안사(철원),강원 철원군,강원도 철원군 동송읍 도피동길 23,127.218002763837,38.2402849502322,정좌표
455,연곡해변(연곡해수욕장),강원 강릉시,강원도 강릉시 연곡면 해안로 1282,128.854367858403,37.8583512666555,정좌표
456,치악산자연휴양림,강원 원주시,강원도 원주시 판부면 휴양림길 66,128.031037757281,37.2557364359703,정좌표
457,토교저수지(철새도래지),강원 철원군,강원도 철원군 동송읍 양지길 117,127.289825225838,38.2709721177775,정좌표
458,쉰움산,강원 삼척시,강원도 동해시 삼화로 584,129.014301151077,37.4633096307781,정좌표
459,감자꽃 스튜디오,강원 평창군,강원도 평창군 평창읍 고길천로 105,128.43912684988,37.3688014511903,정좌표
460,갈천약수터,강원 양양군,강원도 양양군 서면 구룡령로 1103-66,128.502948479936,37.905867339726,정좌표
461,태종대(횡성),강원 횡성군,강원도 횡성군 강림면 태종로 287,128.109595770758,37.3511672118353,정좌표
462,인제향교,강원 인제군,강원도 인제군 인제읍 인제로231번길 14,128.174561089151,38.0717407836357,정좌표
463,백덕산(영월),강원 영월군,강원도 영월군 무릉도원면 백년계곡길 200-5,128.270238388735,37.3830636066627,정좌표
465,오호어촌체험마을,강원 고성군,강원도 고성군 죽왕면 심층수길 36-1,128.528300217977,38.3268192518214,정좌표
467,원주 협동사회경제네트워크,강원 원주시,강원도 원주시 원일로 137,127.947284718456,37.3511159284508,정좌표
468,양양 양수발전소 홍보관,강원 양양군,강원도 양양군 서면 산얏골길 10,128.542985163645,38.0190261674505,정좌표
470,궁촌해변(궁촌해수욕장),강원 삼척시,강원도 삼척시 근덕면 궁촌해변길 65,129.267188120876,37.3237722760248,정좌표
471,학사평 콩꽃마을 순두부촌,강원 속초시,강원도 속초시 원암학사평길 142,128.523671009384,38.2056733440626,정좌표
472,무릉계곡관광지,강원 동해시,강원도 동해시 삼화로 538 일원,129.019395370747,37.4634717122061,정좌표
473,"죽정분교(구,죽정초등학교)",강원 고성군,강원도 고성군 현내면 모정2길 2,128.419933875138,38.4702940065858,정좌표
474,황산사,강원 강릉시,강원도 강릉시 운정길21번길 27,128.881515160562,37.7870239625759,정좌표
475,홍천 삼생마을,강원 홍천군,강원도 홍천군 서석면 구룡령로 2838,128.217484747041,37.7049028902744,정좌표
477,매화마을(매호리마을),강원 원주시,강원도 원주시 호저면 매호로 135,127.882807595235,37.4156127376583,정좌표
478,횡성 휴선체험원,강원 횡성군,강원도 횡성군 횡성읍 태기로개전4길 14-16,128.014845559417,37.4998306302329,정좌표
480,소양강댐 물 문화관,강원 춘천시,강원도 춘천시 신북읍 신샘밭로 1128,127.815102096331,37.9487991624288,정좌표
481,장수대,강원 인제군,강원도 인제군 북면 설악로 4193,128.341893514244,38.1194144768163,정좌표
482,금강사(강릉),강원 강릉시,강원도 강릉시 연곡면 소금강길 670,128.690873099413,37.8062306417776,정좌표
483,미시령계곡,강원 인제군,강원 인제군 북면 용대2리,128.270313763197,38.1668771728407,정좌표
484,하이트진로 강원공장,강원 홍천군,강원도 홍천군 북방면 도둔길 49,127.838808191883,37.69099704079,정좌표
485,청초호 둘레길,강원 속초시,강원도 속초시 엑스포로 140,128.581998164138,38.1968600748524,정좌표
487,금강굴,강원 속초시,강원도 속초시 설악산로 1091,128.488472248835,38.1735026480205,정좌표
488,팔봉산관광지,강원 홍천군,강원도 홍천군 서면 한치골길 1124,127.69592707054,37.7036252929571,정좌표
489,개미들마을,강원 정선군,강원도 정선군 남면 광락로 354,128.692747930982,37.3189643272535,정좌표
490,태백고생대자연사 박물관,강원 태백시,강원도 태백시 태백로 2249,129.039632077622,37.0948995474084,정좌표
493,만산동계곡,강원 화천군,강원도 화천군 상서면 만산동로 406-38,127.560368539362,38.143112101121,정좌표
494,횡성 산채마을,강원 횡성군,강원도 횡성군 둔내면 삽교로 386,128.262988785467,37.5446226446042,정좌표
495,강릉 심상진가옥,강원 강릉시,강원도 강릉시 운정길 125,128.891376034201,37.7860066523156,정좌표
496,동강(정선),강원 정선군,강원도 정선군 정선읍 동강로 2908,128.62350524648,37.3603017691176,정좌표
497,횡성 밤두둑마을,강원 횡성군,강원도 횡성군 횡성읍 반곡3길 6,127.961583396843,37.4665674266348,정좌표
500,청평사계곡,강원 춘천시,강원도 춘천시 북산면 오봉산길 810,127.808638117086,37.9859314930752,정좌표
501,춘천지구 전적비(춘천지구 전적기념관),강원 춘천시,강원도 춘천시 수변공원길 45,127.70488351212,37.8738696063223,정좌표
504,현덕사(강릉),강원 강릉시,강원도 강릉시 연곡면 싸리골길 170,128.70346059325,37.8595579622548,정좌표
507,자규루 및 관풍헌,강원 영월군,강원도 영월군 영월읍 중앙로 61,128.470926692464,37.1840001489522,정좌표
508,삼척 신리 너와집과 민속유물,강원 삼척시,강원도 삼척시 도계읍 문의재로 1223-9,129.133685527986,37.1871370696959,정좌표
509,허균·허난설헌 기념공원,강원 강릉시,강원도 강릉시 난설헌로193번길 1-29,128.909546064238,37.7910246773813,정좌표
510,염전해변,강원 강릉시,강원도 강릉시 강동면 염전길 171,128.9833199725,37.7418050630505,정좌표
511,횡성자연휴양림,강원 횡성군,강원도 횡성군 갑천면 정포로430번길 113,128.111141577971,37.5391775772696,정좌표
512,안인해변(안인해수욕장),강원 강릉시,강원도 강릉시 강동면 안인진길 34-22,128.989572560089,37.7346851575216,정좌표
513,화천 조경철 천문대,강원 화천군,강원도 화천군 사내면 천문대길 453,127.433596669446,38.1171331656424,정좌표
514,필례약수,강원 인제군,강원도 인제군 인제읍 필례약수길 21,128.371210499982,38.0718288505151,정좌표
516,거진 등대,강원 고성군,강원도 고성군 거진읍 거탄진로209번길,128.462823184561,38.4486429426405,인근좌표
517,낙산도립공원,강원 양양군,강원도 양양군 강현면 일출로 42,128.631498630133,38.1158521991331,정좌표
518,국순당 주향로,강원 횡성군,강원도 횡성군 둔내면 강변로 975,128.195252037619,37.48920464665,정좌표
519,시립박물관,강원 삼척시,강원도 횡성군 둔내면 강변로 975,128.195252037619,37.48920464665,정좌표
520,보덕사(영월),강원 영월군,강원도 영월군 영월읍 보덕사길 34,128.458270781697,37.1979100729714,정좌표
523,원주향교,강원 원주시,강원도 원주시 향교길 37-1,127.949561270353,37.3390434596306,정좌표
524,북평해암정,강원 동해시,강원도 동해시 촛대바위길 19,129.1588757171,37.4776968003371,인근좌표
525,고라데이마을,강원 횡성군,강원도 횡성군 청일면 봉명로 375-1,128.139388927832,37.6482656470023,정좌표
526,공지천 조각공원,강원 춘천시,강원도 춘천시 이디오피아길 25,127.709526122085,37.8746185342941,정좌표
527,용늪자연생태학교,강원 인제군,강원도 인제군 서화면 금강로 1106-27,128.211110323737,38.1956267584769,정좌표
529,백석산지구 전투전적비,강원 양구군,강원 양구군 방산면 송현리 233,127.961489599876,38.2297977652745,정좌표
530,태양의 후예 촬영지,강원 태백시,강원도 태백시 통골길 116-52,129.043125717789,37.1605163068583,정좌표
531,백담마을,강원 인제군,강원도 인제군 북면 만해로 410-17,128.345293828002,38.1948534293517,정좌표
533,삼척 준경묘,강원 삼척시,강원도 삼척시 미로면 준경길 333-360,129.059444626838,37.3671730534846,정좌표
534,경포도립공원,강원 강릉시,강원도 강릉시 사천면 산284-1,128.822097677079,37.8108921926813,정좌표
535,쟁강게스트하우스마을 (관광두레 주민사업체),강원 춘천시,강원도 춘천시 서면 툇골길 7,127.702161631486,37.9356856883002,정좌표
536,심원사(철원),강원 철원군,강원도 철원군 동송읍 상노1길 58,127.24982032417,38.1633503578066,정좌표
537,원주 학곡마을,강원 원주시,강원도 원주시 소초면 구룡사로 7,128.057474442924,37.437047770186,정좌표
539,입석사(원주),강원 원주시,강원도 원주시 소초면 황골로 707,128.035562822732,37.3601764446962,정좌표
541,백룡동굴,강원 평창군,강원도 평창군 미탄면 문희길 63,128.577065861366,37.277862439902,정좌표
542,국립 미천골자연휴양림,강원 양양군,강원도 양양군 서면 미천골길 168-16,128.514513721564,37.9450859681246,인근좌표
543,춘천향교,강원 춘천시,강원도 춘천시 삭주로 21,127.734455547685,37.8818731964357,정좌표
544,"월남 파병용사 만남의 장 (구, 베트남 참전용사 만남의 장)",강원 화천군,강원도 화천군 간동면 죽엽산길 81-68,127.83529814595,38.0551807047703,정좌표
546,세계 평화의종 공원,강원 화천군,강원도 화천군 화천읍 평화로 3481-18,127.846158440866,38.2136637843342,정좌표
548,삼척공양왕릉,강원 삼척시,강원도 삼척시 근덕면 공양왕길 43-21,129.264873336857,37.3261940531017,정좌표
549,양양 진전사지 삼층석탑,강원 양양군,강원도 양양군 강현면 화채봉길 313,128.549062039481,38.1206311102012,정좌표
551,심곡약천마을,강원 동해시,강원도 동해시 약천길 61,129.082402180055,37.5812105957724,정좌표
552,모둘자리 힐링체험마을,강원 홍천군,강원도 홍천군 서석면 검산길 147-19,128.23059912125,37.7115810566285,정좌표
554,공수전계곡,강원 양양군,강원도 양양군 서면 용소길 35,128.557828385374,38.0360938845901,정좌표
555,매산관광농원,강원 원주시,강원도 원주시 흥업면 분지동1길 42,127.926385183612,37.2784510704343,정좌표
560,장사항,강원 속초시,강원도 속초시 장사항해안길 58,128.588015788479,38.2266393107712,정좌표
561,철원 시설물관리사업소 (구 철의삼각전적관),강원 철원군,강원도 철원군 동송읍 태봉로 1825,127.289356619231,38.1879928883534,정좌표
564,용연사(강릉),강원 강릉시,강원도 강릉시 사천면 중앙서로 961,128.780261682241,37.7894667735695,정좌표
569,비선대,강원 속초시,강원도 속초시 설악산로 1091,128.488472248835,38.1735026480205,정좌표
570,양양 탁장사마을,강원 양양군,강원도 양양군 현북면 어성전길 256,128.665798948563,37.9401669987541,정좌표
571,옥계해변,강원 강릉시,강원도 강릉시 옥계면 금진솔밭길 104-32,129.048329393782,37.6277375033201,정좌표
572,천곡천연동굴 자연학습체험공원,강원 동해시,강원도 동해시 동굴로 50,129.110482206196,37.5175268507865,정좌표
573,애견전용해수욕장 멍비치,강원 양양군,강원도 양양군 현남면 광진리 78-20,128.772826363068,37.9533368305723,정좌표
574,정선 양떼목장,강원 정선군,강원도 정선군 정선읍 오반동길 470,128.70143920477,37.3855426613582,정좌표
575,강릉 해운정,강원 강릉시,강원도 강릉시 운정길 125,128.891376034201,37.7860066523156,정좌표
577,멸공OP,강원 철원군,강원도 철원군 철원읍 평화로 3591,127.166284658238,38.2574589359798,정좌표
578,어답산관광지,강원 횡성군,강원도 횡성군 갑천면 어답산로 516,128.057508902021,37.5937929251876,정좌표
579,장산(영월),강원 영월군,강원도 영월군 상동읍 구래리 산 1-16,128.840835441883,37.1444694024584,인근좌표
581,소금강 장천마을,강원 강릉시,강원도 강릉시 연곡면 진고개로 1502,128.70464907206,37.8464966926493,정좌표
582,이효석가산공원,강원 평창군,강원도 평창군 봉평면 효석문학길 9-5,128.363344129277,37.6109407757823,정좌표
583,화천향교,강원 화천군,강원도 화천군 화천읍 상승로1길 48-16,127.697936919576,38.1059446203408,정좌표
584,조양산(정선),강원 정선군,강원도 정선군 정선읍 용담길 102-22,128.653954597726,37.3769402370035,정좌표
586,철원 평화마을 서울캠핑장,강원 철원군,강원도 철원군 근북면 유곡로 545,127.398439411372,38.3009375335753,정좌표
589,황산사(원주),강원 원주시,강원도 원주시 귀래면 미륵산길 202,127.864978980641,37.1831932579993,정좌표
590,설피마을,강원 인제군,강원도 인제군 기린면 설피밭길 434,128.474643284635,38.0186729907331,정좌표
592,소망의탑,강원 삼척시,강원도 삼척시 새천년도로 233,129.188242874145,37.4507147314713,정좌표
593,보현사(강릉),강원 강릉시,강원도 강릉시 성산면 보현길 396,128.769673915303,37.7368188250996,정좌표
594,화천 하늘빛호수마을,강원 화천군,강원도 화천군 하남면 호수마을길 39,127.669830805193,38.0552624112448,정좌표
595,영월 뼝창마을,강원 영월군,강원도 영월군 영월읍 동강로 1490,128.527501385459,37.27130507846,정좌표
596,원주 삼태미마을 [산촌생태마을],강원 원주시,강원도 원주시 귀래면 운계다둔길 111,127.895965494413,37.2006193789109,정좌표
597,원평해변(원평해수욕장),강원 삼척시,강원도 삼척시 근덕면 궁촌길 628-22,129.271437230329,37.3004590287533,정좌표
598,강원참숯,강원 횡성군,강원도 횡성군 갑천면 정포로 327,128.100993784239,37.5289542867499,정좌표
599,망향의 동산(횡성),강원 횡성군,강원도 횡성군 갑천면 태기로구방5길 40,128.067013565544,37.545555095576,정좌표
600,설악 파인리조트 가든스파,강원 속초시,강원도 속초시 관광로408번길 14,128.538942506544,38.1960019774847,정좌표
602,도경리역(삼척),강원 삼척시,강원도 삼척시 도경북길 121,129.115840844883,37.4424202689256,정좌표
604,춘천수력발전소,강원 춘천시,강원도 춘천시 신북읍 영서로 3746,127.673942377936,37.9676885029389,인근좌표
607,광덕계곡,강원 화천군,강원도 화천군 사내면 포화로 582,127.481746592255,38.0763260839083,정좌표
608,도사곡휴양림,강원 정선군,강원도 정선군 사북읍 지장천로 436-27,128.795586467658,37.2266696057277,정좌표
609,원주 고려인삼창,강원 원주시,강원도 원주시 소초면 북원로 2955,127.949030887453,37.4083501327287,정좌표
611,가리산(홍천),강원 홍천군,강원도 홍천군 두촌면 가리산길 260-9,127.998700968805,37.8542761330548,정좌표
612,삼방동전망대,강원 태백시,강원도 태백시 삼방1길 2-28,129.038227577249,37.1152384373567,정좌표
614,영월 하송리 은행나무,강원 영월군,강원도 영월군 영월읍 은행나무길 65,128.464019594488,37.1784724999015,정좌표
615,오색약수골전통장,강원 양양군,강원도 양양군 서면 백암길 66-1,128.506309649651,38.0795424390798,정좌표
616,학저수지,강원 철원군,강원도 철원군 동송읍 학마을길 68,127.222218480531,38.2300162319588,정좌표
617,오봉서원,강원 강릉시,강원도 강릉시 성산면 오봉서원길 28-7,128.819463365585,37.7108290329139,정좌표
618,두타산,강원 동해시,강원도 동해시 삼화로 533,129.019989978637,37.4631745697625,정좌표
619,평화의 댐 물 문화관,강원 화천군,강원도 화천군 화천읍 동촌리 산321-4,127.84414907925,38.2118180449621,인근좌표
620,수하계곡(평창),강원 평창군,강원도 평창군 미탄면 평안한치길 43-13,128.502224724854,37.3443313172117,정좌표
622,윤희순여사 동상,강원 춘천시,강원도 춘천시 옛경춘로 830-24,127.710846294607,37.8705287453814,정좌표
623,치악산 명주사,강원 원주시,강원도 원주시 신림면 물안길 62,128.128716763602,37.2571205848903,정좌표
626,양구생태식물원,강원 양구군,강원도 양구군 동면 숨골로310번길 169,128.07628098236,38.1919047866283,정좌표
627,조양루,강원 춘천시,강원도 춘천시 중앙로 1,127.729093750382,37.8850428303909,정좌표
628,보문사(원주),강원 원주시,강원도 원주시 고문골길 270,128.026420886427,37.3334769666172,정좌표
629,구 철원제일교회,강원 철원군,강원도 철원군 철원읍 금강산로 319,127.203430757229,38.2503441991918,정좌표
631,영월 김삿갓면,강원 영월군,강원도 영월군 김삿갓면 김삿갓로 216-22,128.601738545933,37.0794949479644,정좌표
632,배두둑호박넝쿨마을,강원 평창군,강원도 평창군 대화면 선애길 90,128.402712158544,37.4735942756755,정좌표
634,춘천봉의산성,강원 춘천시,강원도 춘천시 번개시장길4번길 20-6,127.727640901839,37.8898991789819,정좌표
635,산속호수마을,강원 화천군,강원도 화천군 화천읍 호음로 806,127.790192114616,38.1260697696678,정좌표
636,허난설헌 생가터,강원 강릉시,강원도 강릉시 난설헌로193번길 1-16,128.909514608237,37.7919871418139,정좌표
638,금학산관광농원,강원 홍천군,강원도 홍천군 북방면 팔봉산로 2050-88,127.773902079408,37.7208926852426,정좌표
641,감성마을 이외수 문학관,강원 화천군,강원도 화천군 상서면 감성마을길 157,127.516335233289,38.166559399017,정좌표
642,영진항,강원 강릉시,강원 강릉시 연곡면 영진리 2-3,128.84812478788,37.8679138162915,정좌표
643,춘천최재근가옥,강원 춘천시,강원도 춘천시 신동면 솟발길 33-11,127.727758619225,37.8431751064053,정좌표
645,하평해변,강원 강릉시,강원도 강릉시 사천면 진리해변길 155,128.87195083783,37.8441310125478,정좌표
646,달뜨락마을,강원 정선군,강원도 정선군 정선읍 가내길 16,128.593044908336,37.4049151536879,정좌표
647,아리랑학교 추억의 박물관,강원 정선군,강원도 정선군 신동읍 함백로 565,128.694254568485,37.2149795399678,정좌표
648,춘천 솔바우마을,강원 춘천시,강원도 춘천시 사북면 솔바우길 195,127.686463587256,37.9958245021238,정좌표
650,소지섭길,강원 양구군,강원도 양구군 방산면 두타연로 8,127.983658277181,38.2268542598298,정좌표
652,양양향교,강원 양양군,강원도 양양군 양양읍 거마천로 52-20,128.606217959361,38.0789293981834,정좌표
656,경포가시연습지,강원 강릉시,강원도 강릉시 운정동 670,128.893293012849,37.7902043783028,인근좌표
657,화로구이 골목,강원 홍천군,강원도 홍천군 홍천읍 오안로 3-2,127.830455280853,37.6604856450892,정좌표
661,삼운사(춘천),강원 춘천시,강원도 춘천시 후석로441번길 12,127.74186935422,37.8884671121396,정좌표
664,강릉 한울타리마을,강원 강릉시,강원도 강릉시 옥계면 풍동로 406,128.991732356392,37.6175872805062,정좌표
665,철원 누에마을,강원 철원군,강원도 철원군 근남면 도덕동길 13,127.459968447563,38.1655003145451,정좌표
666,당골계곡,강원 태백시,강원도 태백시 천제단길 168,128.95092232591,37.1198420337625,정좌표
667,계방산(평창),강원 평창군,강원도 평창군 용평면 운두령로 1243,128.444542417548,37.7071048816926,정좌표
668,두루웰 자연휴양림,강원 철원군,강원도 철원군 갈말읍 지경1길 69,127.353266449688,38.2280958761338,정좌표
669,노추산,강원 정선군,강원도 정선군 여량면 노추산로 912-2,128.734423306752,37.5239417142262,정좌표
670,영원사(원주),강원 원주시,강원도 원주시 판부면 영원산성길 685,128.030459771735,37.30525011661,정좌표
671,불바라기약수터,강원 양양군,강원도 양양군 서면 미천골길 115,128.511971157923,37.9489978990596,정좌표
672,구성폭포 (구송폭포),강원 춘천시,강원도 춘천시 북산면 오봉산길 674,127.817016792983,37.9792046979262,정좌표
673,태백 시티투어,강원 태백시,강원도 태백시 서황지로 79,128.983379683859,37.1763383293677,정좌표
674,국립축산과학원 한우연구소,강원 평창군,강원도 평창군 대관령면 경강로 4937,128.683317292483,37.69021291049,정좌표
675,주천강자연휴양림,강원 횡성군,강원도 횡성군 둔내면 강변로영랑6길 115,128.203709613739,37.4592770694712,정좌표
676,소금강장천마을,강원 강릉시,강원도 강릉시 연곡면 진고개로 1502,128.70464907206,37.8464966926493,정좌표
681,원평 팜스테이,강원 춘천시,강원도 춘천시 사북면 말고개길 82-35,127.628608885261,38.0037747601144,정좌표
682,연곡 신왕리 마암터마을,강원 강릉시,강원도 강릉시 연곡면 신왕길 388-1,128.772753883865,37.8279554744069,정좌표
683,봉포김여사카페,강원 고성군,강원도 고성군 토성면 토성로 96,128.562624182199,38.2546789770569,정좌표
684,동해향교,강원 동해시,강원도 동해시 승지로 84-3,129.092207954724,37.5400530255544,정좌표
685,신약수(가리골약수),강원 평창군,강원 평창군 용평면 속사2리,128.452026205419,37.5903584928314,정좌표
686,금당계곡,강원 평창군,강원도 평창군 대화면 금당계곡로 766-2,128.394220906191,37.4824198829502,정좌표
688,초도마을,강원 고성군,강원도 고성군 현내면 초도항길 60,128.438770492628,38.4849815559526,정좌표
689,외옹치마을,강원 속초시,강원도 속초시 해오름로 77-16,128.606841970261,38.1821256654192,정좌표
690,DMZ산림두드림센터,강원 양구군,강원도 양구군 양구읍 박수근로 367,127.981276521664,38.1040847305237,정좌표
691,매봉산,강원 영월군,강원도 영월군 중동면 성황골길 127-33,128.632093749875,37.1523209220714,정좌표
692,인제 미산리 개인약수,강원 인제군,강원도 인제군 상남면 미산리 산1 일원,128.359736037149,37.8748693756247,정좌표
693,다물자연학교,강원 홍천군,강원도 홍천군 북방면 도사곡길 805,127.805745823971,37.6856454985636,정좌표
695,대굴령마을,강원 강릉시,강원도 강릉시 성산면 성연로 17,128.815264645276,37.7226330617398,정좌표
697,이효석 생가터,강원 평창군,강원도 평창군 봉평면 이효석길 33-11,128.360249004472,37.6107627452632,정좌표
698,어성전계곡,강원 양양군,강원도 양양군 현북면 어성전길 93-98,128.672521777974,37.948943726595,정좌표
700,구룡산(강원),강원 영월군,강원도 영월군 무릉도원면 운학리 1111-5,128.19063807794,37.3298864227153,정좌표
701,봉복사(횡성),강원 횡성군,강원도 횡성군 청일면 청일로 909-88,128.2260679737,37.5974833437096,정좌표
702,춘천김정은가옥,강원 춘천시,강원도 춘천시 신동면 솟발1길 44,127.729067982221,37.8450608158101,정좌표
703,동산포해변,강원 양양군,강원도 양양군 현남면 동해대로 912,128.755264484932,37.9831437567141,정좌표
705,인제 냇강마을,강원 인제군,강원도 인제군 북면 냇강마을안길 32,128.205860027241,38.148585216979,정좌표
706,장전계곡,강원 평창군,강원도 평창군 진부면 장전길 2,128.564205954779,37.5008266428135,인근좌표
708,해산전망대,강원 화천군,강원도 화천군 화천읍 동촌리 산11-7,127.817454294778,38.194495859816,정좌표
711,행구수변공원,강원 원주시,강원도 원주시 행구동 1026,127.996154939265,37.3418739697132,인근좌표
712,화천 토속어류생태체험관,강원 화천군,강원도 화천군 간동면 어룡동길 366,127.763798368741,38.1254223421037,정좌표
713,철원향교,강원 철원군,강원도 철원군 철원읍 금학로 591,127.213576792935,38.239210757079,정좌표
714,간성향교,강원 고성군,강원도 고성군 간성읍 진부령로 2659,128.438830078507,38.3781014210083,정좌표
715,동명서원,강원 양양군,강원도 양양군 양양읍 서원길 44-9,128.629276459105,38.1109911654525,정좌표
717,월둔동굴,강원 태백시,강원도 태백시 원동 산117번지,128.944233907407,37.2563199057622,정좌표
718,작은후진해수욕장,강원 삼척시,강원도 삼척시 새천년도로 467,129.175889533181,37.4638768448291,정좌표
719,공수전리 마을관리휴양지,강원 양양군,강원도 양양군 서면 구룡령로 2829-7,128.554929780864,38.0401642775433,정좌표
721,계방산(홍천),강원 홍천군,강원도 홍천군 내면 대한동길 363-8,128.420951568625,37.7588741716919,정좌표
725,원주교항리석조불두,강원 원주시,강원도 원주시 소초면 치악로 2966,128.010318018057,37.4314965298625,정좌표
726,88공원,강원 화천군,강원도 화천군 간동면 어룡동길 42-50,127.763975557524,38.0967705506907,정좌표
727,양구 국토정중앙배꼽마을,강원 양구군,강원도 양구군 남면 봉화산로 425,128.023180432826,38.0717799438111,정좌표
728,봉산서재,강원 평창군,강원도 평창군 봉평면 봉산서재길 17,128.381594402962,37.5994717033194,정좌표
729,구봉대산,강원 영월군,강원도 영월군 무릉도원면 무릉법흥로 1229,128.271786093088,37.3648955337069,정좌표
732,장신유원지,강원 고성군,강원도 고성군 간성읍 소똥령마을길 32,128.378404716123,38.3305071185095,정좌표
734,팔석정,강원 평창군,강원도 평창군 봉평면 쉴바위길 33-11,128.377175565625,37.5999980147931,정좌표
735,홍천 풍암리 동학혁명군전적지,강원 홍천군,강원도 홍천군 서석면 풍암길 11,128.184863218169,37.7145099825925,정좌표
736,구봉산,강원 춘천시,강원도 춘천시 동면 순환대로 1154-115,127.777161629347,37.8932371547337,정좌표
737,강촌 출렁다리공원,강원 춘천시,강원도 춘천시 남산면 강촌리 671-5,127.635766575471,37.8135554243077,정좌표
738,고석정 (한탄강 국가지질공원),강원 철원군,강원도 철원군 동송읍 태봉로 1825,127.289356619231,38.1879928883534,정좌표
739,삼봉약수,강원 홍천군,강원도 홍천군 내면 월둔길 63-2,128.42441944959,37.8376863218907,정좌표
740,의암수력발전소,강원 춘천시,강원도 춘천시 신동면 옛경춘로 62-15,127.680176350035,37.8324125485166,인근좌표
742,청옥산,강원 동해시,강원도 평창군 미탄면 청옥산길 557-4,128.49019414738,37.3747282563543,정좌표
743,운암정,강원 횡성군,강원도 횡성군 횡성읍 한우로 193,127.981471259947,37.4966543712751,정좌표
744,동해기관차승무사업소(동해역),강원 동해시,강원도 동해시 동해역길 69,129.120437391061,37.4956519860185,정좌표
746,의민공사우,강원 원주시,강원도 원주시 지정면 지정로 626,127.820571285027,37.3440321522245,정좌표
747,정선향교,강원 정선군,강원도 정선군 정선읍 비봉로 67-9,128.665492297177,37.3822565496552,정좌표
748,잣봉(영월),강원 영월군,강원도 영월군 영월읍 어라연길 4,128.513461170872,37.2359833133924,정좌표
749,용산서원(동해),강원 동해시,강원도 동해시 효자로 583,129.098722426022,37.489319038085,정좌표
750,양구근현대사박물관,강원 양구군,강원도 양구군 양구읍 금강산로 439-51,127.990406424173,38.1222254886513,정좌표
751,마대산,강원 영월군,강원도 영월군 김삿갓면 김삿갓로 216-22,128.601738545933,37.0794949479644,정좌표
754,양구공예공방,강원 양구군,강원도 양구군 양구읍 박수근로257번길 10,127.982948323075,38.0946809907008,정좌표
755,현산공원,강원 양양군,강원도 양양군 양양읍 군청길 1,128.618538093914,38.0754219634758,정좌표
758,한섬해변,강원 동해시,강원도 동해시 한섬해안길 9,129.121649992593,37.5211142780439,정좌표
761,두위봉,강원 정선군,강원도 정선군 사북읍 지장천로 436-27,128.795586467658,37.2266696057277,정좌표
763,상원사,강원 춘천시,강원도 춘천시 서면 박사로 169-47,127.669703672479,37.8411302914054,정좌표
764,극락암(강원),강원 고성군,강원도 고성군 간성읍 교동2길 26,128.440238434484,38.3807690510433,정좌표
765,기사문마을,강원 양양군,강원도 양양군 현북면 기사문길 22,128.731198792591,38.0070681427044,정좌표
766,송담서원(강릉),강원 강릉시,강원도 강릉시 강동면 송담서원길 27-7,128.929197424391,37.692974293511,정좌표
767,횡성향교,강원 횡성군,강원도 횡성군 횡성읍 향교로 12,127.993412928698,37.4865809016002,정좌표
769,황토구들마을,강원 평창군,강원도 평창군 용평면 의풍포길 23-10,128.402385234672,37.5747985360317,정좌표
770,에어링화천,강원 화천군,강원도 화천군 화천읍 강변로 2-54,127.697052454736,38.100713046422,정좌표
771,명주사(양양),강원 양양군,강원도 양양군 현북면 어성전길 93-229,128.680420846065,37.9482563885634,정좌표
772,인제 하늘여울소치마을,강원 인제군,강원도 인제군 남면 부평정자로 744,128.130467860845,37.9597882950095,정좌표
773,수림대마을 [녹색체험관광마을],강원 평창군,강원도 평창군 봉평면 수림대길 167-25,128.371069610723,37.5259764463828,정좌표
774,위봉문,강원 춘천시,강원도 춘천시 중앙로 1,127.729093750382,37.8850428303909,정좌표
775,삼척 고무릉환선마을,강원 삼척시,강원도 삼척시 신기면 고무릉길 49,129.053587391478,37.3446150718672,정좌표
778,허난설헌 솔숲,강원 강릉시,강원도 강릉시 난설헌로193번길 1-16,128.909514608237,37.7919871418139,정좌표
779,김제남 신도비,강원 원주시,강원도 원주시 지정면 흥법사지길 18,127.820665397005,37.3427732907197,정좌표
780,계족산(영월),강원 영월군,강원도 영월군 영월읍 정양리 451,128.496873699113,37.1617576731316,정좌표
781,강원고생대국가지질공원,강원 정선군,강원도 정선군 정선읍 봉양3길 21,128.660794304616,37.3808425982879,정좌표
785,꺼먹다리,강원 화천군,강원도 화천군 화천읍 대이리 468-3,127.762314195836,38.1066345364709,정좌표
786,매월당김시습기념관,강원 강릉시,강원도 강릉시 운정길 85,128.887623279853,37.7862547802777,정좌표
788,구은사,강원 철원군,강원도 철원군 근남면 호국로 7003-23,127.473726932298,38.2552177270081,정좌표
789,척산족욕공원,강원 속초시,강원도 속초시 관광로 277,128.542029246537,38.1859247880144,정좌표
793,대진마을,강원 동해시,강원도 동해시 대진항길 46,129.112594187441,37.5811679941322,정좌표
794,세렴폭포,강원 원주시,강원도 원주시 소초면 구룡사로 427,128.046852584374,37.4049309949233,정좌표
795,후진마을,강원 삼척시,강원도 삼척시 새천년도로 460,129.177425762124,37.4636228748123,정좌표
796,늘햇살 농촌체험 만우마을,강원 동해시,강원도 동해시 마상천길 308,129.072153670811,37.5582660917422,정좌표
797,홍천향교,강원 홍천군,강원도 홍천군 홍천읍 석화로 101-14,127.889857244284,37.6972027257445,정좌표
798,영천사(원주),강원 원주시,강원도 원주시 치악로 2006-19,127.961935925108,37.3584476130588,정좌표
799,대포마을,강원 속초시,강원도 속초시 대포항1길 6-13,128.60717387119,38.1755841675698,정좌표
801,평창향교,강원 평창군,강원도 평창군 평창읍 향교길 148,128.391474145128,37.3718766641203,정좌표
802,양구 수목원,강원 양구군,강원도 양구군 동면 숨골로310번길 169,128.07628098236,38.1919047866283,정좌표
803,설악산소공원,강원 속초시,강원도 속초시 설악산로 1091,128.488472248835,38.1735026480205,정좌표
804,양구인문학박물관,강원 양구군,강원도 양구군 양구읍 파로호로869번길 101,127.981035601802,38.1221335483287,정좌표
805,강원숲체험장,강원 춘천시,강원도 춘천시 서면 삿갓봉길 102,127.659530815693,37.9628847503983,정좌표
812,원주 반곡역사,강원 원주시,강원도 원주시 달마중3길 30,127.994090742423,37.322448250358,정좌표
813,밧도내마을 [녹색관광마을],강원 영월군,강원도 영월군 주천면 밧도내길 11-34,128.236399837339,37.2911770110203,정좌표
814,물치마을,강원 양양군,강원도 양양군 강현면 물치천로 28,128.605115945973,38.1533658354242,정좌표
816,삼척 궁촌리 음나무,강원 삼척시,강원도 삼척시 근덕면 궁촌2길 58,129.261414658451,37.3144332476444,정좌표
817,동명마을,강원 속초시,강원도 속초시 장안로4길,128.589655339408,38.2114217294677,인근좌표
818,삼척 가시오가피마을,강원 삼척시,강원도 삼척시 노곡면 문의재로 2470,129.179225786302,37.2665416599391,정좌표
819,태백 경찰서 망루,강원 태백시,강원도 태백시 장성로 26,129.008829577976,37.10253440776,정좌표
821,전진항,강원 양양군,강원도 양양군 강현면 낙산사로 54-26,128.63226884983,38.1234308758605,인근좌표
822,이효석 문학의 숲,강원 평창군,강원도 평창군 봉평면 창동리 산139,128.356724860966,37.6003346802055,정좌표
823,장미공원,강원 원주시,강원도 원주시 단계동 854,127.931171071134,37.3466462133692,정좌표
824,추곡약수터,강원 춘천시,강원도 춘천시 북산면 추곡약수길 89-1,127.88892317259,38.0376805166067,인근좌표
825,화천 구운리 산천어마을,강원 화천군,강원도 화천군 상서면 만산동로 1042,127.625119602286,38.135403622935,정좌표
826,영월향교,강원 영월군,강원도 영월군 영월읍 영월향교길 64,128.475411126409,37.1853661296826,정좌표
827,선바위산(영월),강원 영월군,강원도 영월군 상동읍 선바위길 246,128.805337333044,37.1530100704857,정좌표
828,마평정수장 홍보관,강원 삼척시,강원도 삼척시 회강길 450,129.14035664405,37.4349014542879,인근좌표
830,중동마을,강원 정선군,강원도 정선군 여량면 중동길 38,128.740152103919,37.5189774007113,정좌표
832,용연사템플스테이,강원 강릉시,강원도 강릉시 사천면 중앙서로 961,128.780261682241,37.7894667735695,정좌표
833,청대산,강원 속초시,강원도 속초시 청대로 207,128.575992295709,38.1855847410462,정좌표
834,철원충렬사지,강원 철원군,강원도 철원군 김화읍 생창길 603,127.449747771407,38.2903078394578,정좌표
835,스카이워크,강원 인제군,강원도 인제군 인제읍 비봉로44번길 81,128.167979380512,38.0596136396818,정좌표
836,화천 토속어류생태관,강원 화천군,강원도 화천군 화천읍 상승로 126-1,127.703593138283,38.1116421702832,정좌표
837,경천묘,강원 원주시,강원도 원주시 귀래면 미륵산길 200,127.864624044919,37.1834861372424,정좌표
838,수달연구센터,강원 화천군,강원도 화천군 간동면 간척월명로 869-129,127.84204785381,38.0984224259291,정좌표
839,영은사(삼척),강원 삼척시,강원도 삼척시 근덕면 궁촌길 1162,129.25608000217,37.2833202025309,정좌표
843,문암해변,강원 삼척시,강원도 삼척시 근덕면 초곡길 340,129.289401009469,37.308966082702,정좌표
847,수상한마법학교,강원 강릉시,강원도 강릉시 사천면 미노길 103,128.848629702259,37.8263415850287,정좌표
849,양구 해시계,강원 양구군,강원도 양구군 양구읍 중앙길 53,127.989355572969,38.1050449169813,정좌표
851,봉산동당간지주,강원 원주시,강원도 원주시 개봉교길 41,127.958236352603,37.3455473676935,정좌표
852,양양 진전사지 도의선사탑,강원 양양군,강원도 양양군 강현면 화채봉길 368,128.545209581636,38.1230762545138,정좌표
854,오미마을,강원 양구군,강원도 양구군 방산면 평화로 4818,127.922227257519,38.1879566811029,정좌표
855,삼화사 템플스테이,강원 동해시,강원도 동해시 삼화로 538,129.019395370747,37.4634717122061,정좌표
857,㈜강원심층수,강원 고성군,강원도 고성군 죽왕면 심층수길 124-19,128.521043629611,38.3346341069791,정좌표
860,창절사,강원 영월군,강원도 영월군 영월읍 단종로 60,128.465340145074,37.1878608904376,정좌표
862,일출공원,강원 동해시,강원도 동해시 해맞이길 267,129.117250310697,37.5566406623263,정좌표
866,묵호항 울릉도 관광여객선,강원 동해시,강원도 동해시 임항로 129,129.113522502054,37.5434971404397,정좌표
868,산천어커피박물관,강원 화천군,강원도 화천군 화천읍 상승로2길 21,127.703764241885,38.1059740449832,정좌표
870,상정바위산,강원 정선군,강원도 정선군 북평면 문곡강변길 505,128.709046854505,37.4133206860149,정좌표
872,만덕사,강원 태백시,강원도 태백시 문곡소도동 196,128.948393088065,37.1178159514726,정좌표
873,대진1리해변,강원 고성군,강원도 고성군 현내면 한나루로4길 1,128.423606211423,38.5032959162233,정좌표
875,한재밑해변,강원 삼척시,강원도 삼척시 근덕면 삼척로 3840,129.216749618357,37.3953737108346,정좌표
876,양지리마을,강원 철원군,강원도 철원군 동송읍 양지3길 13-30,127.283792115095,38.2685153521872,정좌표
880,감추해변,강원 동해시,강원도 동해시 해안로 120,129.126656356712,37.5147016521424,정좌표
881,통일공원함정전시관,강원 강릉시,강원도 강릉시 강동면 율곡로 1616,129.004492106378,37.7184025962996,정좌표
882,장사(사진)마을,강원 속초시,강원도 속초시 장사항해안길 58,128.588015788479,38.2266393107712,정좌표
883,삼척향교,강원 삼척시,강원도 삼척시 향교길 34,129.16751652126,37.4499286184222,정좌표
887,산양서원,강원 삼척시,강원도 삼척시 원덕읍 산양서원1길 24,129.283624002924,37.1404376339346,정좌표
888,심마니마을(가시오가피 마을),강원 삼척시,강원도 삼척시 노곡면 문의재로 2470,129.179225786302,37.2665416599391,정좌표
889,방동리고구려고분,강원 춘천시,강원도 춘천시 서면 신숭겸로 272-21,127.663471796985,37.9038014212236,정좌표
890,나릿골 감성마을,강원 삼척시,강원도 삼척시 나리골길 12,129.187779013627,37.4394396843422,정좌표
892,영월음향역사박물관,강원 영월군,강원도 영월군 김삿갓면 내리계곡로 18,128.765068992354,37.064307515275,정좌표
893,뒷뜨루관광농원,강원 강릉시,강원도 강릉시 사천면 청솔공원길 108,128.837018961341,37.8353186212547,정좌표
897,소금강양떼목장,강원 강릉시,강원도 강릉시 연곡면 진고개로 1321,128.683671804031,37.8471645777022,정좌표
898,산천어시네마,강원 화천군,강원도 화천군 화천읍 상승로2길 25-10,127.702912802904,38.1061535197117,정좌표
900,구 조선식산은행 원주지점,강원 원주시,강원도 원주시 중앙로 88,127.951574939241,37.3490568265627,정좌표
901,노동서원,강원 홍천군,강원도 홍천군 서면 팔봉산로 1198-2,127.694976360959,37.7120926439089,정좌표
903,경포솔향온천,강원 강릉시,강원도 강릉시 해안로 292,128.920074540265,37.7912857639082,정좌표
907,강릉 대도호부 관아,강원 강릉시,강원도 강릉시 임영로131번길 6,128.891797150219,37.7531282807985,정좌표
908,탁장사고을,강원 양양군,강원도 양양군 현북면 어성전길 258,128.66595284693,37.9400110890144,정좌표
909,용추폭포,강원 동해시,강원도 동해시 삼화로 538,129.019395370747,37.4634717122061,정좌표
910,38해변,강원 양양군,강원도 양양군 현북면 기사문길 29,128.729989815314,38.0078174677312,정좌표
911,아야진항,강원 고성군,강원도 고성군 토성면 아야진해변길 48,128.557224588307,38.2704944803584,정좌표
912,강재구공원,강원 홍천군,강원도 홍천군 북방면 성동로 275,127.868471900444,37.728499126078,정좌표
913,용화마을,강원 삼척시,강원도 삼척시 근덕면 용화해변길 23,129.30424157101,37.2897947488201,정좌표
914,자연아놀자 체험학습박물관,강원 강릉시,강원도 강릉시 난설헌로 105,128.903729695594,37.7851627049979,정좌표
915,두루미평화마을,강원 철원군,강원도 철원군 철원읍 묘장로 301,127.169180935783,38.2648144568327,정좌표
917,덕가산,강원 영월군,강원도 영월군 김삿갓면 영월동로 1547,128.561084307806,37.1218251412794,정좌표
918,영모전,강원 영월군,강원도 영월군 영월읍 영모전길 148,128.469039661808,37.1899500102348,정좌표
919,용암사,강원 태백시,강원도 태백시 태백로 2000-119,129.007851855578,37.0911774947165,정좌표
920,정동진해안로,강원 강릉시,강원도 강릉시 강동면 안인리 708,128.976941183738,37.7331020594525,정좌표
922,소양호(인제),강원 인제군,강원도 인제군 남면 원남로 133,128.209372912432,37.9394044475254,정좌표
923,팔랑1리마을,강원 양구군,강원도 양구군 동면 바랑길 87,128.059289631442,38.2123619340115,정좌표
924,바우지움조각미술관,강원 고성군,강원도 고성군 토성면 원암온천3길 37,128.514675449872,38.2126784328167,정좌표
925,영월미디어기자박물관,강원 영월군,강원도 영월군 한반도면 서강로 1094,128.356421713302,37.2431215637751,정좌표
926,용암리선사유적,강원 화천군,강원도 화천군 하남면 춘화로 3281,127.699842927206,38.093806830115,정좌표
927,동화마을수목원,강원 원주시,강원도 원주시 문막읍 동화골길 170,127.855322136684,37.3151786027207,정좌표
928,홀로세 생태학교,강원 횡성군,강원도 횡성군 갑천면 갑천로690번길 156,128.15006913302,37.5273705369494,정좌표
929,피크 아일랜드,강원 평창군,강원도 평창군 대관령면 올림픽로 715,128.68482725028,37.6512664708239,정좌표
931,남전약수,강원 인제군,강원도 인제군 남면 남전리 산 145 일원,128.135391483081,38.0273738207607,정좌표
932,양구향교,강원 양구군,강원도 양구군 양구읍 관공서로16번길 5-4,127.991668982703,38.1079430127973,정좌표
934,컬러팜웨딩 포레스트 (관광두레 주민사업체),강원 홍천군,강원도 홍천군 서면 도롱골길 195-19,127.716672998748,37.6928912350837,정좌표
935,육향산,강원 삼척시,강원도 삼척시 새천년도로 16,129.184403668872,37.4359751332585,정좌표
936,오분해변,강원 삼척시,강원도 삼척시 오분동 208-1,129.191708673621,37.4264342961239,정좌표
937,민충사,강원 영월군,강원도 영월군 영월읍 금강공원길 136,128.478464325588,37.18548968026,정좌표
939,MS 빌리지 (푸른계곡 관광농원),강원 양양군,강원도 양양군 서면 관대문길 31,128.497131004664,38.0751268908835,정좌표
940,심밭골농원,강원 원주시,강원도 원주시 신림면 심박골길 1,128.038613170032,37.2339909493409,정좌표
941,평창 월정사 석조보살좌상,강원 평창군,강원도 평창군 진부면 오대산로 176,128.602615206649,37.7179765615,정좌표
942,가원습지 생태자연공원,강원 동해시,강원도 동해시 지가길 100,129.109028517703,37.4720131975806,정좌표
945,어달항,강원 동해시,강원도 동해시 일출로 230,129.120114112364,37.5625665877077,정좌표
946,강원 경찰충혼탑,강원 춘천시,강원도 춘천시 서면 박사로 1210,127.71257072461,37.9169102145361,정좌표
947,오세암,강원 인제군,강원도 인제군 북면 백담로 1325,128.42678386727,38.1500869103417,정좌표
948,강릉 예술창작인촌,강원 강릉시,강원도 강릉시 죽헌길 140-12,128.880255946044,37.7780903171532,정좌표
949,목우산,강원 영월군,강원도 영월군 중동면 응고개길 169-2,128.69388699877,37.1369726335524,정좌표
950,쌍계사(홍천),강원 홍천군,강원도 홍천군 내촌면 여창길 402,128.132812365969,37.8307037760489,정좌표
951,캔싱턴해변,강원 고성군,강원도 고성군 토성면 동해대로 4800,128.572638059094,38.2436449599422,정좌표
952,갯마을해변,강원 양양군,강원도 양양군 현남면 안남애길 48,128.785461104091,37.9446748510181,정좌표
953,용양늪,강원 철원군,강원도 철원군 김화읍 생창길 479,127.451367007999,38.2810470477045,정좌표
954,삼불사(고성),강원 고성군,강원도 고성군 거진읍 화포리 181,128.433424595627,38.4499158732101,정좌표
955,양양국제공항,강원 양양군,강원도 양양군 손양면 공항로 201,128.662903240032,38.0587420515401,정좌표
958,잣나무 연리지,강원 태백시,강원도 태백시 소도동 산 33-1,128.943091494072,37.1245727958552,정좌표
961,소이산,강원 철원군,강원도 철원군 사요리 산1번지,127.186432861513,38.2551200581191,정좌표
962,구문소마을,강원 태백시,강원도 태백시 사군드리길 7,129.038461293108,37.0932010292295,정좌표
963,고성 제3기 현무암 (강원평화지역 국가지질공원),강원 고성군,강원도 고성군 토성면 뒷골길 60,128.505820950196,38.2835240369431,정좌표
965,청호해변,강원 속초시,강원도 속초시 아바이마을1길 6,128.593965352981,38.2030014744168,정좌표
966,자연환경연구공원,강원 홍천군,강원도 홍천군 북방면 생태공원길 319,127.852432747965,37.754071449918,정좌표
967,학무정,강원 속초시,강원도 속초시 도문동 33-2,128.552055950404,38.1636393740911,정좌표
968,심곡항,강원 강릉시,강원도 강릉시 강동면 헌화로 655-2,129.051619957855,37.664918540173,정좌표
969,강릉시립미술관,강원 강릉시,강원도 강릉시 임영로 219-7,128.89192178806,37.7608336641437,인근좌표
970,유촌리 파로호 느릅마을,강원 화천군,강원도 화천군 간동면 파로호로 923-15,127.790183219646,38.0558606062073,정좌표
971,중광정해변,강원 양양군,강원도 양양군 현북면 하조대해안길 119,128.717262848893,38.0278176970211,정좌표
972,오랜미래신화미술관,강원 원주시,강원도 원주시 문막읍 취병로 711,127.769746911038,37.3500810701627,정좌표
973,영혈사(양양),강원 양양군,강원도 양양군 양양읍 불당골길 346,128.546108633653,38.1077281310654,정좌표
974,산양증식복원센터,강원 양구군,강원도 양구군 동면 펀치볼로 266-60,128.074315792365,38.2253811480897,정좌표
975,하이록한우체험농장,강원 춘천시,강원도 춘천시 사북면 춘화로 330-48,127.695808450353,37.979249271456,정좌표
976,원주역 급수탑,강원 원주시,강원도 원주시 평원로 158,127.944896556886,37.3570662116728,정좌표
977,효석문화마을,강원 평창군,강원도 평창군 봉평면 문학숲길 97,128.357000980847,37.6025607123655,정좌표
978,백석봉(정선),강원 정선군,강원도 정선군 북평면 졸드루길 11-16,128.632039667844,37.4585999133031,정좌표
979,군탄공원과 전역비,강원 철원군,강원도 철원군 갈말읍 호국로 4914-27,127.314317409073,38.1584094416719,정좌표
981,재동 마을관리휴양지,강원 삼척시,강원도 삼척시 근덕면 삼척로 3500,129.22853682556,37.3668760081977,정좌표
983,박사마을,강원 춘천시,강원도 춘천시 서면 당산1길 7,127.669240505606,37.8970391638381,정좌표
984,명개리 열목어마을,강원 홍천군,강원도 홍천군 내면 명개로 98,128.505850679375,37.8498588405465,정좌표
988,월정사 적멸보궁,강원 평창군,강원도 평창군 진부면 오대산로 374-8,128.593842051628,37.7320666016502,정좌표
989,의암 유인석묘역,강원 춘천시,강원도 춘천시 남면 충효로 1517,127.56936202204,37.7459375724447,정좌표
991,고불개해변,강원 동해시,강원도 동해시 한섬해안길 104,129.121685038875,37.5280952957061,정좌표
992,오규환 가옥,강원 강릉시,강원도 강릉시 강릉대로210번길 23-9,128.894007833369,37.756307211209,정좌표
993,덕고마을,강원 홍천군,강원도 횡성군 횡성읍 덕고로 410,128.021984130559,37.4734897172877,정좌표
994,기우산(정선),강원 정선군,강원도 정선군 정선읍 용담길 102-22,128.653954597726,37.3769402370035,정좌표
995,완택산,강원 영월군,강원도 영월군 영월읍 동강로 426,128.520277713466,37.2122683180856,정좌표
996,춘천예술마당,강원 춘천시,강원도 춘천시 서부대성로 71,127.731212305911,37.8824744728746,정좌표
997,강촌랜드,강원 춘천시,강원도 춘천시 남산면 강촌로 88,127.635324079505,37.8115158373537,정좌표
1001,태백 장성 전기고생대 화석산지,강원 태백시,강원도 태백시 장성동 산 42-2,129.016771624679,37.1018635364412,정좌표
1002,설악산국립공원 오색지구,강원 양양군,강원도 양양군 서면 대청봉길 95,128.451016995951,38.0777024770635,정좌표
1004,대진교강변 마을관리휴양지,강원 홍천군,강원도 홍천군 화촌면 구룡령로 149,127.957823113163,37.7503799727966,정좌표
1006,물치해변,강원 양양군,강원도 양양군 강현면 동해대로 3580,128.609993265761,38.1556933966132,정좌표
1007,토성민속마을,강원 철원군,강원도 철원군 갈말읍 토성길 114-18,127.343315645794,38.2450918190785,정좌표
1010,사천항,강원 강릉시,강원도 강릉시 사천면 진리해변길 68-23,128.878137811908,37.8368071267931,정좌표
1011,대안리느티나무,강원 원주시,강원도 원주시 흥업면 금산길 42,127.881875796715,37.294103663378,정좌표
1014,양구군민공원,강원 양구군,강원도 양구군 양구읍 양남로7번길 13,127.990967084212,38.1060769933644,정좌표
1015,발산,강원 영월군,강원도 영월군 영월읍 보덕사길 15-2,128.45543787408,37.1964208927575,정좌표
1017,원동성당,강원 원주시,강원도 원주시 원일로 27,127.953379387749,37.3454275388327,정좌표
1018,인구해변,강원 양양군,강원도 양양군 현남면 인구항길 12,128.761909750758,37.9702479954144,정좌표
1019,영월화석박물관,강원 영월군,강원도 영월군 주천면 평창강로 139,128.340815226879,37.293113304304,정좌표
1020,이효석 생가,강원 평창군,강원도 평창군 봉평면 이효석길 33-11,128.360249004472,37.6107627452632,정좌표
1021,터득골북샵,강원 원주시,강원도 원주시 흥업면 대안로 511-42,127.872319289738,37.267999244133,정좌표
1026,도계유리마을,강원 삼척시,강원도 삼척시 도계읍 도계로 31,129.038343936194,37.2134118823391,정좌표
1028,초곡항,강원 삼척시,강원도 삼척시 근덕면 초곡길 236-18,129.294878897582,37.3103826466628,정좌표
1029,수암리 마애삼존불상,강원 원주시,강원도 원주시 소초면 수암리 1346-3,127.983198929807,37.3925104499286,인근좌표
1030,월천리 솔섬,강원 삼척시,강원도 삼척시 원덕읍 월천리 산 69-4,129.343575174005,37.1567417313175,정좌표
1032,한국시집박물관,강원 인제군,강원도 인제군 북면 용대리 1119-4,128.317696268544,38.188420089531,정좌표
1034,미수복지구 망배단,강원 철원군,강원도 철원군 철원읍 외촌리 331,127.20216556765,38.2808247565445,정좌표
1038,이승만대통령 기념관,강원 고성군,강원도 고성군 현내면 이승만별장길 33,128.436573885091,38.4708369568335,정좌표
1039,감추사,강원 동해시,강원도 동해시 대동로 210,129.131662295458,37.4953048424971,정좌표
1040,오색 용소폭포,강원 양양군,강원도 양양군 서면 약수길 45,128.445689547279,38.0771382975252,정좌표
1041,치악산국립공원 황골지구,강원 원주시,강원도 원주시 소초면 황골로 580,128.022190746336,37.3602046864904,정좌표
1043,양구돌산령지게놀이 전수관,강원 양구군,강원도 양구군 양구읍 비봉로 69,127.986909709532,38.1081803071745,정좌표
1044,수렴동계곡,강원 인제군,강원도 인제군 북면 백담로 1220,128.414418282573,38.1465653594089,정좌표
1047,전통한옥,강원 동해시,강원도 동해시 동해대로 6370,129.075986624408,37.6029515781366,정좌표
1048,구 철원제2금융조합 건물지,강원 철원군,강원도 철원군 철원읍 외촌리 596,127.197617736967,38.2700441922222,정좌표
1049,청원사,강원 태백시,강원도 태백시 용담1길 48-17,128.958401485864,37.1265756775465,정좌표
1050,술샘박물관,강원 영월군,강원도 영월군 주천면 송학주천로 1467-9,128.269224524454,37.2740032129346,정좌표
1051,고진하 가옥,강원 영월군,강원도 영월군 남면 원골길 170-9,128.386658561351,37.1742283998891,정좌표
1053,평창 바위공원,강원 평창군,강원도 평창군 평창읍 중리 14-4,128.410634722761,37.3759120188326,정좌표
1054,낙산해안로,강원 양양군,강원도 양양군 강현면 물치천로 28,128.605115945973,38.1533658354242,정좌표
1055,올챙이추억전시관,강원 횡성군,강원도 횡성군 둔내면 경강로궁종1길 121-7,128.144055377844,37.5091082645303,정좌표
1056,태백 장성이중교,강원 태백시,강원도 태백시 장성동 222,129.006287375875,37.1049559353306,정좌표
1057,청평사 고려선원,강원 춘천시,강원도 춘천시 북산면 오봉산길 779,127.809765878869,37.9836392540274,정좌표
1058,봉래산,강원 영월군,강원도 영월군 영월읍 천문대길 397,128.485729594842,37.1994660629309,정좌표
1059,제이큐브미술관,강원 영월군,강원도 영월군 영월읍 사지막길 56,128.506978300617,37.2124023261431,정좌표
1060,마의태자권역,강원 인제군,강원도 인제군 상남면 김부대왕로 2390,128.25723498596,37.8811088648734,정좌표
1063,수산어촌체험마을,강원 양양군,강원도 양양군 손양면 수산1길 26-41,128.67381556418,38.0805741049068,정좌표
1064,부경민화박물관,강원 강릉시,강원도 강릉시 사천면 방동길 320,128.876956264467,37.8288764254911,정좌표
1066,살둔계곡,강원 홍천군,강원도 홍천군 내면 살둔길 3,128.371860841739,37.8329362996505,정좌표
1067,기후변화홍보관,강원 원주시,강원도 원주시 행구로 362,127.996726279553,37.3423837453064,정좌표
1068,옥계항,강원 강릉시,강원도 강릉시 옥계면 주수리 558,129.057638934376,37.6195625756379,정좌표
1069,영월종교미술박물관,강원 영월군,강원도 영월군 북면 시루산길 122-2,128.445512200606,37.2106172930617,정좌표
1072,철새마을,강원 철원군,강원도 철원군 동송읍 양지2길 44,127.281256738817,38.2698399926426,정좌표
1073,고석정 및 순담,강원 철원군,강원도 철원군 동송읍 태봉로 1825,127.289356619231,38.1879928883534,정좌표
1074,원주 흥양리 마애불좌상,강원 원주시,강원도 원주시 흥양리 산1,128.030678913542,37.3698497567762,정좌표
1075,유일사,강원 태백시,강원도 태백시 태백산로 4246-167,128.910738688181,37.1081971646838,정좌표
1076,백단사,강원 태백시,강원도 태백시 백단사길 124,128.923983252762,37.1121072362208,정좌표
1077,거진등대해맞이공원,강원 고성군,강원도 고성군 거진읍 거탄진로209번길 19,128.464391111294,38.448919599692,정좌표
1078,목공예 갤러리,강원 인제군,강원도 인제군 인제읍 비봉로 52,128.174284751056,38.0644523117308,정좌표
1080,요선암 돌개구멍 (강원고생대 국가지질공원),강원 영월군,강원도 영월군 무릉도원면 도원운학로 13-39,128.261806425664,37.2973089002424,정좌표
1081,설악산 만경대,강원 양양군,강원도 양양군 서면 약수길 45,128.445689547279,38.0771382975252,정좌표
1084,원포해변,강원 양양군,강원도 양양군 손양면 학포길 33,128.660474097413,38.0858965441219,정좌표
1085,척야산 문화수목원,강원 홍천군,강원도 홍천군 내촌면 동창로 282,128.158397997712,37.7818153715342,정좌표
1086,상원사 석탑 및 광배,강원 원주시,강원도 원주시 신림면 성남로 930,128.053756029214,37.3067253332343,정좌표
1087,흥복사,강원 태백시,강원도 태백시 피내골길 477,129.025571001049,37.1293692984052,정좌표
1088,김종길 가옥,강원 영월군,강원도 영월군 주천면 고가옥길 27,128.263948926054,37.270550118261,정좌표
1089,여초김응현서예관,강원 인제군,강원도 인제군 북면 만해로 154,128.319786535748,38.1889148961452,정좌표
1090,홍천 동창보수로 및 암각명,강원 홍천군,강원도 홍천군 서석면 수하리 산204-1,128.160405608401,37.7775539107196,인근좌표
1091,태백 철암역 두선탄시설,강원 태백시,강원도 태백시 철암동 365-1,129.035949631831,37.1155110394957,정좌표
1092,혈거유지,강원 춘천시,강원도 춘천시 한림대학길 1,127.738650268919,37.884502259637,정좌표
1093,청평사 회전문,강원 춘천시,강원도 춘천시 북산면 오봉산길 779,127.809765878869,37.9836392540274,정좌표
1094,설악산국립공원 설악동지구,강원 속초시,강원도 속초시 설악산로 1091,128.488472248835,38.1735026480205,정좌표
1095,강릉항,강원 강릉시,강원도 강릉시 창해로14번길 51-26,128.952852772577,37.7728452708256,정좌표
1096,양구백토 (강원평화지역 국가지질공원),강원 양구군,강원도 양구군 방산면 평화로 5182,127.951404986621,38.2072734712184,정좌표
1098,단풍산,강원 영월군,강원도 영월군 중동면 태백산로 1833,128.719530136972,37.1380489109157,정좌표
1099,동해항 여객터미널,강원 동해시,강원도 동해시 대동로 210,129.131662295458,37.4953048424971,정좌표
1101,잔교해변,강원 양양군,강원도 양양군 현북면 쟁기동길 78-1,128.725298649216,38.0001383224051,정좌표
1102,봉황산산림욕장,강원 삼척시,강원도 삼척시 척주로 112,129.176123281311,37.4384519600053,정좌표
1103,한반도뗏목체험,강원 영월군,강원도 영월군 한반도면 옹정리 산180,128.346021562403,37.2205412211944,정좌표
1104,38평화마을,강원 양양군,강원도 양양군 현북면 쟁기동길 78-1,128.725298649216,38.0001383224051,정좌표
1105,설악산국립공원 백담지구,강원 인제군,강원도 인제군 북면 백담로 150,128.357512727069,38.1916690730842,정좌표
1106,전쟁기념관,강원 양구군,강원도 양구군 해안면 후리 720,128.14281803543,38.2911370242703,정좌표
1107,곤충마을박물관,강원 원주시,강원도 원주시 지정면 간현로 10,127.844411132777,37.3555512868326,정좌표
1108,철원 생태평화공원,강원 철원군,강원도 철원군 김화읍 생창길 481-1,127.45140340136,38.2811326812198,정좌표
1109,한서남궁억유적지,강원 홍천군,강원도 홍천군 서면 한서로 667,127.599130934501,37.6889926075895,정좌표
1110,춘천 장절공 신숭겸 신도비,강원 춘천시,강원도 춘천시 서면 방동리 821-1번지,127.662147508119,37.9035088893888,정좌표
1111,봉산동 석조보살입상,강원 원주시,강원도 원주시 봉산4길 45,127.961117358122,37.3499192340006,정좌표
1112,고천마을,강원 삼척시,강원도 삼척시 미로면 고천길 6,129.062521764553,37.4181141437525,정좌표
1114,오산리선사유적,강원 양양군,강원도 양양군 손양면 학포길 33,128.660474097413,38.0858965441219,정좌표
1115,조엄기념관,강원 원주시,강원도 원주시 지정면 간현리 137-2,127.851643972097,37.3537367402281,정좌표
1116,계촌마을,강원 평창군,강원도 평창군 방림면 계촌길 101,128.305851591872,37.4524954881405,정좌표
1117,향토사료관,강원 홍천군,강원도 홍천군 홍천읍 장전평로 18,127.871818074147,37.6823460918725,정좌표
1119,평창 지동봉가옥,강원 평창군,강원도 평창군 평창읍 천동길 160,128.379344434685,37.3332765580984,정좌표
1120,철원토성및석조물,강원 철원군,강원도 철원군 토성리 273-3,127.350597522863,38.2425611332956,정좌표
1121,철원 농산물검사소,강원 철원군,강원도 철원군 철원읍 외촌리 620-1,127.198138291916,38.2679088767964,정좌표
1122,상원사 대웅전,강원 원주시,강원도 원주시 신림면 성남로 930,128.053756029214,37.3067253332343,정좌표
1123,금강정,강원 영월군,강원도 영월군 영월읍 금강공원길 136,128.478464325588,37.18548968026,정좌표
1124,샘재골송이마을,강원 양양군,강원도 양양군 현북면 송이로 245-44,128.695067951592,38.0134239812814,정좌표
1125,기린사우나,강원 강릉시,강원도 강릉시 남부로125번길 18,128.89353367898,37.7435082443096,정좌표
1126,강릉시청행정역사관,강원 강릉시,강원도 강릉시 강릉대로 33,128.875958317462,37.7520626165638,정좌표
1127,삿갓봉,강원 영월군,강원도 영월군 무릉도원면 도원운학로 2053,128.189164315478,37.3733885186972,정좌표
1128,성바위자연마을,강원 횡성군,강원도 횡성군 공근면 학담서로 137,127.946718594872,37.5287688120418,정좌표
1129,허브의 집,강원 홍천군,강원도 홍천군 화촌면 장평골말길 74-27,128.061094978478,37.7595527912625,정좌표
1130,태장동왕녀복란태실비,강원 원주시,강원도 원주시 태장동 1266-11,127.948357304995,37.3813202194496,정좌표
1131,해안분지 (강원평화지역 국가지질공원),강원 양구군,강원도 양구군 해안면 해안서화로 35,128.146226598083,38.2896304678625,정좌표
1133,피의능선전투전적비,강원 양구군,강원도 양구군 동면 월운리 132,128.042584316505,38.2235104510985,정좌표
1134,이해인시문학과 김형석·안병욱 철학의집,강원 양구군,강원도 양구군 파로호로 869번길,127.97383750421,38.1202632966962,인근좌표
1135,도솔산지구전투비,강원 양구군,강원도 양구군 동면 비아리 산 1-2,128.089661944249,38.2430412562431,정좌표
1136,곤충농장 벅스팜,강원 원주시,강원도 원주시 귀래면 북원로 563-14,127.890657424161,37.209254443928,정좌표
1137,강촌환경생태연못,강원 춘천시,강원도 춘천시 남산면 강촌리 447 일원,127.60384913193,37.7909239806697,정좌표
1138,고돌이보물섬,강원 홍천군,강원도 홍천군 북방면 굴지강변로 579,127.796169450533,37.7086878293098,정좌표
1139,원주 원충갑묘역,강원 원주시,강원도 원주시 지정면 간현리 산25,127.837645315063,37.3758951518941,정좌표
1141,삼척대이리통방아,강원 삼척시,강원도 삼척시 신기면 환선로 870,129.013627060437,37.3235964576293,정좌표
1142,비와야폭포,강원 태백시,강원도 태백시 양지길 25,129.021826581528,37.1107439769256,정좌표
1145,김동명문학관,강원 강릉시,강원도 강릉시 사천면 샛돌1길 30-2,128.837986908861,37.8205699457705,정좌표
1146,국제 평화 아트 파크,강원 화천군,강원도 화천군 화천읍 평화로 3518,127.851022542822,38.2109883903085,정좌표
1148,설악산 천연보호구역,강원 양양군,강원도 양양군 서면 오색리 산 1번지,128.454867110658,38.098901552647,정좌표
1149,전통산업진흥센터,강원 원주시,강원도 원주시 상지대길 84,127.93277880928,37.3710757162681,정좌표
1150,옥체험장,강원 춘천시,강원도 춘천시 동면 금옥길 228,127.805404523711,37.919876157852,정좌표
1151,바회마을,강원 홍천군,강원도 홍천군 두촌면 군유동길 361-19,128.07250633199,37.8611192868089,정좌표
1152,태양에너지전시관,강원 삼척시,강원도 삼척시 엑스포로 50,129.157723899568,37.4398155758646,정좌표
1153,재동유원지,강원 삼척시,강원도 삼척시 근덕면 삼척로 3500,129.22853682556,37.3668760081977,정좌표
1154,정선수리취떡,강원 정선군,강원도 정선군 정선읍 5일장길 37-10,128.664647455789,37.3809444175318,정좌표
1155,협동조합 산업관광 지원센터,강원 원주시,강원도 원주시 원일로 136-5,127.947337484941,37.3510841805495,정좌표
1157,진동 계곡마을,강원 인제군,강원도 인제군 기린면 조침령로 1071-1,128.406358858809,37.9633859070428,정좌표
1158,인어상,강원 춘천시,강원도 춘천시 신동면 의암리 산 81-2,127.676901263111,37.840425275227,정좌표
1159,대한불교조계종 장명사(長明寺),강원 태백시,강원도 태백시 계산1길 66,128.998384981957,37.1107947294628,정좌표
1160,한송사 석조보살좌상,강원 춘천시,강원도 춘천시 우석로 70,127.751763221119,37.8637145075384,정좌표
1161,부흥사지 석탑재,강원 원주시,강원도 원주시 소초면 흥양리 1164-4,127.98545018514,37.3773013263213,정좌표
1162,가시오가피마을 홍보관,강원 삼척시,강원도 삼척시 노곡면 문의재로 2470,129.179225786302,37.2665416599391,정좌표
1163,망경사,강원 태백시,강원도 태백시 태백산로 4246-168,128.918920957341,37.0984336919953,정좌표
1166,가산공원,강원 평창군,강원도 평창군 봉평면 창동리 544,128.369957771419,37.6125750749661,정좌표
1167,청춘양구레포츠공원,강원 양구군,강원도 양구군 양구읍 박수근로 366-24,127.982834053302,38.1053581386296,정좌표
1168,춘천내평전투 호국경찰추모상,강원 춘천시,강원도 춘천시 신북읍 상천3길 36,127.789314209034,37.9335624711394,정좌표
1170,철의삼각전적관,강원 철원군,강원도 철원군 동송읍 태봉로 1825,127.289356619231,38.1879928883534,정좌표
1172,사명당 대선사 진영,강원 평창군,강원도 평창군 진부면 오대산로 374-8,128.593842051628,37.7320666016502,정좌표
1173,(구)태백등기소,강원 태백시,강원도 태백시 하장성 1길 14,129.020964174036,37.1025122954666,정좌표
1174,철원 얼음창고,강원 철원군,강원도 철원군 외촌리 603-1,127.198116596222,38.2695103303825,정좌표
1176,비두리 귀부 및 이수,강원 원주시,강원도 원주시 문막읍 귀문로 1008,127.835249601938,37.2555320803216,정좌표
1177,공현진항,강원 고성군,강원도 고성군 죽왕면 공현진리 431-13,128.512872554687,38.3555645058353,정좌표
1178,금란정,강원 동해시,강원도 동해시 삼화로 538,129.019395370747,37.4634717122061,정좌표
1179,강변저류지,강원 영월군,강원도 영월군 영월읍 방절리 263-4,128.448637629338,37.1804891173197,인근좌표
1180,보덕사,강원 영월군,강원도 영월군 영월읍 보덕사길 34,128.458270781697,37.1979100729714,정좌표
1181,백골병단전적비,강원 인제군,강원도 인제군 용대리 산 250-1,128.368607394257,38.2211968205158,정좌표
1182,학마을,강원 강릉시,강원도 강릉시 구정면 금평로 117,128.888925469324,37.7062839803017,정좌표
1183,옻칠기공예관,강원 원주시,강원도 원주시 소초면 구룡사로 142,128.056248915669,37.4264828654864,정좌표
1184,백운산휴양림길,강원 원주시,강원도 원주시 판부면 서곡리 1635-5,127.940116637285,37.2843160664231,정좌표
1185,화천 백립암복합체 (강원평화지역 국가지질공원),강원 화천군,강원도 화천군 화천읍 평화로 2393,127.799247643953,38.189808060109,정좌표
1188,밀부와 밀부주머니,강원 평창군,강원도 평창군 진부면 오대산로 374-8,128.593842051628,37.7320666016502,정좌표
1189,상동리 석불좌상 및 삼층석탑,강원 인제군,강원도 인제군 인제읍 인제로167번길 365,128.151208456222,38.091714980299,정좌표
1190,한지공예관,강원 원주시,강원도 원주시 소초면 구룡사로 136,128.056555375558,37.4266582711505,정좌표
1191,에움녹색길,강원 홍천군,강원도 홍천군 서면 개야마을길 73,127.629852351918,37.6945928012602,정좌표
1192,윤희순상,강원 춘천시,강원도 춘천시 옛경춘로 830-24,127.710846294607,37.8705287453814,정좌표
1193,건봉다시마장산지,강원 고성군,강원도 고성군 간성읍 건봉사로 386,128.408242953855,38.3871821316471,정좌표
1195,이덕균가옥,강원 고성군,강원도 고성군 죽왕면 송지호로 198-12,128.503524851787,38.3284938310818,정좌표
1196,오색 치마폭포,강원 양양군,강원도 양양군 서면 오색리 산34-1,128.455041147188,38.0791178723599,정좌표
1198,유동리오층석탑,강원 평창군,강원도 평창군 평창읍 유동리 산 1,128.383775922712,37.3514871749456,정좌표
1199,용운사지 석조비로자나불좌상,강원 원주시,강원도 원주시 호저면 용곡리 402-1,127.890305575557,37.4619723244597,정좌표
1203,마차리폐광촌,강원 영월군,강원도 영월군 북면 마차중앙2길 30-4,128.455979150729,37.2551647871142,정좌표
1206,복주산자연휴양림,강원 철원군,강원도 철원군 근남면 하오재로 818,127.473258018711,38.1448144469142,정좌표
1207,팔봉 돌배마을,강원 홍천군,강원도 홍천군 서면 오도치길 273-2,127.706320343836,37.6674436804202,정좌표
1209,여송정(餘松亭),강원 정선군,강원도 정선군 여량면 유천리 산 128,128.724429723579,37.4774239474501,정좌표
1210,서운재(瑞雲齋),강원 정선군,강원도 정선군 남면 남창길 22,128.71386085564,37.3244224554857,정좌표
1211,건봉사 능파교,강원 고성군,강원도 고성군 건봉사로 723,128.379274599194,38.4032687150286,정좌표
1212,술빛고을,강원 영월군,강원도 영월군 주천면 주천로 103,128.269206837271,37.2724089678662,정좌표
1213,초등교육박물관,강원 영월군,강원도 영월군 북면 밤재로 7,128.431735289691,37.253020084268,정좌표
1215,진전사지,강원 양양군,강원도 양양군 강현면 둔전리 101,128.548774458164,38.1210393690071,정좌표
1216,치래마을,강원 양양군,강원도 양양군 서면 구룡령로 1103-6,128.502623601097,37.9101161709828,정좌표
1217,도솔산,강원 양구군,강원도 양구군 양구읍 비봉로 69,127.986909709532,38.1081803071745,정좌표
1218,복주머니마을,강원 홍천군,강원도 홍천군 서면 개야마을길 73,127.629852351918,37.6945928012602,정좌표
1219,상원사 동종,강원 평창군,강원도 평창군 진부면 오대산로 1211-14,128.563728365966,37.7859857773949,정좌표
1220,난포정(蘭浦亭),강원 정선군,강원도 정선군 임계면 봉산리 185,128.849581835295,37.4824682737719,정좌표
1221,용운사지 삼층석탑,강원 원주시,강원도 원주시 호저면 용곡리 402-1,127.890305575557,37.4619723244597,정좌표
1222,봉산동 석불좌상,강원 원주시,강원도 원주시 봉산로 134,127.966235138057,37.3431060876854,정좌표
1223,신남항,강원 삼척시,강원도 삼척시 원덕읍 신남길 127,129.327631066297,37.2670378805588,정좌표
1224,석종사,강원 태백시,강원도 태백시 태백로 2147,129.029189119469,37.0971449182334,정좌표
1225,단종대왕비,강원 태백시,강원도 태백시 태백산로 4834-31,128.968556057916,37.1271375694832,정좌표
1226,진부리계곡,강원 고성군,강원도 고성군 간성읍 진부리 37번지,128.363617604593,38.2943759565061,인근좌표
1228,쾌연재도자미술관,강원 영월군,강원도 영월군 한반도면 한반도로 452,128.368496733691,37.2181690509686,정좌표
1230,한별마을,강원 양양군,강원도 양양군 영덕리 333-3,128.542328123328,38.010451265741,정좌표
1231,황룡마을,강원 양양군,강원도 양양군 서면 구룡령로 1782,128.515175546452,37.9617513598418,정좌표
1232,김택준가옥,강원 양양군,강원도 양양군 현남면 창리길 4,128.756681474917,37.9707963550486,정좌표
1233,내설악예술인촌 공공미술관,강원 인제군,강원도 인제군 북면 예술인촌길 66-12,128.253416188342,38.1454744687037,정좌표
1236,야생동물생태관,강원 양구군,강원도 양구군 동면 펀치볼로 266-60,128.074315792365,38.2253811480897,정좌표
1237,사내골소나무,강원 태백시,강원도 태백시 함백산로 274,128.899378492916,37.1447688822045,정좌표
1238,철원지석묘군,강원 철원군,강원도 철원군 갈말읍 토성길 87,127.342256648045,38.2439863673107,정좌표
1239,산양마을,강원 삼척시,강원도 삼척시 원덕읍 산양서원1길 89,129.280325186685,37.1410313581724,정좌표
1240,만봉불화박물관,강원 영월군,강원도 영월군 김삿갓면 망경대산길 135-3,128.608656653908,37.1549953159161,정좌표
1242,팔랑민속관,강원 양구군,강원도 양구군 양구읍 비봉로 69,127.986909709532,38.1081803071745,정좌표
1245,팔봉참살이마을,강원 홍천군,강원도 홍천군 서면 오도치길 6,127.69812101153,37.683226653854,정좌표
1246,월정사부도군,강원 평창군,강원도 평창군 진부면 오대산로 374-8,128.593842051628,37.7320666016502,정좌표
1247,두타산이승휴유허,강원 삼척시,강원도 삼척시 미로면 동안로 816,129.04267644302,37.4447668871883,정좌표
1248,함정균가옥,강원 고성군,강원도 고성군 죽왕면 오봉리 383-1,128.497725815733,38.341081863498,정좌표
1251,태백 장명사 목불좌상,강원 태백시,강원도 태백시 계산1길 66,128.998384981957,37.1107947294628,정좌표
1252,군탄공원,강원 철원군,강원도 철원군 갈말읍 삼부연로 51,127.312525611568,38.1463182824947,정좌표
1253,태백산 석장승,강원 태백시,강원도 태백시 계산1길 66,128.998384981957,37.1107947294628,정좌표
1254,철원 수도국지내 급수탑,강원 철원군,강원도 철원군 철원읍 사요리 409외 2필지,127.193486403721,38.2479298019403,정좌표
1255,한강발원지마을,강원 태백시,강원도 태백시 고무덕길 4,128.959600535967,37.2645325771785,정좌표
1257,당나귀체험,강원 영월군,강원도 영월군 남면 영월로 931,128.402231126909,37.1945553264964,정좌표
1258,우구정 가옥,강원 영월군,강원도 영월군 남면 들골안길 127-4,128.37791088544,37.2052921767665,정좌표
1261,토교저수지,강원 철원군,강원도 철원군 동송읍 양지길 117,127.289825225838,38.2709721177775,정좌표
1262,수동마을,강원 평창군,강원도 평창군 방림면 계촌리 250-2,128.345430009889,37.4534894453665,정좌표
1263,육수관음상,강원 평창군,강원도 평창군 진부면 오대산로 374-8,128.593842051628,37.7320666016502,정좌표
1264,천전리 지석묘군,강원 춘천시,강원도 춘천시 천전리 685-7,127.775982295871,37.9297476978416,정좌표
1265,수고당(守孤堂),강원 정선군,강원도 정선군 임계면 수고당길 110,128.848378924643,37.4847811022657,정좌표
1266,교암항,강원 고성군,강원도 고성군 토성면 교암리 151-10,128.548017015571,38.2901067185852,정좌표
1267,학도병충혼탑,강원 태백시,강원도 태백시 장성로 265,129.018962067386,37.0965744239495,정좌표
1268,서광사,강원 태백시,강원도 태백시 오투로 216,128.964682555105,37.1725364058509,정좌표
1269,범패사,강원 태백시,강원도 태백시 풀미당골길 1-5,128.994656855102,37.1738621352078,정좌표
1270,천진항,강원 고성군,강원도 고성군 천진리 111-4,128.560511493328,38.2604753439803,정좌표
1271,봉래산산림욕장,강원 영월군,강원도 영월군 영월읍 천문대길 397,128.485729594842,37.1994660629309,정좌표
1272,효자열녀마을,강원 영월군,강원도 영월군 북면 삼방산길 476,128.430901250971,37.3181774855365,정좌표
1273,성국사,강원 양양군,강원도 양양군 서면 오색리 1-21,128.511327317814,38.0783579798481,인근좌표
1274,용다사동종,강원 평창군,강원도 평창군 진부면 오대산로 374-8,128.593842051628,37.7320666016502,정좌표
1275,심원암 토불 및 부도,강원 태백시,강원도 태백시 소도동 254번지,128.951245850797,37.1313059200863,정좌표
1277,등광사,강원 태백시,강원도 태백시 문곡소도동 산50,128.982482022994,37.115739829877,인근좌표
1278,금몽암,강원 영월군,강원도 영월군 영월읍 보덕사길 112,128.456616740383,37.2046747643573,정좌표
1279,동강카누캠프,강원 영월군,강원도 영월군 영월읍 태화산로 135,128.492413565529,37.1524833641655,정좌표
1283,살둔마을,강원 홍천군,강원도 홍천군 내면 내린천로 638,128.3765503239,37.8333284301717,정좌표
1284,동학혁명군전적지,강원 홍천군,강원도 홍천군 서석면 서석면 풍암리 505-11,128.18465961203,37.7150213434625,정좌표
1285,대평마을,강원 홍천군,	강원도 홍천군 화촌면 구룡령로 149,127.957823113163,37.7503799727966,정좌표
1286,김응하장군 묘비,강원 철원군,	강원도 철원군 철원읍 화지리 산 1-1,127.206609216187,38.2245344712949,정좌표
1288,금풀애마을,강원 양양군,강원도 양양군 현북면 남대천로 1532,128.653640206541,37.9776054177247,정좌표
1289,동해신묘,강원 양양군,강원도 양양군 양양읍 동해신묘길 34,128.637645783238,38.1096013808121,정좌표
1290,상원사,강원 원주시,강원도 원주시 신림면 성남로 930,128.053756029214,37.3067253332343,정좌표
1293,청풍부원군 김우명상여,강원 춘천시,강원도 춘천시 우석로 70,127.751763221119,37.8637145075384,정좌표
1294,이종후 가옥 (동막댁 東幕宅),강원 정선군,강원도 정선군 임계면 수고당길 110,128.848378924643,37.4847811022657,정좌표
1295,덕산항,강원 삼척시,강원도 삼척시 근덕면 덕산해안로 200-21,129.253986381919,37.3785771346092,정좌표
1297,심원사,강원 태백시,강원도 태백시 고원로 247-15,128.983530005257,37.1738071235455,정좌표
1298,선광사,강원 태백시,강원도 태백시 태백산로 5088,128.987671565396,37.143603250645,정좌표
1299,서림사지 삼층석탑,강원 양양군,강원도 양양군 서면 구룡령로 2115,128.529872216417,37.9872452095509,정좌표
1300,서림사지 석조비로사나불 좌상,강원 양양군,강원도 양양군 서면 구룡령로 2115,128.529872216417,37.9872452095509,정좌표
1301,동촌리마을,강원 화천군,강원도 화천군 화천읍 호음로 806,127.790192114616,38.1260697696678,정좌표
1302,삼원수약초마을,강원 횡성군,강원도 횡성군 공근면 금계로상동7길 8,127.990535374196,37.6077918567175,정좌표
1303,김청풍부원군묘역,강원 춘천시,강원도 춘천시 서면 경춘로 667-9,127.584601564318,37.8365274067318,정좌표
1304,태창사,강원 태백시,강원도 태백시 상장동 165-5,128.987641577534,37.1443466325356,정좌표
1305,건봉사 불이문,강원 고성군,강원도 고성군 거진읍 건봉사로 723,128.379274599194,38.4032687150286,정좌표
1306,육송정 홍교,강원 고성군,강원도 고성군 해상리 1041,128.400884194255,38.3871708454738,정좌표
1307,강변저류지 홍보관,강원 영월군,강원도 영월군 영월읍 하송로 44,128.463622820734,37.184376435596,정좌표
1308,서곡정사석조약사여래입상,강원 영월군,강원도 영월군 한반도면 용정원길 86-17,128.33391090802,37.1708333769057,정좌표
1309,탑골마을,강원 평창군,강원도 평창군 진부면 탑동리 236,128.551453145072,37.7106101870249,정좌표
1310,수림대마을,강원 평창군,강원도 평창군 봉평면 유포리 641,128.371471212303,37.5257728001388,정좌표
1311,평창 운흥사 천룡탱화,강원 평창군,강원도 평창군 진부면 오대산로 374-8,128.593842051628,37.7320666016502,정좌표
1312,범일국사 진영,강원 평창군,강원도 평창군 진부면 오대산로 374-8,128.593842051628,37.7320666016502,정좌표
1313,목조문수동자좌상 복장유물,강원 평창군,강원도 평창군 진부면 오대산로 374-8,128.593842051628,37.7320666016502,정좌표
1314,본적사지3층석탑,강원 태백시,강원도 태백시 황지동 467-10,128.976507309579,37.1744504783207,정좌표
1315,서림사지,강원 양양군,강원도 양양군 서면 서림리 74-1,128.529866436016,37.9877158068956,정좌표
1316,시민헌장비,강원 태백시,강원도 태백시 천제단길 160,128.951516419343,37.1205974786826,정좌표
1318,오색리삼층석탑,강원 양양군,강원도 양양군 서면 약수길 132,128.440067510875,38.0764984550082,정좌표
1319,동강 (강원고생대 국가지질공원),강원 영월군,강원도 영월군 영월읍 하송로 44,128.463622820734,37.184376435596,정좌표
1320,관음변상탱화,강원 평창군,강원도 평창군 진부면 오대산로 374-8,128.593842051628,37.7320666016502,정좌표
1321,명주사부도군,강원 양양군,강원도 양양군 현북면 어성전길 93-229,128.680420846065,37.9482563885634,정좌표
1322,상도문돌담마을,강원 속초시,강원도 속초시 상도문1길 30,128.553253713357,38.1649263559297,정좌표
1323,보덕사 사성전 후불탱화,강원 평창군,강원도 평창군 진부면 오대산로 374-8,128.593842051628,37.7320666016502,정좌표
1324,석탄유물보존관,강원 정선군,강원도 정선군 사북읍 하이원길 57-3,128.815089265143,37.2208990037727,정좌표
1326,서오지리,강원 화천군,강원도 화천군 하남면 건넌들길 97,127.654275395833,38.0416351146904,정좌표
1327,려우도예,강원 춘천시,강원도 춘천시 신동면 김유정로 1430-14,127.718000564533,37.8183252289783,정좌표
1328,쉬리마을,강원 철원군,강원도 철원군 김화읍 김화로 633-17,127.421703537401,38.2474065675185,정좌표
1329,보헤미안박이추커피,강원 강릉시,강원도 강릉시 사천면 해안로 1107,128.866981793796,37.8468384808956,정좌표
1331,가족올래 하추리마을,강원 인제군,강원도 인제군 인제읍 하추로 187,128.28203460482,38.0196431643116,정좌표
