title,location,Latitude,Longitude,stars,key_words
대관령양떼목장,강원 평창군 대관령면 대관령마루길 483-32 대관령양떼목장,37.6895149,128.7530132,4.43,"['깨끗한', '이국적', '목가적인', '웅장한', '평화로운', '커피거리', '양고기', '목장', '풍력발전소', '양꼬치', '가족여행', '커플여행', '가을여행', '등산', '기차여행']"
장호항,강원 삼척시 근덕면 장호리,37.2709132,129.3100705,4.25,"['재미있는', '화려한', '아담한', '깨끗한', '이국적', '투명카누', '해변', '스노클링', '카약', '레일바이크', '가족여행', '경치', '드라이브', '비오는날', '기차여행']"
경포해변,강원 강릉시 강문동 산1-1,37.8021006,128.9113929,4.21,"['재미있는', '낭만적인', '깨끗한', '화려한', '편안한', '커피거리', '밤바다', '해변', '조개구이', '느린우체통', '가족여행', '경치', '커플여행', '드라이브', '기차여행']"
하슬라아트월드,강원 강릉시 강동면 율곡로 1441,37.7067534,129.0109857,4.38,"['재미있는', '분위기좋은', '감각적인', '몽환적인', '편안한', '커피거리', '미술관', '레스토랑', '박물관', '공원', '경치', '데이트', '힐링', '등산', '기차여행']"
오죽헌,강원 강릉시 율곡로3139번길 24 오죽헌,37.7794333,128.8781398,4.46,"['재미있는', '고즈넉한', '기품있는', '옛모습', '소박한', '커피거리', '대나무', '박물관', '해변', '공방거리', '가족여행', '경치', '유적', '나들이', '촬영지']"
속초해수욕장,강원 속초시 조양동 속초해수욕장,38.1905722,128.6035425,3.94,"['재미있는', '조그마한', '깨끗한', '편안한', '운치있는', '물회', '밤바다', '해변', '아바이순대', '오징어순대', '가족여행', '경치', '커플여행', '드라이브', '주말여행']"
안목해변,강원 강릉시 창해로14번길 20-1,37.7725933,128.9472775,4.21,"['분위기있는', '깨끗한', '분위기좋은', '편안한', '운치있는', '커피거리', '해변', '짬뽕순두부', '목장', '횟집', '힐링', '경치', '드라이브', '주말여행', '가족여행']"
환선굴,강원 삼척시 신기면 환선로 800 대이동굴관리소,37.3255799,129.0171309,4.41,"['재미있는', '화려한', '신비한', '웅장한', '깨끗한', '계곡', '물닭갈비', '모노레일', '동굴', '폭포', '가족여행', '경치', '힐링', '등산', '기차여행']"
아바이마을,강원 속초시 청호로 122,38.2005926,128.5947703,4.11,"['재미있는', '깨끗한', '소박한', '옛모습', '평화로운', '명태회냉면', '해변', '수산시장', '아바이순대', '오징어순대', '가족여행', '경치', '싱싱한', '힐링', '촬영지']"
안반데기,강원 강릉시 왕산면 안반덕길 428,37.622629,128.7396824,4.5,"['멋스런', '이국적', '화려한', '편안한', '평화로운', '계곡', '라이딩', '전망대', '일몰', '캠핑', '힐링', '경치', '드라이브', '등산', '산행']"
아야진해수욕장,강원 고성군 토성면,38.2571927,128.558578,4.26,"['아담한', '깨끗한', '편안한', '유니크한', '평화로운', '해변', '스노클링', '횟집', '항구', '캠핑', '가족여행', '경치', '커플여행', '힐링', '나들이']"
망상해수욕장,강원 동해시 망상동,37.557854,129.1046244,4.19,"['재미있는', '깨끗한', '편안한', '운치있는', '아기자기', '시장', '오토캠핑', '온천', '해변', '카라반', '가족여행', '커플여행', '드라이브', '힐링', '기차여행']"
송지호해수욕장,강원 고성군 죽왕면,38.3288177,128.5255585,3.91,"['아늑한', '깨끗한', '친절하고', '아기자기', '시끌벅적한', '스노클링', '계곡', '해변', '캠핑', '바다낚시', '갯벌체험', '가족여행', '경치', '싱싱한', '힐링']"
제이드가든,강원 춘천시 남산면 햇골길 80 제이드가든수목원,37.8325325,127.5422982,4.32,"['재미있는', '유럽풍', '아기자기', '화려한', '편안한', '수목원', '닭갈비', '레스토랑', '드라이브', '레일바이크', '가을여행', '가족여행', '드라마촬영지', '단풍구경', '기차여행']"
영금정,강원 속초시 영금정로 43,38.2118208,128.6014013,4.07,"['웅장한', '깨끗한', '운치있는', '옛모습', '신비한', '야경', '해변', '전망대', '아바이순대', '오징어순대', '경치', '커플여행', '힐링', '단풍여행', '촬영지']"
주문진항,강원 강릉시 주문진읍 주문리,37.8990315,128.8227808,4.32,"['재미있는', '활기찬', '깨끗한', '화려한', '편안한', '횟집', '대게', '건어물', '수산시장', '홍게', '가족여행', '경치', '싱싱한', '드라이브', '촬영지']"
추암촛대바위,강원 동해시 추암동,37.4738654,129.1511144,4.43,"['아담한', '깨끗한', '평온한', '웅장한', '포근한', '바다열차', '공원', '해변', '일출', '레일바이크', '가족여행', '경치', '촬영지', '드라이브', '기차여행']"
고석정,강원 철원군 동송읍 장흥리,38.1949076,127.2647731,4.38,"['재미있는', '멋스러운', '신비로운', '웅장한', '깨끗한', '폭포', '래프팅', '트래킹', '온천', '계곡', '가족여행', '경치', '가족나들이', '드라이브', '드라마촬영지']"
설악 케이블카,강원 속초시 설악산로 1085,38.1730998,128.4890543,4.36,"['산', '깨끗한','재미있는', '멋스러운', '신비로운', '웅장한', '깨끗한', '케이블 카',' 전망대','가족여행','경치','촬영지' ]"
대관령 하늘목장,강원 평창군 대관령면 꽃밭양지길 458-23,37.7101962,128.7275601,4.45,"['재미있는', '목가적인', '이국적', '평화로운', '깨끗한', '눈썰매', '한우', '전망대', '목장', '동물원', '가족여행', '가을여행', '주말여행', '승마체험', '단풍구경']"
화암동굴,강원 정선군 화암면 화암리 산248,37.3513213,128.7892511,4.3,"['옛모습', '재미있는', '화려한', '신비로운', '웅장한', '계곡', '시장', '캠핑', '모노레일', '동굴', '공포체험', '가족여행', '경치', '휴식', '기차여행']"
드라마[도깨비]촬영지,강원 강릉시 주문진읍 교항리,37.8789811,128.8177091,4,"['재미있는', '멋스러운', '신비로운', '웅장한', '깨끗한', '케이블 카',' 전망대','가족여행','경치','촬영지']"
사천해변,강원 강릉시 사천면,37.8235253,128.848694,4.25,"['재미있는', '고급진', '깨끗한', '분위기좋은', '이국적', '물회', '커피거리', '해변', '캠핑', '스노클링', '가족여행', '힐링', '경치', '드라이브', '나들이']"
속삭이는자작나무숲,강원 인제군 인제읍 자작나무숲길 760 자작나무숲 안내소,37.9966504,128.2005532,4.41,"['깨끗한', '이국적', '편안한', '몽환적인', '신비로운', '계곡', '자작나무길', '트래킹', '산책', '막국수', '가을여행', '산행', '드라이브', '등산', '힐링']"
미인폭포,강원 삼척시 도계읍 심포리 미인폭포,37.1806114,129.0491528,4.4,"['신비로운', '웅장한', '신비한', '폭포', '암벽', '테마파크', '동굴', '계곡', '숨은', '산행', '가을여행', '등산', '휴식']"
낙산해수욕장,강원 양양군 강현면 해맞이길 59,38.1167945,128.6340071,4.25,"['재미있는', '낭만적인', '깨끗한', '화려한', '운치있는', '시장', '밤바다', '해변', '조개구이', '일출', '가족여행', '경치', '드라이브', '힐링', '나들이']"
무릉계곡,강원 동해시 삼화로 584 삼화사,37.4638354,129.0143586,4.39,"['재미있는', '깨끗한', '화려한', '편안한', '웅장한', '폭포', '캠핑', '트래킹', '산채비빔밥', '계곡', '경치', '가족여행', '산행', '등산', '기차여행']"
오대산월정사전나무숲길,강원 평창군 진부면 오대산로 350-1,37.7706139,128.5721311,4.05,"['청량한', '고즈넉한', '화려한', '편안한', '깨끗한', '바다열차', '국립공원', '산림욕', '산책', '전나무숲길', '템플스테이', '촬영지', '힐링', '등산', '기차여행']"
강문해변,강원 강릉시 강문동,37.7897339,128.9200001,4.45,"['아늑한', '아담한', '깨끗한', '이국적', '운치있는', '커피거리', '물회', '해변', '수제버거', '야경', '주말여행', '촬영지', '커플여행', '가을여행', '가족여행']"
해피초원목장,강원 춘천시 사북면 춘화로 330-48,37.9789954,127.6953254,4.39,"['목가적인', '깨끗한', '아기자기', '평화로운', '햄버거', '눈썰매', '한우', '농장', '목장', '가족여행', '경치', '동물체험', '힐링', '나들이']"
등대해수욕장,강원 속초시 영랑동,38.2239007,128.5879596,4.23,"['아담한', '깨끗한', '낭만적인', '웅장한', '평화로운', '해변', '전망대', '스킨스쿠버', '시장', '캠핑', '나들이', '경치', '힐링', '드라이브', '가족여행']"
외옹치항,강원 속초시 대포동,38.1656852,128.5569925,4.36,"['조그마한', '깨끗한', '화려한', '소박한', '웅장한', '물회', '도루묵', '매운탕', '항구', '횟집', '가족여행', '경치', '싱싱한', '힐링', '촬영지']"
구곡폭포,강원 춘천시 남산면 강촌구곡길 254,37.7970306,127.615758,4.42,"['소박한', '조그마한', '깨끗한', '편안한', '웅장한', '폭포', '산림욕', '레일바이크', '숯불닭갈비', '계곡', '가족여행', '산행', '가족나들이', '드라이브', '등산']"
임원항,강원 삼척시 원덕읍 임원리,37.2395383,129.3139976,4,"['재미있는', '조그마한', '깨끗한', '편안한', '작은규모', '공원', '감성돔', '항구', '횟집', '대게', '나들이', '경치', '싱싱한', '드라이브', '휴식']"
순긋해변,강원 강릉시 안현동,37.8019111,128.8758249,4.23,"['재미있는', '친절하고', '깨끗한', '분위기좋은', '편안한', '밤바다', '해변', '캠핑', '순두부', '시장', '가족여행', '경치', '힐링', '드라이브', '촬영지']"
천곡황금박쥐동굴,강원 동해시 동굴로 50,37.517365,129.1102094,4.37,"['몽환적인', '깨끗한', '웅장한', '신비한', '편안한', '해변', '온천', '시장', '동굴', '대게', '공포체험', '가족여행', '기차여행', '휴식', '촬영지']"
황지연못,강원 태백시 황지연못길 12 황지연못(문화관광해설사의집),37.172898,128.9908975,3.91,"['조그마한', '재미있는', '화려한', '작은규모', '옛모습', '박물관', '공원', '시장', '물닭갈비', '동굴', '가족여행', '경치', '힐링', '등산', '기차여행']"
토왕성폭포,강원 속초시 설악동,38.1681813,128.4769101,4.75,"['깨끗한', '화려한', '편안한', '웅장한', '신비로운', '폭포', '전망대', '트래킹', '계곡', '국립공원', '경치', '산행', '등산', '숨은', '휴식']"
고씨동굴,강원 영월군 김삿갓면 진별리 산262,37.133607,128.5227603,4.22,"['재미있는', '화려한', '신비로운', '웅장한', '신비한', '전망대', '칡국수', '래프팅', '동굴', '글램핑', '공포체험', '가족여행', '경치', '등산', '기차여행']"
한반도지형,강원 영월군 한반도면 옹정리,37.2248413,128.3513942,4.19,"['재미있는', '깨끗한', '화려한', '신비로운', '소박한', '계곡', '전망대', '뗏목', '동굴', '캠핑', '가족여행', '경치', '드라이브', '등산', '기차여행']"
애니메이션박물관,강원 춘천시 서면 박사로 854 춘천애니메이션,37.8930556,127.6919444,4.43,"['작은공간', '재미있는', '화려한', '신비한', '아기자기', '닭갈비', '체험학습', '박물관', '공연', '목장', '주말나들이', '가족여행', '가족나들이', '체험관', '기차여행']"
청간정,강원 고성군 토성면 청간리,38.2682047,128.5460466,4.67,"['고즈넉한', '화려한', '웅장한', '몽환적인', '깨끗한', '야경', '해변', '산책로', '일몰', '일출', '가족여행', '경치', '힐링', '휴식', '촬영지']"
강릉선교장,강원 강릉시 운정길 63 선교장,37.786655,128.885,4.4,"['화려한', '고즈넉한', '멋스러운', '운치있는', '품위있는', '박물관', '해변', '순두부', '둘레길', '연꽃', '전통체험', '가족여행', '경치', '유물', '체험관']"
삼부연폭포,강원 철원군 갈말읍 신철원리,38.1285745,127.3415331,4,"['깨끗한', '신비로운', '웅장한', '신비한', '저수지', '계곡', '공원', '동굴', '폭포', '드라이브', '경치', '산행', '등산', '나들이']"
동명항,강원 속초시 동명동,38.2125972,128.5957922,4.23,"['재미있는', '활기찬', '깨끗한', '화려한', '신비한', '새우튀김', '수산시장', '횟집', '항구', '포장마차', '가족여행', '경치', '싱싱한', '드라이브', '힐링']"
봉포해수욕장,강원 고성군 토성면,38.2571927,128.558578,4.23,"['아담한', '깨끗한', '이국적', '편안한', '웅장한', '물회', '해변', '스노클링', '대게', '캠핑', '가족여행', '경치', '싱싱한', '힐링', '드라이브']"
간현관광지,강원 원주시 지정면 소금산길 26,37.3650197,127.8322846,4.49,"['재미있는', '평온한', '깨끗한', '아담한', '쾌적한', '계곡', '유원지', '레일바이크', '암벽등반', '캠핑', '힐링', '경치', '드라이브', '등산', '산행']"
원주소금산출렁다리,강원 원주시 지정면 소금산길 14,37.3646161,127.8336346,4.35,"['재미있는', '멋스러운', '신비로운', '웅장한', '깨끗한', '케이블 카',' 전망대','가족여행','경치','촬영지','출렁다리' ,'산']"
왕곡마을,강원 고성군 죽왕면 오봉리,38.3389153,128.4993923,4.23,"['재미있는', '아담한', '고즈넉한', '소박한', '옛모습', '접시꽃', '둘레길', '해변', '산책', '한과', '전통체험', '경치', '힐링', '전통적인', '촬영지']"
정동진,강원 강릉시 강동면 정동진리,37.6892008,129.0243271,3.98,"['재미있는', '낭만적인', '깨끗한', '이국적', '편안한', '바다열차', '커피거리', '해변', '레일바이크', '일출', '가족여행', '경치', '가을여행', '드라이브', '기차여행']"
죽도해수욕장,강원 양양군 현남면,37.969241,128.7594439,4.32,"['재미있는', '낭만적인', '이국적', '편안한', '깨끗한', '스노클링', '계곡', '해변', '캠핑', '카라반', '핫플레이스', '경치', '힐링', '레포츠', '드라이브']"
자작도해수욕장,강원 고성군 죽왕면,38.3288177,128.5255585,4.33,"['아담한', '깨끗한', '친절한', '고급진', '웅장한', '물회', '해변', '캠핑', '파도타기', '스노클링', '갯벌체험', '가족여행', '경치', '휴식', '신선한']"
아침가리계곡,강원 인제군 기린면 진동리,37.9902067,128.4521075,4.13,"['재미있는', '근사한', '깨끗한', '편안한', '운치있는', '폭포', '트래킹', '휴양림', '계곡', '캠핑', '숨은', '경치', '산행', '등산', '휴식']"
태기산,강원 횡성군 둔내면 화동리 태기산,37.5706742,128.2329124,3.9,"['재미있는', '아늑한', '이국적', '웅장한', '몽환적인', '계곡', '캠핑', '풍력발전소', '일몰', '목장', '경치', '산행', '드라이브', '등산', '힐링']"
가리산,강원 홍천군 두촌면 가리산길 260-9,37.8543375,127.9986807,4.1,"['재미있는', '호젓한', '조그마한', '깨끗한', '편안한', '계곡', '휴양림', '모노레일', '막국수', '폭포', '휴식', '경치', '산행', '등산', '레포츠']"
갈남항,강원 삼척시 원덕읍 갈남리,37.262955,129.3208155,4.23,"['아담한', '깨끗한', '이국적', '소박한', '평화로운', '투명카누', '해변', '스노클링', '항구', '캠핑', '숨은', '경치', '드라이브', '힐링', '가족여행']"
오션월드,강원 홍천군 서면 한치골길 262,37.6466335,127.6813286,4.4,"['재미있는', '화려한', '편안한', '쾌적한', '깨끗한', '수영장', '유수풀', '온천', '파도풀', '워터파크', '가족여행', '비오는날', '온천여행', '휴식', '나들이']"
맹방해수욕장,강원 삼척시 근덕면,37.3792207,129.2258038,4.19,"['호젓한', '조그마한', '깨끗한', '화려한', '편안한', '조개잡기', '해변', '캠핑', '카라반', '유채꽃', '갯벌체험', '드라이브', '경치', '힐링', '나들이']"
덕풍계곡,강원 삼척시 가곡면 풍곡리,37.0918635,129.1583381,4.21,"['근사한', '깨끗한', '편안한', '웅장한', '신비한', '계곡', '트래킹', '휴양림', '폭포', '캠핑', '경치', '촬영지', '산행', '등산', '휴식']"
방태산자연휴양림,강원 인제군 기린면 방태산길 377,37.9277833,128.3954116,4.38,"['소박한', '깨끗한', '호젓한', '쾌적한', '편안한', '계곡', '캠핑', '휴양림', '산책', '폭포', '드라이브', '가을여행', '등산', '단풍구경', '단풍여행']"
동강전망자연휴양림,강원 정선군 신동읍 고성리 산17,37.2580294,128.6052007,3.83,"['전망대', '오토캠핑', '캠핑', '휴양림', '모노레일', '경치', '힐링', '등산']"
청태산자연휴양림,강원 횡성군 둔내면 청태산로 610,37.5228883,128.2906779,4.47,"['청량한', '호젓한', '친절한', '편안한', '깨끗한', '계곡', '캠핑', '휴양림', '산림욕장', '산책', '경치', '가족여행', '산행', '힐링', '등산']"
민둥산,강원 정선군 남면 무릉리,37.2540288,128.782732,4.23,"['낭만적인', '깨끗한', '화려한', '편안한', '운치있는', '막걸리', '억새', '트래킹', '라이딩', '갈대', '경치', '기차여행', '가을여행', '등산', '야간산행']"
선돌,강원 영월군 영월읍 방절리 산122,37.2053558,128.4343412,3.77,"['신비스러운', '깨끗한', '재미있는', '웅장한', '고즈넉한', '시장', '전망대', '휴양림', '닭강정', '동굴', '경치', '힐링', '등산', '산행', '촬영지']"
이사부사자공원,강원 삼척시 수로부인길 333 이사부사자공원,37.4747602,129.1594067,3.77,"['아늑한', '아담한', '재미있는', '신비한', '깨끗한', '공원', '해변', '썰매장', '동굴', '썰매', '힐링', '경치', '나들이', '드라이브', '가족여행']"
거진항,강원 고성군 거진읍 거진리,38.4467984,128.453987,4.33,"['아늑한', '활기찬', '아담한', '깨끗한', '평온한', '시장', '도루묵', '해변', '항구', '횟집', '갯벌체험', '드라이브', '경치', '싱싱한', '힐링']"
두타연,강원 양구군 방산면 고방산리 1024,38.2722018,127.9956157,4.58,"['재미있는', '호젓한', '깨끗한', '화려한', '소박한', '전망대', '계곡', '트래킹', '공원', '폭포', '경치', '단풍여행', '힐링', '등산', '기차여행']"
천진해수욕장,강원 고성군 토성면 천진리,38.2571139,128.5514248,3.75,"['깨끗한', '분위기좋은', '심플한', '평화로운', '시끌시끌한', '물회', '해변', '전망대', '횟집', '대게', '가족여행', '경치', '힐링', '드라이브', '핫플레이스']"
아우라지,강원 정선군 여량면 여량5리,37.4612086,128.7528827,4.25,"['재미있는', '깨끗한', '운치있는', '편안한', '웅장한', '야경', '계곡', '레일바이크', '동굴', '뗏목', '가족여행', '경치', '드라이브', '힐링', '기차여행']"
Farm11,강원 양양군 서면 원당골길 42,38.0666247,128.573787,4.55,"['재미있는','편안한','조용한',농장','빵집','체험학습',가족여행','카페']"
젊은달와이파크,강원 영월군 주천면 송학주천로 1467-9,37.2739181,128.2690671,4.48,"['조용한', '편안한','미술관','아트','카페']"
권금성,강원 속초시 설악동,38.1681813,128.4769101,4.33,"['이국적', '화려한', '편안한', '웅장한', '신비한', '폭포', '전망대', '케이블카', '계곡', '국립공원', '경치', '산행', '등산', '단풍구경', '유물']"
남애항,강원 양양군 현남면 매바위길 138,37.944739,128.7865597,4.08,"['아담한', '고즈넉한', '화려한', '편안한', '깨끗한', '시장', '해변', '전망대', '횟집', '항구', '가족여행', '경치', '싱싱한', '드라이브', '촬영지']"
치악산,강원 원주시 소초면 무쇠점2길 26,37.4140207,128.0503654,4.33,"['재미있는', '깨끗한', '화려한', '편안한', '웅장한', '전망대', '계곡', '캠핑', '폭포', '국립공원', '경치', '산행', '드라이브', '등산', '휴식']"
정동진레일바이크,강원 강릉시 강동면 정동역길 17,37.6911646,129.0330457,4.33,"['재미있는', '이국적', '바다열차', '해변', '박물관', '레일바이크', '철길', '가족여행', '경치', '데이트', '드라이브', '휴식']"
영랑호,강원 속초시 장사동,38.2120061,128.5506799,4.5,"['재미있는', '웅장한', '카누', '공원', '전망대', '호수', '산책', '가족여행', '경치', '데이트', '드라이브', '휴식']"
직탕폭포,강원 철원군 동송읍 장흥리 직탕폭포,38.2096834,127.2657283,4.75,"['재미있는', '깨끗한', '신비로운', '웅장한', '평화로운', '폭포', '번지점프', '매운탕', '다슬기', '계곡', '나들이', '경치', '드라이브', '산행', '힐링']"
가리왕산자연휴양림,강원 정선군 정선읍 가리왕산로 707,37.4222352,128.5753619,4.25,"['소박한', '깨끗한', '멋스러운', '편안한', '쾌적한', '계곡', '오토캠핑', '휴양림', '시장', '동굴', '가족여행', '경치', '힐링', '등산', '산행']"
노동당사,강원 철원군 철원읍 관전리,38.2495782,127.2008922,4.25,"['재미있는', '깨끗한', '화려한', '옛모습', '평화로운', '폭포', '라이딩', '전망대', '일몰', '캠핑', '경치', '산행', '휴식', '등산', '촬영지']"
영진해변,강원 강릉시 연곡면,37.8597587,128.8368017,4.17,"['낭만적인', '깨끗한', '조그마한', '편안한', '평화로운', '커피거리', '해변', '보리밥', '횟집', '대게', '가족여행', '힐링', '경치', '드라이브', '촬영지']"
삼척해수욕장,강원 삼척시 교동 삼척해수욕장,37.4683333,129.1691667,4.25,"['평온한', '깨끗한', '이국적', '프라이빗', '편안한', '바다열차', '해변', '캠핑', '스노클링', '횟집', '갯벌체험', '힐링', '경치', '싱싱한', '드라이브']"
강릉항,강원 강릉시 창해로14번길 51-26,37.772669,128.9512961,4,"['재미있는', '조그마한', '깨끗한', '멋스러운', '근사한', '커피거리', '해변', '유람선', '항구', '횟집', '가족여행', '낚시체험', '싱싱한', '힐링', '경치']"
별마로천문대,강원 영월군 영월읍 천문대길 397,37.199054,128.4861254,4.34,"['낭만적인', '재미있는', '편안한', '쾌적한', '깨끗한', '천문대', '패러글라이딩', '전망대', '활공장', '야경', '체험관', '경치', '촬영지', '등산', '휴식']"
테디베어팜,강원 속초시 학사평2길 16,38.205581,128.5151377,4.23,"['재미있는', '이국적', '아기자기', '화려한', '작은규모', '테디베어', '미술관', '시장', '캠핑', '박물관', '가족여행', '데이트', '힐링', '등산', '나들이']"
묵호항,강원 동해시 묵호진동,37.5558816,129.1145348,4.22,"['재미있는', '아기자기', '화려한', '소박한', '깨끗한', '오징어회', '벽화마을', '횟집', '수산시장', '대게', '가족여행', '경치', '싱싱한', '드라마촬영지', '기차여행']"
용화산자연휴양림,강원 춘천시 사북면 사여골길 294,38.0113477,127.7603378,4.42,"['아늑한', '아담한', '호젓한', '고급진', '깨끗한', '계곡', '캠핑', '휴양림', '산림욕장', '암벽', '경치', '산행', '가족여행', '등산', '휴식']"
흔들바위,강원 속초시 설악산로 833,38.1630004,128.5454229,4.23,"['계곡', '트래킹', '케이블카', '산책', '국립공원', '산행', '등산']"
미천골자연휴양림,강원 양양군 서면 미천골길 115,37.9490192,128.5118119,4.47,"['근사한', '깨끗한', '화려한', '편안한', '청량한', '계곡', '캠핑', '휴양림', '국립공원', '폭포', '드라이브', '경치', '힐링', '등산', '산행']"
다이나믹메이즈 속초,강원 속초시 원암학사평길 88,38.2054519,128.5171931,4.28,"['재미있는', '미로', '미술관', '해변', '테마파크', '동굴', '신선한', '데이트']"
용평리조트 발왕산 관광케이블카,강원 평창군 대관령면 용산리 99,37.6334784,128.6641565,4.63,"['재미있는','근사한','휴양지','리조트','케이블 카']"
백도해수욕장,강원 고성군 죽왕면 문암진리 19-22,38.3027743,128.5421096,4.23,"['아담한', '깨끗한', '이국적', '근사한', '웅장한', '물회', '해변', '캠핑', '시장', '바다낚시', '갯벌체험', '가족여행', '경치', '추억여행', '휴식']"
정암해수욕장,강원 양양군 강현면 정암리,38.1417006,128.6074802,4.23,"['조그마한', '멋스러운', '깨끗한', '시장', '튀김골목', '해변', '캠핑', '닭강정', '갯벌체험', '나들이', '경치', '드라이브', '휴식']"
하늬라벤더팜,강원 고성군 간성읍 꽃대마을길 175,38.3486203,128.4149391,4.23,"['화사한', '목가적인', '이국적', '편안한', '아기자기', '메밀꽃밭', '전망대', '해변', '캠핑', '농장', '가족여행', '축제행사', '힐링', '드라이브', '나들이']"
대관령자연휴양림,강원 강릉시 성산면 삼포암길 133,37.7144152,128.7848205,4.4,"['재미있는', '호젓한', '포근한', '웅장한', '깨끗한', '계곡', '캠핑', '휴양림', '목장', '산림욕장', '경치', '산행', '힐링', '등산', '가족여행']"
가리왕산,강원 정선군 정선읍,37.3797668,128.6616588,4.23,"['깨끗한', '화려한', '편안한', '신비한', '고즈넉한', '계곡', '휴양림', '스키장', '동굴', '폭포', '체험관', '경치', '산행', '등산', '휴식']"
가리산자연휴양림,강원 홍천군 두촌면 가리산길 426,37.865235,127.9824687,3.96,"['재미있는', '편안한', '깨끗한', '계곡', '게임장', '캠핑', '휴양림', '짚라인', '가족여행', '산행', '힐링', '등산', '레포츠']"
춘천의암호스카이워크,강원 춘천시 칠전동 468-1,37.8453741,127.6778665,4.39,"['재미있는', '깨끗한', '이국적', '편안한', '작은규모', '카누', '하늘자전거', '라이딩', '자전거코스', '자전거도로', '나들이', '경치', '커플여행', '드라이브', '등산']"
쏠비치 양양 오션플레이,강원 양양군 손양면 선사유적로 678,38.0879183,128.6657476,4.15,"['아담한', '닥터피쉬', '치킨', '온천', '수영장', '워터파크', '경치', '비오는날', '휴식', '사진찍기']"
사천진해수욕장,강원 강릉시 사천면 사천진리,37.8435195,128.8684982,4.23,"['친절함', '분위기좋은', '깨끗한', '이국적', '화려한', '물회', '해변', '스노클링', '횟집', '캠핑', '경치', '싱싱한', '힐링', '데이트', '촬영지']"
바람의언덕,강원 태백시 창죽동 9-440,37.236246,128.9587665,4,"['고풍스러운', '이국적', '웅장한', '옛모습', '고즈넉한', '시장', '문화골목', '박물관', '근대화골목', '근대골목', '나들이', '스템프투어', '유물', '데이트', '촬영지']"
해신당공원,강원 삼척시 원덕읍 삼척로 1852-6 해신당공원,37.2679859,129.3273488,4.22,"['포근한', '재미있는', '웅장한', '옛모습', '깨끗한', '공원', '해변', '박물관', '횟집', '투명카누', '드라이브', '경치', '데이트', '힐링', '가족여행']"
집다리골자연휴양림,강원 춘천시 사북면 화악지암1길 129 집다리골자연휴양림,37.9804869,127.5780097,4.28,"['재미있는', '깨끗한', '화려한', '편안한', '웅장한', '계곡', '캠핑', '휴양림', '물놀이장', '산책', '가족여행', '경치', '힐링', '등산', '산행']"
장호해수욕장,강원 삼척시 근덕면,37.3792207,129.2258038,4.5,"['재미있는', '아담한', '깨끗한', '물회', '투명카누', '해변', '스노클링', '캠핑', '나들이', '경치', '싱싱한', '힐링', '가족여행']"
홍천은행나무숲,강원 홍천군 내면 광원리 686-4,37.8308983,128.4693298,4.83,"['낭만적인', '깨끗한', '화려한', '아담한', '운치있는', '휴양림', '전나무숲길', '은행나무길', '막국수', '공원', '드라이브', '가을여행', '단풍여행', '단풍구경', '등산']"
추암해수욕장,강원 동해시 북평동 추암해수욕장,37.4776977,129.1595109,4.83,"['아담한', '깨끗한', '화려한', '근사한', '편안한', '바다열차', '공원', '해변', '일출', '계곡', '힐링', '경치', '촬영지', '드라이브', '기차여행']"
알파카월드,강원 홍천군 화촌면 풍천리 310,37.83262,127.896583,4.36,"['분위기좋은', '조그마한', '깨끗한', '화려한', '편안한', '도시락', '동물농장', '공연', '동물원', '테마파크', '피크닉', '나들이', '동물체험', '승마체험', '휴식']"
화진포,강원 고성군 거진읍 화포리,38.4596259,128.4407382,4.15,"['깨끗한', '화려한', '둘레길', '해변', '박물관', '호수', '일몰', '경치', '유적', '드라이브', '체험관', '촬영지']"
울산바위,강원 속초시 설악산로 1091,38.1730998,128.4890543,3.83,"['재미있는', '깨끗한', '편안한', '웅장한', '신비로운', '폭포', '전망대', '케이블카', '계곡', '국립공원', '경치', '산행', '드라이브', '등산', '단풍여행']"
쏠비치 삼척 오션플레이,강원 삼척시 수로부인길 453 (주)대명레저산업 삼척지점,37.4723264,129.1647483,4.31,"['재미있는', '아담한', '깨끗한', '프라이빗', '작은규모', '워터슬라이드', '유수풀', '노천온천', '파도풀', '워터파크', '가족여행', '재방문', '힐링', '휴식', '신선한']"
구와우마을,강원 태백시 황지동,37.164372,128.951832,4.08,"['평화로운', '해바라기밭', '계곡', '물닭갈비', '식물원', '산책', '나들이', '싱싱한', '힐링', '휴식', '사진찍기']"
담터계곡,강원 철원군 동송읍 상노리,38.1567048,127.2205628,4.25,"['깨끗한', '계곡', '캠핑', '래프팅', '다슬기', '닭백숙', '가족여행', '경치', '힐링']"
화진포의성김일성별장,강원 고성군 거진읍 화진포길 280,38.4724774,128.4430193,4.57,"['아담한', '이국적', '소박하고', '옛모습', '깨끗한', '해변', '전망대', '박물관', '산림욕장', '호수', '드라이브', '경치', '싱싱한', '힐링', '촬영지']"
설악산,강원 인제군 북면 한계리,38.1227531,128.3023006,4.13,"['재미있는', '깨끗한', '화려한', '신비로운', '웅장한', '폭포', '전망대', '케이블카', '계곡', '국립공원', '경치', '산행', '가을여행', '등산', '단풍여행']"
연곡해수욕장,강원 강릉시 연곡면 동덕리 142-1,37.8581606,128.8521405,3.63,"['깨끗한', '편안한', '물회', '계곡', '해변', '캠핑', '카라반', '드라이브', '경치', '촬영지', '힐링', '가족여행']"
경포호,강원 강릉시 저동,37.7981294,128.8925034,4.23,"['낭만적인', '고즈넉한', '화려한', '호젓한', '운치있는', '자전거대여', '해변', '산책', '호수', '야경', '드라이브', '경치', '주말여행', '힐링', '나들이']"
경포대,강원 강릉시 저동,37.7981294,128.8925034,4.23,"['평온한', '화려한', '웅장한', '운치있는', '화사한', '야경', '공원', '해변', '호수', '벚꽃길', '봄꽃', '경치', '봄여행', '드라이브', '나들이']"
르꼬따쥬,강원 강릉시 한밭골길 50-11,37.7874685,128.864239,4.71,"[''평온한','경치',체험학습','키즈체험','산책','사진찍기','아담한']"
원주 백운산자연휴양림,강원 원주시 판부면 서곡리 산166,37.2696379,127.9493217,4.34,"['깨끗한', '편안한', '운치있는', '아기자기', '계곡', '휴양림', '산림욕장', '산책', '폭포', '나들이', '경치', '산행', '등산', '휴식']"
태백산,강원 태백시 혈동,37.1251165,128.9117269,4.28,"['조그마한', '깨끗한', '화려한', '편안한', '웅장한', '눈꽃열차', '공원', '캠핑', '박물관', '철쭉', '경치', '산행', '야간산행', '등산', '휴식']"
강릉짬뽕순두부 동화가든 본점,강원 강릉시 초당순두부길77번길 15,37.7911013,128.9147331,4.26,"['친절한', '깨끗한', '화려한', '편안한', '운치있는', '순두부짬뽕', '청국장', '해변', '짬뽕순두부', '커피거리', '가족여행', '신선한', '자극적인', '경치', '재방문']"
청초호,강원 속초시 청호동,38.1943211,128.5958938,4.23,"['분위기좋은', '이국적', '화려한', '깨끗한', '공원', '유람선', '전망대', '호수', '야경', '경치', '데이트', '힐링', '휴식', '촬영지']"
정동진해수욕장,강원 강릉시 강동면 정동진리,37.6892008,129.0243271,4.23,"['깨끗한', '포근한', '바다열차', '해변', '박물관', '레일바이크', '일출', '힐링', '촬영지', '드라이브', '휴식', '기차여행']"
용화해수욕장,강원 삼척시 근덕면,37.3792207,129.2258038,4.5,"['재미있는', '아늑한', '조그마한', '깨끗한', '신비로운', '투명카누', '해변', '스노클링', '레일바이크', '캠핑', '가족여행', '경치', '드라이브', '휴식', '힐링']"
섬강,강원 횡성군 횡성읍 북천리,37.5002061,127.9920731,3.67,"['깨끗한', '계곡', '라이딩', '캠핑', '유원지', '돌탑', '경치']"
치악산자연휴양림,강원 원주시 판부면 휴양림길 66 치악산자연휴양림시설물,37.2559097,128.031252,4.23,"['소박한', '아늑한', '깨끗한', '편안한', '계곡', '캠핑', '휴양림', '산책', '산림욕', '경치', '산행', '힐링', '등산', '나들이']"
백덕산,강원 영월군 무릉도원면,37.2880485,128.2684923,4.23,"['웅장한', '조그마한', '깨끗한', '편안한', '운치있는', '계곡', '대나무', '전망대', '오름', '폭포', '레포츠', '경치', '산행', '등산', '휴식']"
봉포머구리집,강원 속초시 영랑해안길 223 봉포머구리집,38.2188101,128.5932501,4.22,"['재미있는', '조그마한', '깨끗한', '편안한', '고급스러운', '성게알밥', '성게비빔밥', '섭국', '오징어순대', '속초물회', '가족여행', '경치', '싱싱한', '힐링', '나들이']"
삼포해수욕장,강원 고성군 죽왕면 삼포리,38.3134334,128.5126188,3.75,"['아담한', '깨끗한', '화려한', '호젓한', '이국적', '조개잡기', '해변', '캠핑', '공연', '항구', '갯벌체험', '피크닉', '경치', '휴식', '가족여행']"
삼봉자연휴양림,강원 홍천군 내면 삼봉휴양길 276,37.8653279,128.4641762,4.33,"['호젓한', '깨끗한', '화려한', '편안한', '고즈넉한', '계곡', '캠핑', '휴양림', '산책', '물놀이장', '경치', '산행', '힐링', '등산', '가족여행']"
동국대학교 만해마을,강원 인제군 북면 만해로 91 만해수련원,38.1876037,128.3178473,4.31,"['고즈넉한', '운치있는', '편안한', '웅장한', '감각적인', '계곡', '피자', '박물관', '산책로', '황태', '템플스테이', '경치', '드라이브', '휴식', '나들이']"
팔봉산관광지,강원 홍천군 서면 어유포리 272-13,37.7015978,127.6956829,3.5,"['아담한', '깨끗한', '편안한', '아기자기', '꺽지', '계곡', '유원지', '다슬기', '캠핑', '경치', '산행', '가족여행', '등산', '휴식']"
김삿갓계곡,강원 영월군 김삿갓면 와석리,37.0994778,128.6211217,4.5,"['재미있는', '조그마한', '깨끗한', '아담한', '편안한', '꺽지', '계곡', '래프팅', '공원', '캠핑', '숨은', '경치', '힐링', '등산', '가족여행']"
공현진1리해수욕장,강원 고성군 죽왕면 공현진리,38.3545842,128.4968455,4.23,"['조그마한', '깨끗한', '편안한', '포근한', '짬뽕', '일출명소', '해변', '캠핑', '횟집', '갯벌체험', '경치', '드라이브하기', '휴식', '피크닉']"
척산온천휴양촌,강원 속초시 관광로 327,38.1901179,128.540545,4.25,"['작은규모', '깨끗한', '편안한', '옛모습', '프라이빗', '산책', '시장', '노천온천', '수영장', '족욕공원', '가족여행', '경치', '힐링', '등산', '온천여행']"
모래시계 공원,강원 강릉시 강동면 정동진리 산2,37.6871725,129.0376985,4.23,"['느낌있는', '낭만적인', '고즈넉한', '이국적', '멋스러운', '공원', '해변', '박물관', '레일바이크', '일출', '가족여행', '경치', '촬영지', '드라이브', '기차여행']"
함백산,강원 정선군 고한읍 함백산,37.1615368,128.9176271,4.23,"['조그마한', '화려한', '편안한', '웅장한', '화사한', '공원', '라이딩', '철쭉', '일몰', '스키장', '경치', '산행', '드라이브', '등산', '휴식']"
대관령아기동물농장,강원 강릉시 사천면 송암골길 197-13,37.797637,128.828676,4.51,"['편안한', '조그마한', '재미있는', '깨끗한', '평화로운', '한우', '피자', '동물농장', '동물원', '목장', '가족여행', '데이트', '동물체험', '승마체험', '나들이']"
물치해수욕장,강원 양양군 강현면 정암리,38.1417006,128.6074802,4.23,"['조그마한', '깨끗한', '편안한', '해변', '캠핑', '횟집', '항구', '바다낚시', '가족여행', '경치', '드라이브', '휴식', '촬영지']"
중앙시장,강원 강릉시 금성로 21,37.7540002,128.8985828,4.26,"['재미있는', '인심좋은', '깨끗한', '화려한', '고즈넉한', '아이스크림', '호떡', '닭강정', '떡갈비', '재래시장', '착한가격', '싱싱한', '힐링', '경치', '촬영지']"
정선아라리촌,강원 정선군 정선읍 애산로 37,37.3749581,128.6712459,4.41,"['토속적인분위기', '재미있는', '손님접대', '운치있는', '옛모습', '시장', '박물관', '공연', '산책', '레일바이크', '경치', '토속음식', '힐링', '체험관', '촬영지']"
얼라이브 하트,강원 속초시 원암학사평길 88,38.2054519,128.5171931,4.36,"['재미있는', '러블리한', '신비한', '미로', '미술관', '박물관', '테마파크', '트릭아트', '가족여행', '데이트', '드라이브', '나들이', '핫플레이스']"
경포아쿠아리움,강원 강릉시 난설헌로 131,37.7873974,128.9071387,4.18,"['몽환적인', '재미있는', '화려한', '신비로운', '작은규모', '닥터피쉬', '호수', '해저터널', '아쿠아리움', '펭귄', '나들이', '재방문', '데이트', '동물체험', '체험관']"
365세이프타운,강원 태백시 평화길 15 안전체험,37.0993713,129.0267222,4.52,"['재미있는', '실내놀이터', '공원', '키즈랜드', '체험학습', '테마파크', '유물', '경치', '산행', '체험관', '등산']"
멍비치,강원 양양군 현남면 광진리 78-20,37.9534953,128.7727582,4.23,"['재미있는', '깨끗한', '이국적', '편안한', '평화로운', '애견수영장', '계곡', '해변', '캠핑', '파도타기', '갯벌체험', '나들이', '핫플레이스', '휴식', '가족여행']"
천학정,강원 고성군 토성면 교암리,38.277384,128.5295821,4.23,"['아늑한', '깨끗한', '소박한', '고즈넉한', '아름다운일출', '해변', '스킨스쿠버', '산책로', '항구', '숨은', '경치', '드라이브', '등산', '힐링']"
타임캡슐공원,강원 정선군 신동읍 엽기소나무길 518-23 관리사무소,37.2013811,128.6882515,4.23,"['평온한', '깨끗한', '편안한', '천문대', '모노레일', '캠핑', '레일바이크', '공원', '힐링', '경치', '드라이브', '등산', '촬영지']"
롯데리조트 속초 워터파크,강원 속초시 대포항길 186,38.1760108,128.6072118,4.15,"['재미있는', '이국적', '편안한', '쾌적한', '깨끗한', '유수풀', '온천', '수영장', '파도풀', '워터파크', '가족여행', '경치', '데이트', '휴식', '나들이']"
커피커퍼박물관,강원 강릉시 해안로 341,37.7939746,128.915787,4.29,"['강릉커피','강릉카페','핸드드립',카페']"
남애3리해수욕장,강원 양양군 현남면 남애리,37.938207,128.779084,4.23,"['아담한', '깨끗한', '조개잡기', '전망대', '해변', '캠핑', '횟집', '갯벌체험', '가족여행', '경치', '힐링', '촬영지']"
등명해변,강원 강릉시 강동면,37.7280308,128.9541928,4.23,"['느낌있는', '아담한', '깨끗한', '낭만적인', '평화로운', '바다열차', '해변', '캠핑', '철길', '일출', '숨은', '경치', '힐링', '산행', '촬영지']"
이상원미술관,강원 춘천시 사북면 화악지암길 99 이상원미술관,37.9679432,127.5790956,4.51,"['깨끗한', '재미있는', '친절한', '편안한', '고급스러운', '미술관', '레스토랑', '박물관', '공방', '계곡', '가족여행', '경치', '데이트', '힐링', '드라이브']"
미술관 자작나무숲,강원 횡성군 우천면 한우로두곡5길 186,37.4926174,128.05027,4.35,"['멋스런', '고즈넉한', '소박한', '운치있는', '포근한', '미술관', '한우', '캠핑', '갤러리카페', '산책', '힐링', '경치', '데이트', '드라이브', '나들이']"
삼척해상케이블카용화역,강원 삼척시 근덕면 삼척로 2154-31,37.2886638,129.3087991,4.27,"['해상케이블카', '전망대', '산책로', '공원', '투명카누']"
드라마[태양의후예]촬영지,강원 태백시 통동 산67-38,37.1646405,129.028155,4.23,"['재미있는', '빈티지한', '이국적', '드라마세트장', '박물관', '철길', '세트장', '물닭갈비', '나들이', '드라마촬영지', '체험관', '등산', '촬영지']"
하조대,강원 양양군 현북면 하광정리,38.0141238,128.7164669,4.2,"['작은규모', '깨끗한', '웅장한', '운치있는', '신비로운', '계곡', '해변', '전망대', '일출', '오징어순대', '가족여행', '경치', '드라이브', '힐링', '촬영지']"
원주레일파크,강원 원주시 지정면 간현로 163,37.3632816,127.8368697,4.38,"['아담한', '재미있는', '편안한', '운치있는', '깨끗한', '계곡', '유원지', '휴양림', '레일바이크', '칼국수', '가족여행', '경치', '드라이브', '승마체험', '기차여행']"
장전계곡,강원 평창군 진부면 장전길 435-2,37.4780319,128.5459064,4.23,"['재미있는', '깨끗한', '신비로운', '신비한', '캠핑', '계곡', '국립공원', '휴양림', '폭포', '산행', '힐링', '경치', '사진찍기', '휴식']"
청령포,강원 영월군 남면 광천리 산67-1,37.1735997,128.4436964,4.53,"['조그마한', '고즈넉한', '소박한', '웅장한', '깨끗한', '전망대', '닭강정', '유적지', '곤드레밥', '계곡', '가족여행', '경치', '드라이브', '힐링', '기차여행']"
대관령 순수양떼목장,강원 평창군 대관령면 오목길 152,37.6580681,128.7197002,4.45,"['깨끗한', '이국적', '목가적인', '웅장한', '평화로운', '커피거리', '양고기', '목장', '풍력발전소', '양꼬치', '가족여행', '커플여행', '가을여행', '등산', '기차여행']"
용오름계곡,강원 홍천군 서석면 검산리 산8-1,37.7208447,128.2366203,4.23,"['깨끗한', '화려한', '편안한', '웅장한', '아기자기', '캠핑', '계곡', '트래킹', '폭포', '국립공원', '경치', '산행', '드라이브', '등산', '휴식']"
테라로사 커피공장 강릉본점,강원 강릉시 구정면 현천길 25,37.6960542,128.8918879,4.39,"['아늑한', '빈티지한', '이국적', '분위기좋은', '아기자기', '카페', '커피거리', '티라미수', '커피공장', '브런치', '힐링', '경치', '데이트', '드라이브', '유기농']"
런닝맨 강릉점,강원 강릉시 창해로 307 세인트존스호텔 파인동 2층,37.7911114,128.9210687,4.62,[]
삼척해상케이블카 장호역,강원 삼척시 근덕면 장호항길 12-10,37.2852606,129.3193534,4.43,"['해상케이블카', '해변', '전망대', '레일바이크', '투명카누']"
수타사계곡,강원 홍천군 동면 덕치리 산9,37.7027743,127.9432808,4.23,"['아담한', '깨끗한', '고즈넉한', '편안한', '청량한', '캠핑', '계곡', '출렁다리', '산책', '공원', '경치', '산행', '힐링', '등산', '나들이']"
낭만골목,강원 춘천시 효자동 541-6,37.8721805,127.7270784,4.23,"['빈티지한', '낭만적인', '재미있는', '멋스러운', '소박한', '닭갈비', '시장', '벽화마을', '막국수', '산책', '나들이', '데이트', '힐링', '전통적인', '숨은']"
알펜시아리조트오션700워터파크,강원 평창군 대관령면 솔봉로 325,37.6616099,128.6763358,4.23,"['재미있는', '이국적', '편안한', '쾌적한', '깨끗한', '유수풀', '온천', '수영장', '파도풀', '워터파크', '가족여행', '경치', '데이트', '휴식', '나들이']"
휘바핀란드,강원 홍천군 서면 두미리 624-1,37.6690005,127.6584883,4.15,"['재미있는', '편안한', '이국적', '소박한', '아기자기', '핀란드마을', '테마파크', '수영장', '산책', '눈썰매장', '가족여행', '힐링', '체험관', '동물체험', '나들이']"
소금강계곡,강원 강릉시 연곡면 삼산리,37.827806,128.6553172,5,"['깨끗한', '화려한', '편안한', '웅장한', '아기자기', '캠핑', '계곡', '트래킹', '폭포', '국립공원', '경치', '산행', '드라이브', '등산', '휴식']"
향호해변,강원 강릉시 주문진읍 향호리,37.8996511,128.7843327,4.23,"['소박한', '깨끗한', '화려한', '편안한', '평화로운', '공원', '해변', '전망대', '박물관', '라이딩', '가족여행', '경치', '드라이브', '체험관', '힐링']"
귀네미마을,강원 태백시 삼수동,37.1804523,128.9778981,4.23,"['이국적', '운치있는', '몽환적인', '신비로운', '구절초', '계곡', '전망대', '일출', '풍력발전소', '경치', '산행', '싱싱한', '등산', '촬영지']"
DMZ박물관,강원 고성군 현내면 통일전망대로 369,38.5762182,128.3824776,3.9,"['깨끗한', '재미있는', '안락한', '운치있는', '평화로운', '공원', '해변', '전망대', '박물관', '유적지', '휴식', '가족여행', '경치', '유물', '체험관']"
소양강스카이워크,강원 춘천시 영서로 2663 소양강스카이워크,37.8933383,127.7234127,4.37,"['재미있는', '깨끗한', '이국적', '화려한', '평화로운', '닭갈비', '오리배', '전망대', '야경', '수상레저', '나들이', '경치', '데이트', '힐링', '드라이브']"
통일전망대,강원 고성군 현내면 금강산로 481,38.5145523,128.4167773,4.3,"['소박한', '깨끗한', '화려한', '편안한', '평화로운', '공원', '해변', '전망대', '박물관', '라이딩', '가족여행', '경치', '드라이브', '체험관', '힐링']"
죽도정,강원 양양군 현남면 인구리,37.9544029,128.7369204,4.23,"['조그마한', '재미있는', '신비로운', '깨끗한', '공원', '해변', '전망대', '산책로', '캠핑', '드라이브', '경치', '힐링', '휴식']"
박수근미술관,강원 양구군 양구읍 박수근로 265-15 박수근미술관,38.09643,127.981533,4.54,"['아담한', '소박한', '정적인', '이국적', '고즈넉한', '미술관', '시장', '박물관', '산책', '공원', '드라이브', '경치', '데이트', '힐링', '유물']"
박경리문학공원,강원 원주시 토지길 1,37.3227239,127.9597412,4.23,"['아담한', '소박한', '편안한', '옛모습', '고즈넉한', '공원', '시장', '박물관', '테마파크', '산책', '나들이', '데이트', '가족여행', '휴식', '기차여행']"
만항재,강원 정선군 고한읍,37.2041439,128.851893,4.23,"['호젓한', '우아한', '청량한', '몽환적인', '오붓한', '캠핑', '공원', '라이딩', '트래킹', '썰매', '봄꽃', '산행', '드라이브', '등산', '촬영지']"
인구해수욕장,강원 양양군 현남면,37.969241,128.7594439,4.67,"['깨끗한', '해변', '캠핑', '수제버거', '일출', '바다낚시', '나들이']"
병지방리계곡,강원 횡성군 갑천면 병지방리,37.6080467,128.0762496,4.23,"['계곡', '캠핑', '카라반', '삼겹살', '바베큐장', '드라이브', '경치', '힐링']"
금병산,강원 춘천시 신동면 정족리,37.8247389,127.7386229,4.23,"['재미있는', '조그마한', '호젓한', '편안한', '운치있는', '닭갈비', '계곡', '다방', '박물관', '산책', '경치', '나들이', '산행', '등산', '휴식']"
평창백룡동굴,강원 평창군 미탄면 마하리,37.2888061,128.5743713,4.89,"['재미있는', '조그마한', '고즈넉한', '신비로운', '웅장한', '계곡', '패러글라이딩', '체험학습', '유람선', '동굴', '유물', '산행', '힐링', '승마체험', '레포츠']"
소나무집초당순두부,강원 강릉시 초당순두부길 95-5,37.7917113,128.9154298,4.18,"['친절함', '모던한', '재미있는', '친절한', '편안한', '짬뽕', '쫄면', '순두부', '짬뽕순두부', '두부전골', '향토음식', '나들이', '경치', '싱싱한', '힐링']"
외옹치해수욕장,강원 속초시 대포동,38.1656852,128.5569925,4.23,"['조그마한', '깨끗한', '웅장한', '작은규모', '수상레저', '해변', '캠핑', '시장', '횟집', '가족여행', '경치', '힐링', '산행', '촬영지']"
김유정 문학촌,강원 춘천시 신동면 김유정로 1430-14,37.8185982,127.7163956,4.5,"['아늑한', '재미있는', '고즈넉한', '소박하고', '서정적인', '닭갈비', '막국수', '박물관', '레일바이크', '동백꽃', '가족여행', '가을여행', '등산', '주말여행', '기차여행']"
춘천숲자연휴양림,강원 춘천시 동산면 종자리로 224-104 춘천숲자연휴양림,37.7444715,127.7441397,4.62,"['아늑한', '조그마한', '깨끗한', '편안한', '아기자기', '글램핑', '휴양림', '산림욕', '산책', '캠핑', '가을여행', '경치', '힐링', '등산', '단풍구경']"
두타산자연휴양림,강원 평창군 진부면 아차골길 132,37.5624818,128.5718227,4.63,"['아늑한', '고즈넉한', '친절한', '계곡', '캠핑', '휴양림', '산책', '국립공원', '가족여행', '산행', '힐링', '등산', '피크닉']"
산너미목장,강원 평창군 미탄면 산너미길 210,37.3652246,128.4712194,4.54,"['호젓한', '화려한', '캠핑', '일출', '케이블카', '스키장', '목장', '경치', '촬영지', '산행', '등산', '휴식']"
행구수변공원,강원 원주시 행구로 362,37.3427266,127.9844356,4.23,"['화사한', '깨끗한', '편안한', '운치있는', '평화로운', '야경', '수변공원', '산책', '물놀이장', '공연', '피크닉', '가족나들이', '드라이브', '휴식', '데이트']"
원주허브팜,강원 원주시 마장2길 37,37.3086212,127.9243472,4.36,"['낭만적인', '이국적', '화려한', '편안한', '아기자기', '수목원', '자작나무길', '식물원', '야경', '농장', '힐링', '데이트', '동물체험', '드라이브', '나들이']"
척산족욕공원,강원 속초시 관광로 277,38.1859893,128.5422051,4.23,"['깨끗한', '화사한', '공원', '피자', '온천', '식물원', '족욕공원', '드라이브', '산행', '힐링', '등산', '가족여행']"
영월장릉,강원 영월군 영월읍 단종로 190,37.1957831,128.4543019,4.42,"['소박하다', '아담한', '재미있는', '화려한', '고즈넉한', '계곡', '기사식당', '박물관', '시골밥상', '동굴', '나들이', '경치', '한복체험', '휴식', '가족여행']"
소노캄 델피노,강원 고성군 토성면 미시령옛길 1153,38.2125189,128.4938589,4.32,"['아담한', '재미있는', '화려한', '쾌적한', '깨끗한', '눈썰매', '유수풀', '온천', '파도풀', '워터파크', '가족여행', '나들이', '휴식', '데이트', '온천여행']"
비치조각공원,강원 삼척시 새천년도로 326,37.4568495,129.1855133,4.23,"['아담한', '공원', '해변', '곰치국', '일출', '공연', '경치', '데이트', '드라이브', '드라이브하기', '사진찍기']"
하추자연휴양림,강원 인제군 인제읍 하추로 686 인제군하추자연휴양림,38.0350895,128.3198503,4.23,"['아담한', '깨끗한', '계곡', '캠핑', '휴양림', '산책로', '래프팅', '웰빙', '템플스테이', '레포츠', '경치', '휴식']"
설악해맞이공원,강원 속초시 동해대로 3664,38.1631294,128.6085042,4.33,"['재미있는', '깨끗한', '화려한', '신비한', '웅장한', '공원', '해변', '일몰', '일출', '횟집', '경치', '싱싱한', '산행', '등산', '촬영지']"
강릉솔향수목원,강원 강릉시 구정면 수목원길 156,37.6927213,128.8609497,4,"['분위기있는', '재미있는', '화려한', '편안한', '깨끗한', '수목원', '계곡', '식물원', '산책', '도시락', '나들이', '경치', '데이트', '힐링', '등산']"
안인해변,강원 강릉시 강동면 안인리,37.7328982,128.9769232,4.23,"['조그마한', '아담한', '웅장한', '해변', '스노클링', '일출', '활공장', '횟집', '경치', '산행', '싱싱한', '등산', '휴식']"
공지천유원지,강원 춘천시 근화동 690-1,37.8751686,127.7095247,4.15,"['재미있는', '화려한', '편안한', '운치있는', '평화로운', '닭갈비', '오리배', '호수', '야경', '공원', '나들이', '경치', '데이트', '드라이브', '휴식']"
엑스포타워,강원 속초시 조양동,38.1845094,128.5846118,4.2,"['재미있는', '화려한', '편안한', '옛모습', '깨끗한', '공원', '둘레길', '전망대', '야경', '분수', '봄꽃', '경치', '드라이브', '등산', '산행']"
강촌레일파크 김유정레일바이크,강원 춘천시 신동면 김유정로 1383,37.8156154,127.7121592,4.4,"['낭만이있는', '재미있는', '화려한', '운치있는', '깨끗한', '닭갈비', '짚와이어', '스쿠터', '레일바이크', '짚라인', '가족여행', '경치', '데이트', '휴식', '기차여행']"
붕어섬,강원 화천군 화천읍 하1리 붕어섬,38.0955556,127.6927778,4.6,"['화려한', '깨끗한', '친절한', '운치있는', '카약', '수영장', '레일바이크', '물놀이장', '짚라인', '축제행사', '경치', '힐링', '드라이브', '나들이']"
삼척장미공원,강원 삼척시 정상동 232,37.4335009,129.1766682,4.23,"['재미있는', '이국적', '화려한', '평화로운', '화사한', '자전거대여', '공원', '인라인', '산책', '분수', '나들이', '데이트', '드라이브', '휴식', '프로포즈']"
무건리 이끼폭포,강원 삼척시 도계읍 무건리 산86-1,37.2590716,129.1096717,4.23,"['운치있는', '계곡', '둘레길', '폭포', '백숙', '국립공원', '경치', '산행', '나들이', '등산', '휴식']"
미시령계곡,강원 고성군 토성면 원암리,38.2067781,128.4730884,3.38,"['폭포', '계곡']"
휘닉스평창 블루캐니언,강원 평창군 봉평면 태기로 174 휘닉스평창,37.5834142,128.3251273,4.15,"['재미있는', '프라이빗', '깨끗한', '편안한', '아기자기', '유수풀', '온천', '수영장', '파도풀', '워터파크', '가족여행', '경치', '데이트', '휴식', '나들이']"
가진해수욕장,강원 고성군 죽왕면,38.3288177,128.5255585,4.63,"['깨끗한', '물회', '해변', '일출', '횟집', '물회집', '가족여행', '경치', '싱싱한', '힐링', '휴식']"
갯마을해수욕장,강원 양양군 현남면 남애리,37.938207,128.779084,4.23,"['스노클링', '계곡', '해변', '캠핑', '파도타기', '갯벌체험', '힐링', '사진찍기']"
주문진해수욕장,강원 강릉시 주문진읍 주문북로 210,37.9105902,128.8182985,4.43,"['깨끗한', '편안한', '해변', '캠핑', '일출', '수산시장', '대게', '가족여행', '싱싱한', '힐링', '데이트', '촬영지']"
오대산 자연명상마을 옴뷔,강원 평창군 진부면 동산리 312,37.7731822,128.5622391,4.63,
춘천꿈자람어린이공원,강원 춘천시 평화로 26,37.884379,127.7158423,4.37,"['조그마한', '재미있는', '멋스러운', '쾌적한', '깨끗한', '실내놀이터', '공원', '놀이동산', '키즈카페', '닭갈비', '체험관', '나들이', '가족여행', '휴식', '기차여행']"
토담숯불닭갈비,강원 춘천시 신북읍 신샘밭로 662,37.9294243,127.7830248,4.36,"['고급진', '분위기있는', '분위기좋은', '운치있는', '깨끗한', '소금구이', '닭갈비집', '막국수', '숯불닭갈비', '더덕구이', '나들이', '경치', '데이트', '드라이브', '힐링']"
설악산소공원,강원 속초시 설악산로 1091,38.1730998,128.4890543,4.04,"['물회', '폭포', '케이블카', '계곡', '국립공원', '경치', '산행', '등산', '단풍구경', '휴식']"
용대자연휴양림,강원 인제군 북면 연화동길 251,38.2109349,128.3166698,4.13,"['재미있는', '아담한', '호젓한', '편안한', '깨끗한', '계곡', '오토캠핑', '캠핑', '휴양림', '산책', '가족여행', '경치', '힐링', '등산', '산행']"
칡소폭포,강원 홍천군 내면 광원리,37.807025,128.4659907,4.23,"['재미있는', '깨끗한', '웅장한', '꺽지', '계곡', '캠핑', '휴양림', '폭포', '숨은', '경치', '힐링', '산행', '휴식']"
공수전계곡,강원 양양군 서면 공수전리,38.0368748,128.537728,4.23,"['물회', '계곡', '닭강정', '캠핑', '떡볶이', '경치', '힐링']"
심곡항,강원 강릉시 강동면 심곡리,37.6672988,129.0416628,4.23,"['아늑한', '근사한', '깨끗한', '해변', '전망대', '매운탕', '일출', '항구', '힐링', '경치', '촬영지', '드라이브', '숨은']"
새우튀김 골목,강원 속초시 대포동 965,38.1734734,128.605722,4.07,"['깨끗한', '튀김골목', '시장', '대게', '오징어순대', '새우튀김', '싱싱한', '힐링']"
춘천중도물레길,강원 춘천시 스포츠타운길223번길 95 1층,37.8713896,127.6903541,4.63,"['재미있는', '분위기있는', '낭만적인', '이국적', '고즈넉한', '카누', '수상레저', '모터보트', '카약', '닭갈비', '가족여행', '가을여행', '주말여행', '경치', '드라이브']"
뒷뜨루,강원 강릉시 사천면 청솔공원길 108,37.8352469,128.8372205,4.27,[]
88생선구이,강원 속초시 중앙부두길 71,38.2037191,128.5918819,4.22,"['조그마한', '깨끗한', '쾌적한', '분주한', '운치있는', '젓갈', '시장', '도루묵', '생선구이', '닭강정', '가족여행', '싱싱한', '힐링', '등산', '촬영지']"
용연동굴,강원 태백시 태백로 283-29 용연동굴,37.2090125,128.9419662,4.43,"['아늑한', '재미있는', '화려한', '신비로운', '웅장한', '분수', '물닭갈비', '폭포', '동굴', '계곡', '가족여행', '경치', '기차여행', '등산', '촬영지']"
어달항,강원 동해시 어달동,37.565559,129.1130034,4.23,"['해변', '곰치국', '횟집', '항구', '일출', '힐링', '경치', '싱싱한', '드라이브', '가족여행']"
메밀꽃밭,강원 평창군 봉평면 창동리,37.6149021,128.3843479,4.23,"['아담한', '메밀전병', '시장', '메밀꽃밭', '막국수', '메밀국수', '나들이', '경치', '데이트', '가을여행', '가족여행']"
아야진항구,강원 고성군 토성면 아야진해변길 48,38.2706048,128.5568356,4.23,"['재미있는', '낭만이있는', '아담한', '깨끗한', '고즈넉한', '물회', '해변', '도루묵', '항구', '캠핑', '가족여행', '낚시체험', '싱싱한', '힐링', '경치']"
물치항,강원 양양군 강현면 동해대로 3584 물치항회센터,38.1560515,128.6099736,3.64,"['소박한', '몽환적인', '운치있는', '포근한', '감성돔', '도루묵', '매운탕', '항구', '횟집', '가족여행', '경치', '싱싱한', '드라이브', '신선한']"
이승만별장,강원 고성군 현내면 죽정리,38.4682338,128.4218982,3.67,"['아늑한', '깨끗한', '소박하고', '소박한', '산책', '해변', '박물관', '호수', '막국수', '경치', '드라이브']"
봉브레드,강원 속초시 동해대로 4344-1,38.2029295,128.5684361,4.32,"['아늑한', '아담한', '깨끗한', '작은공간', '세련된', '바게트', '시장', '닭강정', '빵집', '마늘빵', '가족여행', '재방문', '촬영지', '휴식', '나들이']"
바다정원,강원 고성군 토성면 버리깨길 23 바다정원,38.230962,128.5820704,4.3,"['분위기깡패', '고급진', '분위기있는', '분위기좋은', '깨끗한', '카페', '바다전망', '해변', '브런치', '속초물회', '가족여행', '경치', '데이트', '힐링', '핫플레이스']"
석봉도자기미술관,강원 속초시 엑스포로 156,38.1979393,128.5825372,4.43,"['미술관', '박물관', '호수', '산책', '공원', '가족여행', '도자기체험', '체험관', '데이트']"
백촌막국수,강원 고성군 토성면 백촌1길 10 백촌막국수,38.2929822,128.5417629,4.44,"['조그마한', '소박한', '친절한', '깨끗한', '고즈넉한', '보쌈', '냉면', '순두부', '막국수', '메밀국수', '가족여행', '재방문', '자극적인', '경치', '드라이브']"
속초시립박물관,강원 속초시 신흥2길 16,38.2009196,128.5385835,4.39,"['조그마한', '재미있는', '화려한', '소박한', '옛모습', '전망대', '유적지', '박물관', '공연', '동물원', '전통체험', '체험관', '나들이', '유물', '촬영지']"
정강원한국전통음식문화체험관,강원 평창군 용평면 금당계곡로 2010-13,37.570353,128.407999,4.19,"['고풍스러운', '화려한', '이국적', '한국적인분위기', '편안한', '박물관', '고추장', '한정식', '계곡', '비빔밥', '유기농', '경치', '한복체험', '체험관', '촬영지']"
조경철천문대,강원 화천군 사내면 천문대길 431,38.1064224,127.4420173,4.29,"['낭만적인', '재미있는', '화려한', '신비로운', '깨끗한', '캠핑', '천문대', '별보기', '일출', '계곡', '나들이', '산행', '드라이브', '경치', '휴식']"
추암조각공원,강원 동해시 추암동,37.4738654,129.1511144,4.23,"['바다열차', '공원', '해변', '산책로', '일출', '핫플레이스', '촬영지']"
소똥령마을,강원 고성군 간성읍 장신리 소똥령마을,38.3316485,128.3803067,4.59,[]
명성산,강원 철원군 갈말읍 명성산,38.1069751,127.3377243,4.23,"['조그마한', '깨끗한', '화려한', '편안한', '웅장한', '저수지', '계곡', '억새', '호수', '폭포', '단풍놀이', '산행', '가을여행', '등산', '휴식']"
덕항산,강원 삼척시 신기면 안의리,37.3369125,129.0712282,4.23,"['웅장한', '조그마한', '호젓한', '편안한', '몽환적인', '폭포', '전망대', '모노레일', '동굴', '계곡', '휴식', '경치', '산행', '등산', '유물']"
하이원리조트,강원 정선군 고한읍 하이원길 424,37.206648,128.838174,4.39,[]
광치자연휴양림,강원 양구군 남면 광치령로1794번길 265 펜션,38.1292297,128.0499746,4.21,"['전망대', '계곡', '캠핑', '휴양림', '폭포', '산행', '힐링', '경치']"
소나타 오브 라이트,강원 원주시 지정면 오크밸리1길 66,37.4350434,127.8180827,4.44,[]
벌집,강원 강릉시 경강로2069번길 15,37.7545049,128.892756,4.12,"['고즈넉한', '친절한', '편안한', '옛모습', '옛스러운분위기', '만두', '국수집', '비빔국수', '칼국수', '고추장', '힐링', '재방문', '토속음식', '자극적인', '나들이']"
허균.허난설헌기념관,강원 강릉시 초당동 477-8,37.7910146,128.9095207,4.23,"['편안한', '아담한', '고즈넉한', '소박한', '깨끗한', '박물관', '공원', '해변', '순두부', '전통차', '가족여행', '경치', '힐링', '체험관', '유물']"
한국자생식물원,강원 평창군 대관령면 병내리 403,37.7327942,128.6289217,4.39,"['재미있는', '계곡', '국립공원', '식물원', '목장', '촬영지']"
평창무이예술관,강원 평창군 봉평면 사리평길 233,37.6154717,128.348787,4.07,"['편안한', '아담한', '재미있는', '소박하고', '깨끗한', '미술관', '메밀꽃밭', '박물관', '목장', '찻집', '나들이', '경치', '힐링', '체험관', '숨은']"
소돌해변,강원 강릉시 주문진읍 주문리,37.8990315,128.8227808,4.23,"['재미있는', '느낌있는', '조그마한', '깨끗한', '작은규모', '스노클링', '공원', '해변', '캠핑', '산책', '갯벌체험', '힐링', '싱싱한', '드라이브', '가족여행']"
현대장칼국수,강원 강릉시 임영로182번길 7-1 할머니현대장칼국수,37.7574603,128.8926371,4.13,"['분위기짱', '조그마한', '고즈넉한', '소박한', '세련된', '짬뽕', '국수집', '해변', '칼국수', '고추장', '경치', '힐링', '비오는날', '자극적인', '재방문']"
대관령주주파크,강원 평창군 대관령면 꽃밭양지길 51-30,37.6780213,128.7076844,4.39,[]
청간해변,강원 고성군 토성면 청간리,38.2682047,128.5460466,3.6,"['조그마한', '깨끗한', '해변', '캠핑', '스킨스쿠버', '항구', '막국수', '드라이브', '경치', '힐링']"
장미공원,강원 원주시 단계동 854,37.3466171,127.9311771,4.38,"['조그마한', '재미있는', '아기자기', '공원', '술집', '공연', '산책', '대게', '나들이', '신선한', '데이트', '힐링', '휴식']"
용소계곡,강원 홍천군 내촌면,37.816252,128.0867236,4.23,"['깨끗한', '계곡', '캠핑', '트래킹', '다슬기', '폭포', '산행', '힐링', '경치', '레포츠']"
감자밭,강원 춘천시 신북읍 신샘밭로 674,37.9295747,127.784477,4.36,[]
강릉임해자연휴양림,강원 강릉시 강동면 율곡로 1715-85 임해자연휴양림,37.7184986,128.998519,4,"['조그마한', '재미있는', '깨끗한', '공원', '해변', '캠핑', '휴양림', '일출', '힐링', '경치', '나들이', '드라이브', '가족여행']"
반암해수욕장,강원 고성군 거진읍 반암리 반암해수욕장,38.4228187,128.4627712,4.23,"['깨끗한', '물회', '밤바다', '해변', '막국수', '횟집', '나들이', '신선한', '싱싱한', '휴식']"
응봉산,강원 삼척시 가곡면 풍곡리,37.0918635,129.1583381,4.23,"['느낌있는', '편안한', '웅장한', '계곡', '노천온천', '트래킹', '온천', '폭포', '웰빙', '경치', '산행', '등산', '휴식']"
오산리선사유적박물관,강원 양양군 손양면 학포길 33 오산리선사유적박물관,38.0859472,128.6604013,4.46,"['재미있는', '쾌적한', '해변', '갈대', '박물관', '호수', '선사유적지', '가족여행', '경치', '나들이', '유물', '체험관']"
소양강처녀동상,강원 춘천시 근화동,37.880565,127.7124994,4.23,"['재미있는', '깨끗한', '화려한', '운치있는', '닭갈비', '오리배', '라이딩', '모터보트', '야경', '힐링', '경치', '데이트', '드라이브', '기차여행']"
선암마을,강원 영월군 한반도면 선암길 66-9,37.2225376,128.3468535,4.33,"['전망대', '뗏목', '동굴', '힐링', '등산']"
송천떡마을,강원 양양군 서면 떡마을길 107,38.0515596,128.5544019,4.25,"['편안한', '깨끗한', '친절하고', '소박하고', '분주한', '인절미', '계곡', '떡집', '캠핑', '휴양림', '경치', '레포츠', '힐링', '체험관', '재방문']"
한섬해수욕장,강원 동해시 천곡동,37.5228305,129.1160694,4.67,"['소박한', '아담한', '깨끗한', '프라이빗', '쾌적한', '바다열차', '치킨', '해변', '일출', '동굴', '나들이', '경치', '드라이브', '휴식', '촬영지']"
단천식당,강원 속초시 아바이마을길 17,38.2026291,128.5936382,4.24,"['깨끗한', '화려한', '소박한', '쾌적한', '아기자기', '명태회냉면', '냉면', '아바이순대', '오징어순대', '순대국밥', '가족여행', '싱싱한', '등산', '나들이', '촬영지']"
이끼계곡,강원 영월군 상동읍 내덕리 산2-1,37.1130168,128.8495089,4.23,"['폭포', '일출', '계곡', '사진찍기']"
송지호관망타워,강원 고성군 죽왕면 동해대로 6021 송지호철새관망타워,38.3363026,128.5179351,3.91,"['깨끗한', '산책길', '둘레길', '전망대', '호수', '산책로', '경치', '힐링', '신선한', '휴식']"
소망의탑,강원 삼척시 교동,37.4479795,129.164595,4.23,[]
토이로봇관,강원 춘천시 서면 박사로 844 춘천애니메이션,37.8930556,127.6919444,4,"['재미있는', '화려한', '미로', '과학관', '박물관', '공연', '롤러코스터', '가족여행', '경치', '데이트', '체험관', '휴식']"
아라나비강릉점,강원 강릉시 공항길127번길 35-7,37.766828,128.9514897,4.19,"['커피거리', '해변', '산책', '짚라인', '아쿠아리움', '힐링']"
오대산먹거리마을,강원 평창군 진부면 오대산로 152,37.7287333,128.594197,4.36,[]
카페 툇마루,강원 강릉시 초당원길 74,37.7877828,128.9135796,4.3,"['카페', '인절미', '순두부', '복숭아', '케이크']"
태백석탄박물관,강원 태백시 천제단길 195,37.1174025,128.9504266,4.37,"['재미있는', '화려한', '동적인', '옛모습', '신비한', '눈꽃열차', '공원', '체험학습', '박물관', '눈썰매장', '체험관', '산행', '가족여행', '등산', '기차여행']"
허균.허난설헌기념공원,강원 강릉시 난설헌로193번길 1-29,37.7910146,128.9095207,4.23,[]
형제칼국수,강원 강릉시 교2동 162-94,37.7578489,128.8930696,4.35,"['아늑한', '빈티지한', '조그마한', '친절한', '고급진', '짬뽕', 'tv방영', '해변', '칼국수', '고추장', '숨은맛집', '드라이브', '비오는날', '자극적인', '나들이']"
강원도탄광문화촌,강원 영월군 북면 밤재로 351,37.2633229,128.4672094,4,"['빈티지한', '아담한', '재미있는', '쾌적한', '옛모습', '영화관', '닭강정', '박물관', '동굴', '천문대', '가족여행', '촬영지', '가족나들이', '체험관', '유물']"
봉수대해수욕장,강원 고성군 죽왕면 오호리,38.3287686,128.523492,4.23,"['깨끗한', '파도타기', '해변', '캠핑', '래프팅', '카약', '레포츠', '싱싱한', '드라이브', '휴식']"
마차진해수욕장,강원 고성군 현내면 마차진리,38.5184505,128.4131141,4.23,"['깨끗한', '공원', '해변', '일출', '가족나들이']"
영진항,강원 강릉시 연곡면 영진리,37.8694633,128.8400733,4.23,"['아담한', '재미있는', '깨끗한', '해변', '도루묵', '보리밥', '항구', '전복', '가족여행', '힐링', '신선한', '드라이브', '촬영지']"
사천진항,강원 강릉시 사천면 사천진리,37.8435195,128.8684982,4.23,"['물회', '해변', '오징어물회', '횟집', '항구', '힐링', '경치', '싱싱한', '드라이브']"
속초항아리물회,강원 속초시 해오름로 137,38.1866398,128.6049167,4.23,"['친절한', '낭만적인', '깨끗한', '화려한', '오붓한', '물회집', '멍게비빔밥', '홍게라면', '오징어물회', '속초물회', '가족여행', '경치', '싱싱한', '힐링', '등산']"
피노키오나라,강원 삼척시 도계읍 강원남부로 893-46,37.1940621,129.0323556,4.83,[]
달래촌,강원 양양군 현남면 화상천로 634,37.9244348,128.7285102,4.38,"['조그마한', '깨끗한', '친절하고', 'tv방영', '청국장', '트래킹', '돌솥밥', '산나물', '자연식', '산행', '힐링', '신선한', '가족여행']"
장안횟집,강원 강릉시 사천면 진리항구길 51,37.8376125,128.8753303,4.2,"['친절한', '깨끗한', '화려한', '신비로운', '심플한', '물회', '회덮밥', '오징어물회', '오징어회', '횟집', '자극적인', '경치', '싱싱한', '드라이브', '촬영지']"
김우정초당짬뽕순두부,강원 강릉시 초당순두부길 114,37.792512,128.9172098,4.07,"['소박한', '깨끗한', '화려한', '편안한', '순두부짬뽕', '해변', '백반', '짬뽕순두부', '횟집', '힐링', '자극적인', '싱싱한', '드라이브', '경치']"
천불동계곡,강원 속초시 설악동,38.1681813,128.4769101,4.23,"['깨끗한', '화려한', '편안한', '웅장한', '폭포', '암벽', '트래킹', '국립공원', '계곡', '경치', '산행', '등산', '단풍구경', '휴식']"
매바위인공폭포,강원 인제군 북면 용대리,38.1889599,128.3620908,4.23,"['웅장한', '전망대', '폭포', '황태', '암벽', '계곡', '경치', '레포츠', '드라이브', '등산', '가족여행']"
실비생선구이,강원 강릉시 주문진읍 해안로 1723,37.8888461,128.8281374,4.53,"['인심좋은', '평온한', '친절한', '조그마한', '친절해서', '젓갈', '시장', '도루묵', '생선구이', '대게', '가족여행', '싱싱한', '힐링', '드라이브', '촬영지']"
대진항,강원 고성군 현내면,38.4944203,128.4276911,4.5,"['재미있는', '조그마한', '깨끗한', '친절한', '도치알탕', '곰치국', '수산시장', '항구', '횟집', '드라이브', '경치', '싱싱한', '힐링', '촬영지']"
춘천막국수체험박물관,강원 춘천시 신북읍 신북로 264,37.9487003,127.7497605,4.36,"['친절한', '재미있는', '친절하고', '신비한', '깨끗한', '닭갈비', '박물관', '스쿠터', '막국수', '메밀국수', '향토음식', '나들이', '체험관', '전통적인', '유물']"
그린횟집,강원 강릉시 사천면 진리해변길 123,37.8419034,128.8744301,4.01,"['친절한', '고급스런', '깨끗한', '화려한', '청량한', '물회', '홍게', '매운탕', '횟집', '대게', '드라이브', '경치', '싱싱한', '힐링', '현지인추천']"
속초등대전망대,강원 속초시 영랑동,38.2239007,128.5879596,4.23,[]
용화산,강원 화천군 하남면 용암리 용화산,38.0708242,127.7165811,3.8,"['재미있는', '화려한', '계곡', '암벽', '휴양림', '호수', '폭포', '경치', '산행', '힐링', '등산', '휴식']"
백담계곡,강원 인제군 북면 용대리,38.1889599,128.3620908,4.88,"['깨끗한', '캠핑', '계곡', '스노클링', '돌탑', '국립공원', '산행', '휴식']"
내평계곡,강원 삼척시 근덕면 동막리,37.3199489,129.2193943,4.23,"['스노클링', '계곡', '해변', '캠핑', '다슬기']"
효석문화마을,강원 평창군 봉평면 원길리 765-5,37.613076,128.3711557,4.38,"['낭만적인', '재미있는', '근사한', '동적인', '막걸리', '꽃구경', '메밀꽃밭', '목장', '막국수', '힐링', '가을여행', '토속음식', '가을축제', '가족여행']"
원조숯불닭불고기,강원 춘천시 낙원길 28-4,37.8787394,127.7252899,4.3,"['고풍스러운', '분위기좋은', '깨끗한', '친절한', '소박한', '닭갈비', '닭불고기', '고기집', '막국수', '숯불닭갈비', '나들이', '신선한', '드라이브', '재방문', '기차여행']"
카페폴앤메리,강원 강릉시 창해로350번길 33,37.7967264,128.9168123,4.25,"['빈티지한', '아담한', '이국적', '모던한', '느낌있는', '햄버거', '커피거리', '수제버거', '해변', '브런치', '힐링', '경치', '싱싱한', '드라이브', '촬영지']"
옥계해변,강원 강릉시 옥계면 금진리,37.6432124,129.0367071,4.23,"['재미있는', '깨끗한', '화려한', '편안한', '햇살좋은', '커피거리', '복어', '해변', '캠핑', '공원', '갯벌체험', '힐링', '경치', '드라이브', '나들이']"
파머스키친,강원 양양군 현남면 동산큰길 44-39 파머스키친,37.9802705,128.7616365,4.26,[]
청대산,강원 속초시 조양동 청대산,38.1778786,128.5696017,4.23,"['재미있는', '고즈넉한', '전망대', '돌탑', '등반코스', '산책', '산림욕장', '나들이', '산행', '드라이브', '등산', '휴식']"
수로부인 헌화공원,강원 삼척시 원덕읍 임원항구로 33-17,37.2303884,129.346938,4.79,"['평온한', '재미있는', '우아한', '웅장한', '깨끗한', '공원', '전망대', '레일바이크', '횟집', '항구', '가족여행', '경치', '싱싱한', '등산', '휴식']"
영광정 메밀국수,강원 양양군 강현면 진미로 446,38.1224283,128.5760984,4.3,"['친절함', '아담한', '소박한', '이국적', '깨끗한', '메밀전병', '감자전', '국수집', '막국수', '메밀국수', '가족여행', '경치', '자극적인', '사진찍기', '나들이']"
경포가시연습지,강원 강릉시 운정동 670,37.7889672,128.8971021,4.23,"['고풍스러운', '화려한', '신비한', '화사한', '산책로', '공원', '순두부', '호수', '연꽃', '나들이', '경치', '힐링', '드라이브', '휴식']"
횡성자연휴양림,강원 횡성군 갑천면 정포로430번길 113,37.5388008,128.1126125,4.19,"['이색적인분위기', '분위기있는', '분위기좋은', '편안한', '깨끗한', '계곡', '캠핑', '휴양림', '수영장', '글램핑', '가족여행', '데이트', '주말여행', '드라이브', '힐링']"
덕산해수욕장,강원 삼척시 근덕면,37.3792207,129.2258038,4.23,"['깨끗한', '물회', '해변', '요트', '항구', '횟집', '힐링', '경치', '싱싱한', '드라이브', '촬영지']"
차현희순두부청국장,강원 강릉시 초당동 6-7,37.7914446,128.9162349,4.19,"['친절함', '활기찬', '깨끗한', '친절한', '편안한', '커피거리', '청국장', '백반', '순두부', '두부전골', '가족여행', '자극적인', '싱싱한', '힐링', '촬영지']"
강촌 출렁다리공원,강원 춘천시 남산면 강촌리 671-5,37.8014567,127.6154176,4.23,[]
보헤미안박이추커피,강원 강릉시 사천면 해안로 1107,37.846881,128.8668204,4.24,"['아늑한', '화려한', '모던한', '분위기좋은', '세련된', '카페', '커피거리', '커피공장', '로스팅', '브런치', '힐링', '경치', '드라이브', '신선한', '촬영지']"
에디슨과학박물관,강원 강릉시 경포로 393,37.7977886,128.8973893,4.47,"['재미있는', '화려한', '웅장한', '신비한', '깨끗한', '골동품', '해변', '박물관', '와플', '공원', '가족여행', '경치', '드라이브', '유물', '나들이']"
딴산유원지,강원 화천군 간동면 구만리 1313-3,38.1243697,127.7622377,3.5,[]
거진해수욕장,강원 고성군 거진읍 거진리,38.4467984,128.453987,5,"['깨끗한', '해변', '캠핑', '파도타기', '일출', '항구', '힐링', '휴식']"
김영애할머니순두부 본점,강원 속초시 원암학사평길 183,38.2060975,128.52786,4.37,"['친절하고', '소박한', '화려한', '편안한', '깨끗한', '물회', '순두부', '두부전골', '손두부', '황태', '가족여행', '경치', '자극적인', '등산', '신선한']"
묵호항수변공원,강원 동해시 묵호진동 13-64,37.5508607,129.1177747,4.23,[]
초당할머니순두부,강원 강릉시 초당순두부길 77,37.7909005,128.9149108,3.98,"['편안한', 'tv방영', '동동주', '순두부찌개', '해변', '두부요리', '경치', '자극적인']"
속초카페거리,강원 고성군 토성면 용촌리,38.2302363,128.5721992,4.23,[]
마곡유원지,강원 홍천군 서면 마곡길 113-33,37.7218906,127.5863039,4.23,"['편안한', '카누', '수상레저', '캠핑', '유원지', '카약', '나들이', '경치', '휴식', '피크닉']"
돌체테리아,강원 강릉시 하슬라로206번길 4-3 1층 돌체테리아,37.7676881,128.8761274,3.76,"['깨끗한', '고급스러운', '에그타르트', '카페', '스콘', '치즈빵', '빵집', '핫플레이스', '사진찍기']"
백석폭포,강원 정선군 북평면 오대천로 406,37.4645443,128.6286416,4.23,"['깨끗한', '청량한', '웅장한', '편안한', '폭포', '뗏목', '래프팅', '레일바이크', '계곡', '가족여행', '경치', '드라이브', '휴식', '촬영지']"
숲속에동물농장,강원 평창군 대관령면 청골길 12,37.6847359,128.7275234,4.57,"['재미있는', '깨끗한', '친절한', '작은규모', '아기자기', '농장', '실내동물원', '피자', '동물농장', '목장', '나들이', '가족여행', '동물체험', '승마체험', '휴식']"
춘천수변공원,강원 춘천시 삼천동 200-9,37.8725276,127.7001132,4.23,"['화려한', '극장', '수변공원', '플리마켓', '공연', '프리마켓', '나들이', '힐링']"
국립춘천박물관,강원 춘천시 우석로 70 국립춘천박물관,37.8640283,127.7536794,4.56,"['웅장한', '우아한', '화려한', '신비한', '쾌적한', '레일바이크', '박물관', '공연', '키즈카페', '도서관', '나들이', '프로포즈', '힐링', '유물', '체험관']"
원조강릉교동반점 본점,강원 강릉시 강릉대로 205,37.758351,128.8930428,4.15,"['친절한', '깨끗한', '화려한', '심플한', '옛모습', '짬뽕', '군만두', '해변', '중국집', '짜장면', '나들이', '신선한', '자극적인', '재방문', '기차여행']"
K-water 소양강댐 물문화관,강원 춘천시 신북읍 신샘밭로 1128 소양강 물문화관,37.9488889,127.815,4.23,"['운치있는', '웅장한', '닭갈비', '유람선', '전망대', '박물관', '레일바이크', '주말나들이', '가족여행', '경치', '드라이브', '주말여행']"
부일막국수,강원 삼척시 새천년도로 596,37.446606,129.1827457,4.04,"['친절하고', '깨끗한', '친절한', '편안한', '보쌈', '해변', '냉면', '물닭갈비', '막국수', '힐링', '경치', '자극적인', '재방문', '가족여행']"
오대산,강원 홍천군 내면 오대산로 2,37.7027049,128.6021317,4.3,"['중후한', '깨끗한', '화려한', '편안한', '웅장한', '계곡', '전나무숲길', '찻집', '공원', '국립공원', '경치', '산행', '유적', '등산', '템플스테이']"
대청마루,강원 속초시 관광로 430,38.1981398,128.5366975,4.23,"['깔끔한인테리어', '퀄리티있는', '고즈넉한', '토속적인분위기', '깨끗한', '감자전', '순두부', '산채비빔밥', '두부요리', '황태', '경치', '가족여행', '재방문', '힐링', '등산']"
대원당,강원 춘천시 퇴계로 183 가가부동산,37.8577324,127.7393085,4.42,"['개성있는', '고급진', '깨끗한', '화려한', '친절한', '맘모스빵', '크림빵', '빵집', '케이크', '팥빵', '나들이', '신선한', '데이트', '경치', '특별한날']"
내린천,강원 인제군 기린면 북리,37.9999633,128.3245016,4.29,"['꺽지', '계곡', '래프팅', '수상레포츠', '수상레저', '레포츠', '경치']"
메밀꽃필무렵,강원 평창군 봉평면 이효석길 33-11,37.6108911,128.3600481,4.64,"['옛모습', '고즈넉한', '토속적인분위기', '서정적인', '운치있는', '메밀전병', '비빔국수', '묵밥', '막국수', '메밀국수', '나들이', '경치', '토속음식', '힐링', '유기농']"
힐리언스 선마을,강원 홍천군 서면 종자산길 122,37.6517389,127.6294998,4.44,"['편안한', '공방', '트래킹', '동물농장', '산책', '느린우체통', '태교여행', '가족여행', '힐링', '등산', '저염식']"
비엔나인형박물관,강원 평창군 대관령면 솔봉로 296 비엔나인형박물관,37.6629427,128.6639952,4.44,[]
양양송이밸리자연휴양림,강원 양양군 손양면 상왕도리 산158-3,38.0526971,128.6220185,4.4,"['재미있는', '깨끗한', '편안한', '쾌적한', '수목원', '전망대', '휴양림', '짚라인', '모노레일', '경치', '가족여행', '레포츠', '힐링', '체험관']"
사니다카페,강원 원주시 호저면 칠봉로 109-128,37.4067889,127.9143647,4.14,[]
오봉산,강원 화천군 간동면 간척리 674-1,38.0181885,127.8190896,3.83,"['아담한', '재미있는', '편안한', '깨끗한', '고즈넉한', '닭갈비', '계곡', '유람선', '암벽', '폭포', '경치', '산행', '나들이', '등산', '휴식']"
이조면옥,강원 속초시 동해대로3930번길 4,38.185555,128.6015825,4.28,"['깨끗한', '심플한', '회냉면', '냉면', '갈비탕', '막국수', '황태', '힐링', '재방문', '드라이브', '자극적인', '나들이']"
강릉통일공원,강원 강릉시 강동면 율곡로 1715-38 통일안보전시관,37.7201651,128.9984356,4.33,"['작은공간', '조그마한', '친절한', '낭만적인', '바다열차', '잠수함', '패러글라이딩', '사격장', '공원', '가족여행', '경치', '드라이브', '등산', '숨어있는']"
최대게,강원 강릉시 주문진읍 해안로 1727-2,37.889342,128.8280861,4.32,"['재미있는', '깨끗한', '화려한', '편안한', '소박한', '물회', '시장', '홍게', '킹크랩', '대게', '힐링', '착한가격', '싱싱한', '드라이브', '촬영지']"
평창보타닉가든,강원 평창군 방림면 고원로 63,37.4563292,128.3104578,4.5,"['엔틱한', '수목원', '전망대', '식물원', '산책', '공연', '힐링']"
비치대게,강원 속초시 중앙로 260,38.2127033,128.5965531,4.16,"['재미있는', '근사한', '깨끗한', '화려한', '오붓한', '물회', '홍게', '킹크랩', '횟집', '대게', '나들이', '착한가격', '싱싱한', '힐링', '보양식']"
해미가,강원 강릉시 솔올로 103,37.7710365,128.87889,4.41,"['친절해서', '물회', '보쌈', '어죽', '횟집', '광어회', '숨은맛집', '코스요리', '싱싱한', '자극적인', '가족여행']"
주문진등대,강원 강릉시 주문진읍 옛등대길 24-7 주문진등대,37.8976537,128.8338283,4.23,"['아담한', '깨끗한', '공원', '해변', '전망대', '일출', '항구', '드라마촬영지', '가족여행', '경치', '힐링', '촬영지']"
어름치마을,강원 평창군 미탄면 마하길 42-5 주민활력센터,37.2925072,128.5416306,4.23,"['재미있는', '깨끗한', '웅장한', '신비한', '편안한', '캠핑', '래프팅', '카라반', '동굴', '짚라인', '경치', '힐링', '체험관', '등산', '레포츠']"
축협대관령한우타운,강원 평창군 대관령면 올림픽로 38,37.6753605,128.6998371,4.24,"['깨끗한', '친절한', '정육식당', '한우', '냉면', '육회', '목장', '경치', '나들이', '신선한', '착한가격', '가족여행']"
우성닭갈비 본점,강원 춘천시 동면 만천양지길 87 우성닭갈비 본점,37.8873084,127.7632619,4.34,"['친절하고', '깨끗한', '친절한', '친절해서', '전망대', 'tv방영', '닭갈비집', '막국수', '닭갈비', '자극적인', '경치', '데이트', '드라이브', '나들이']"
영월5일장,강원 영월군 영월읍 덕포리 486-28,37.18234,128.4774702,4.23,"['재미있는', '화려한', '치킨', '계곡', '시장', '다슬기', '통닭', '봄꽃', '경치', '싱싱한', '등산', '촬영지']"
신다신,강원 속초시 아바이마을길 22 신다신,38.2027778,128.5938889,4.28,"['서비스좋은', '근사한', '깨끗한', '쾌적해서', '친절해서', '물회', '냉면', '국밥', '아바이순대', '오징어순대', '경치', '데이트', '힐링', '재방문', '촬영지']"
동해막국수,강원 강릉시 정원로 74-15,37.7639813,128.8738342,4.33,"['만두', '메밀전병', '해변', '냉면', '막국수', '향토음식', '데이트', '자극적인', '사진찍기']"
양지말 화로구이,강원 홍천군 홍천읍 양지말길 17-4,37.6595147,127.8312424,4.31,"['아기자기', '분위기좋은', '세련된', '쾌적한', '고급스러운', '숯불구이', '고추장삼겹살', '고기집', '더덕구이', '막국수', '가족여행', '데이트', '드라이브', '단풍구경', '나들이']"
강릉커피박물관,강원 강릉시 왕산면 왕산로 2171-19,37.6522522,128.7849634,4.01,"['재미있는', '아기자기', '화려한', '편안한', '운치있는', '커피거리', '다방', '로스팅', '박물관', '농장', '힐링', '경치', '드라이브', '유물', '체험관']"
샘밭막국수,강원 춘천시 신북읍 천전리 118-23,37.9295615,127.7812078,4.42,"['친절하고', '수수한', '고즈넉한', '고급스러운', '세련된', '닭갈비', '감자전', '녹두전', '막국수', '보쌈', '나들이', '경치', '데이트', '자극적인', '드라이브']"
초도해수욕장,강원 고성군 현내면 초도리,38.483272,128.4252017,4.23,[]
발왕산 기 스카이워크,강원 평창군 대관령면 올림픽로 715,37.6450087,128.6829718,4.52,[]
봉평차이나,강원 평창군 봉평면 기풍로 136,37.6146792,128.3784663,4.27,"['짬뽕', '쟁반짜장', '중국집', '짜장면', '탕수육', '향토음식', '나들이', '신선한', '자극적인', '가족여행']"
매월대폭포,강원 철원군 근남면 잠곡리,38.1631969,127.4735976,4.23,"['우아한', '웅장한', '세트장', '폭포', '암벽', '돌탑', '계곡', '휴식', '경치', '산행', '등산', '촬영지']"
삼일계곡,강원 화천군 사내면 용담리,38.0630063,127.5527465,4.23,[]
스퀘어루트,강원 고성군 죽왕면 가향길 2-7,38.3752085,128.5056852,4.2,[]
경포생태저류지,강원 강릉시 죽헌동 745,37.7811105,128.8851781,4.22,[]
순두부젤라또 1호점,강원 강릉시 초당순두부길 95-5,37.7917113,128.9154298,4.27,"['인절미', '젤라또', '짬뽕순두부', '디저트', '케이크']"
점봉산,강원 인제군 기린면 진동리,37.9902067,128.4521075,4.67,"['계곡', '산나물', '오름', '폭포', '국립공원', '산행', '휴식']"
춘천 물레길,강원 춘천시 스포츠타운길 113-1,37.8552965,127.6859849,4.57,"['재미있는', '친절하고', '오붓한', '신비한', '아기자기', '카누', '모터보트', '카트', '카약', '호수', '가족여행', '경치', '커플여행', '카트체험', '드라이브']"
능파대,강원 고성군 죽왕면 괘진길 65,38.2963624,128.5499009,4.23,[]
원주한지테마파크,강원 원주시 한지공원길 151,37.334432,127.9353773,4.63,"['공원', '프리마켓', '박물관', '공연', '테마파크', '나들이', '유물']"
감나무집감자옹심이,강원 속초시 중앙시장로 110-8,38.2043026,128.590698,4.33,"['조그마한', '재미있는', '청량한', '물회', '수제비', '시장', '아바이순대', '칼국수', '나들이', '재방문', '토속음식', '자극적인', '현지인추천']"
추억의박물관,강원 정선군 신동읍 함백로 565,37.215001,128.6943004,4.23,"['아담한', '휴양림', '철길', '놀이동산', '박물관', '공연', '경치', '영화촬영지']"
대영유통,강원 강릉시 주문진읍 해안로 1767,37.8928415,128.8287234,4.55,"['친절한', '고급진', '인심좋은', '편안한', '화려한', '시장', '홍게', '킹크랩', '게찜', '대게', '나들이', '착한가격', '싱싱한', '가족여행', '촬영지']"
발왕산,강원 평창군 대관령면 용산리 산142,37.643055,128.680043,4.23,"['호젓한', '화려한', '캠핑', '일출', '케이블카', '스키장', '목장', '경치', '촬영지', '산행', '등산', '휴식']"
하조대전망대,강원 양양군 현북면 하륜길 56,38.0220065,128.7285834,4.23,[]
어스17,강원 춘천시 신북읍 신샘밭로 766,37.9326475,127.7937235,4.33,"['푹신한쇼파', '분위기깡패', '분위기있는', '분위기좋은', '편안한', '카페', '닭갈비', '마카롱', '디저트', '막국수', '핫플레이스', '경치', '데이트', '드라이브', '힐링']"
연꽃단지,강원 화천군 하남면 건넌들길 97,38.0425938,127.6537075,4.23,"['깨끗한', '화려한', '운치있는', '연꽃단지', '빙어', '유원지', '빙어낚시', '연꽃', '나들이', '레포츠', '비오는날', '체험관', '촬영지']"
버드나무브루어리,강원 강릉시 경강로 1961,37.7482296,128.8843596,4.48,"['빈티지한', '분위기있는', '분위기좋은', '이국적', '분위기깡패', '치킨', '술집', '피자', '수제맥주', '맥주집', '핫플레이스', '신선한', '데이트', '힐링', '전통적인']"
금학칼국수,강원 강릉시 대학길 12-6,37.7544197,128.8962638,4.18,"['조그마한', '소박한', '옛모습', '깨끗한', '커피거리', '시장', '극장', '칼국수', '고추장', '향토음식', '숨은맛집', '데이트', '현지인추천', '촬영지']"
보사노바 커피로스터스,강원 강릉시 창해로14번길 28,37.7721697,128.9477409,4.41,"['분위기깡패', '모던한', '분위기좋은', '편안한', '빈티지한', '카페', '커피거리', '해변', '바다전망', '케이크', '핫플레이스', '경치', '데이트', '힐링', '드라이브']"
용평리조트 워터파크,강원 평창군 대관령면 올림픽로 715,37.6450087,128.6829718,4.11,"['유럽풍', '재미있는', '조그마한', '유수풀', '워터파크', '온천', '파도풀', '수영장', '승마체험', '가족여행', '휴식', '단풍구경', '나들이']"
설악산자생식물원,강원 속초시 바람꽃마을길 164,38.1990688,128.5267459,4.23,"['재미있는', '화려한', '쾌적한', '깨끗한', '산책', '미로', '식물원', '족욕공원', '산책로', '나들이', '데이트', '힐링', '휴식', '봄꽃']"
필례 게르마늄 온천,강원 인제군 인제읍 필례약수길 72,38.076449,128.3696589,4.78,[]
정동진시간박물관,강원 강릉시 강동면 헌화로 990-1,37.6873853,129.0377099,4.15,"['친절한', '재미있는', '화려한', '친절하신', '바다열차', '공원', '전망대', '박물관', '레일바이크', '나들이', '경치', '힐링', '유물', '기차여행']"
월화거리,강원 강릉시 경강로 2111,37.7562073,128.8969844,4.83,[]
속초등대,강원 속초시 영금정로5길 8-28,38.2136895,128.5999722,4.23,"['조그마한', '옛모습', '신비한', '화사한', '유람선', '해변', '전망대', '일출', '횟집', '가족여행', '경치', '나들이', '드라이브', '촬영지']"
오색탄산온천,강원 양양군 서면 대청봉길 34,38.0810224,128.4477418,4.55,[]
대포대게회직판장,강원 속초시 대포항희망길 51 1층,38.1730621,128.6059123,4.5,"['재미있는', '서비스좋은', '고급진', '깨끗한', '분위기좋은', '물회', '킹크랩', '게찜', '횟집', '대게', '나들이', '착한가격', '싱싱한', '부담없는가격', '경치']"
엑스포유람선,강원 속초시 엑스포로 12-26,38.1921184,128.5913234,4.23,[]
수상한 마법학교,강원 강릉시 사천면 미노길 103 모래내행복센터 2층,37.8264546,128.8485884,4.88,"['재미있는', '목장', '놀이동산', '공연', '극장', '트릭아트', '결혼기념일', '사진찍기']"
범바우막국수,강원 양양군 강현면 동해대로 3277-22 범바우막국수,38.1331628,128.6189317,3.93,"['편안한', '해변', '생태찌개', '냉면', '갈비탕', '막국수', '경치', '싱싱한', '신선한']"
제4땅굴,강원 양구군 해안면 이현리,38.317709,128.1120428,4.23,"['공원', '전망대', '박물관', '시래기', '가족여행']"
검봉산자연휴양림,강원 삼척시 원덕읍 임원안길 525-145,37.2381464,129.3006813,4.41,"['친절함', '아늑한', '조그마한', '깨끗한', '스노클링', '계곡', '해변', '캠핑', '휴양림', '가족여행', '경치', '힐링', '등산', '산행']"
화진포해양박물관,강원 고성군 현내면 화진포길 412 화진포해양박물관,38.4811999,128.436772,4.12,"['재미있는', '신비로운', '작은규모', '고래', '해변', '박물관', '해저터널', '아쿠아리움', '가족여행', '경치', '나들이', '유물', '촬영지']"
중화짬뽕빵,강원 강릉시 금성로13번길 17,37.7532442,128.9001204,4.31,[]
순두부젤라또 2호점,강원 강릉시 경강로 2642 1~4층,37.7712827,128.9471337,4.23,[]
구문소,강원 태백시 동점동 498-123,37.1003035,129.0530842,4.23,"['신비로운', '계곡', '암벽', '박물관', '협곡열차', '동굴', '나들이', '경치', '등산', '사진찍기', '촬영지']"
황태회관,강원 평창군 대관령면 눈마을길 19,37.6698745,128.7098617,4.17,"['친절한', '조그마한', '화려한', '포근한', '친절하신', '한우', '오삼불고기', '스키장', '황태구이', '목장', '가족여행', '경치', '싱싱한', '힐링', '나들이']"
대진해수욕장,강원 동해시 대진동 204-7,37.5753658,129.1106635,4.23,[]
플리즈웨잇,강원 양양군 현남면 인구길 28-23,37.9683535,128.7618594,4.62,[]
강릉 빵다방,강원 강릉시 남강초교1길 24,37.7689888,128.9180848,4.41,"['따뜻한느낌', '아늑한', '소박한', '카페', '크림빵', '한우', '타르트', '빵집', '피크닉', '재방문', '데이트']"
식객,강원 홍천군 서면 한치골길 262,37.6466335,127.6813286,4.33,"['친절하고', '돼지갈비', '한우', '냉면', '고기집', '야외바베큐', '피크닉', '나들이', '가족여행']"
춘천호,강원 춘천시 사북면,38.0298441,127.6407483,4.23,['드라이브']
엄지네포장마차 속초점,강원 속초시 청초호반로 323-2,38.2031269,128.5915688,4.42,[]
펀치볼,강원 양구군 해안면,38.2851823,128.1372421,4.23,"['재미있는', '편안한', '저수지', '둘레길', '전망대', '시래기', '농장', '산행', '힐링', '유기농']"
뇌운계곡,강원 평창군 평창읍 하일리,37.3913019,128.3434279,4.23,"['깨끗한', '수상레저', '계곡', '래프팅', '농장', '캠핑', '숨은', '경치', '힐링']"
한성칼국수,강원 속초시 밤골5길 19,38.2016742,128.5677436,4.26,"['대게', '감자전', '시장', '해물칼국수', '고추장', '나들이', '비오는날', '자극적인', '경치', '착한가격']"
요선암돌개구멍,강원 영월군 무릉도원면 무릉리,37.3010339,128.2792576,4.23,[]
피노키오자연휴양림,강원 원주시 신림면 소야1길 72,37.2599457,128.1638014,4.14,"['계곡', '오토캠핑', '캠핑', '휴양림', '수영장']"
바람꽃해녀마을,강원 속초시 미시령로 3269,38.2045801,128.56489,4.38,"['고급진', '깨끗한', '화려한', '웅장한', '옛모습', '물회', '젓갈', '섭국', '오징어순대', '성게알', '가족여행', '재방문', '싱싱한', '드라이브', '보양식']"
보스대게,강원 삼척시 테마타운길 39 2층 보스대게,37.4670082,129.169677,4.62,"['오징어순대', '킹크랩', '홍게라면', '대게집', '젓갈', '신선한']"
한탄리버스호텔온천,강원 철원군 동송읍 태봉로 1799-22,38.1861658,127.2898454,4.15,[]
농촌순두부,강원 강릉시 초당순두부길 108,37.7920108,128.9168914,4.18,"['친절한', '소박한', '친절하고', '편안한', '깨끗한', '청국장', '해변', '순두부', '손두부', '두부전골', '드라이브', '경치', '싱싱한', '자극적인', '재방문']"
이모네식당,강원 속초시 영랑해안6길 16,38.215129,128.5961287,4.2,"['친절함', '소박한', '화려한', '심플한', '갈치', '도루묵', '생선구이', '가오리찜', '해물찜', '나들이', '재방문', '자극적인', '등산', '휴식']"
함흥냉면옥,강원 속초시 청초호반로 299,38.2019519,128.5898204,4.31,"['아담한', '친절한', '편안한', '만두', '명태회냉면', '회냉면', '갈비탕', 'tv방영', '향토음식', '자극적인', '재방문', '드라이브', '경치']"
한반도섬,강원 양구군 양구읍 고대리 647-1,38.1308438,127.9832267,4.63,[]
동명항생선숯불구이,강원 속초시 번영로129번길 21,38.210876,128.5862075,4.38,"['분위기좋은', '인심좋은', '숯불구이', '숯불생선구이', '생선구이', '돌솥밥', '홍게', '가족여행', '경치', '싱싱한', '힐링', '제철음식']"
동강,강원 영월군 영월읍,37.1874475,128.4660958,3.79,"['재미있는', '패러글라이딩', '래프팅', '눈썰매장', '뗏목', '캠핑', '경치', '힐링', '레포츠']"
곳,강원 강릉시 사천면 진리해변길 143,37.8395263,128.8740177,4.36,[]
본가동해막국수,강원 강릉시 연곡면 성안길 47-3,37.8592565,128.8314326,4.25,"['만두', 'tv방영', '냉면', '막국수', '메밀국수', '나들이', '자극적인', '촬영지']"
성원닭갈비,강원 삼척시 정상안1길 14-32,37.444643,129.177949,4.32,"['친절한', '재미있는', '화려한', '심플한', '물갈비', '닭볶음탕', '물닭갈비', '레일바이크', '공원', '경치', '가족여행', '신선한', '자극적인', '재방문']"
강원랜드,강원 정선군 사북읍 하이원길 265,37.2121937,128.8207554,4.28,[]
낙산도립공원,강원 양양군 강현면 일출로 42 양양군낙산도립공원관리사무소,38.1160818,128.6313754,4.23,[]
지경리해수욕장,강원 양양군 현남면 지경리,37.917455,128.8006068,4.23,"['깨끗한', '스노클링', '계곡', '해변', '캠핑', '카라반', '가족여행', '힐링']"
평창 바위공원,강원 평창군 평창읍 중리 14-4,37.3759627,128.4105998,4.23,"['평온한', '재미있는', '편안한', '웅장한', '깨끗한', '공원', '패러글라이딩', '캠핑', '행글라이더', '활공장', '경치', '산행', '휴식', '등산', '레포츠']"
청옥산,강원 평창군 미탄면,37.3419757,128.4957496,4.23,['산행']
동산해수욕장,강원 양양군 현남면 동산리,37.9796783,128.7569959,4.23,"['깨끗한', '물회', '해변', '캠핑', '카약', '수영장', '경치']"
국립대관령치유의숲,강원 강릉시 성산면 대관령옛길 127-42,37.7107795,128.7968291,4.23,[]
난고 김삿갓문학관,강원 영월군 김삿갓면 김삿갓로 216-22 난고김삿삿문학원,37.0794852,128.6018265,4.23,"['재미있는', '소박한', '공원', '유적지', '박물관', '동굴', '계곡', '슬로시티', '산행', '드라이브', '유물', '등산']"
건도리횟집,강원 강릉시 창해로 427,37.799471,128.9136565,4.16,"['깔끔한인테리어', '모던한', '분위기있는', '분위기좋은', '화려한', '초밥', '모듬회', '매운탕', '횟집', '이자카야', '코스요리', '경치', '싱싱한', '힐링', '재방문']"
국립산악박물관,강원 속초시 미시령로 3054,38.202852,128.5404074,4.23,"['재미있는', '클라이밍', '암벽', '박물관', '카라반', '캠핑', '레포츠', '기념일', '산행', '등산', '유물']"
만동제과,강원 강릉시 금성로 6 1층 만동제과,37.7551005,128.8994863,4.47,[]
단경골계곡,강원 강릉시 강동면 언별리,37.6645164,128.9241222,4.23,"['계곡', '캠핑', '다슬기', '삼겹살', '닭볶음탕', '경치', '휴식']"
큰집한우,강원 춘천시 서부대성로 135,37.8778712,127.7348998,4.58,"['깔끔한분위기', '품격있는', '세련된', '친절하고', '고급스러운', '명이나물', '한우', '냉면', '고기집', '육회', '나들이', '특별한날', '싱싱한', '데이트', '점심특선']"
봉의산,강원 춘천시 소양로1가 봉의산,37.8886481,127.7335531,4.23,"['조그마한', '철쭉', '전망대', '돌탑', '산책', '산책로', '경치', '산행', '유적', '등산', '휴식']"
강원종합박물관,강원 삼척시 신기면 강원남부로 3016,37.351229,129.0864018,4.25,"['재미있는', '웅장한', '공룡알', '해변', '박물관', '모노레일', '동굴', '가족여행', '경치', '힐링', '유물', '등산']"
은파횟집,강원 강릉시 창해로350번길 31,37.7965341,128.9168553,4.28,"['친절한', '친절해서', '물회', '해변', '매운탕', '회덮밥', '횟집', '나들이', '경치', '싱싱한', '신선한', '촬영지']"
홍천공작산생태숲,강원 홍천군 동면 수타사로 409,37.6964601,127.9546616,4.23,"['화려한', '청량한', '옛모습', '화사한', '트래킹', '계곡', '연꽃', '휴양림', '출렁다리', '나들이', '힐링', '등산', '단풍구경', '휴식']"
정든식당,강원 속초시 번영로105번길 39,38.2117956,128.5878832,4.33,"['친절한', '소박하지만', '신비한', '옛모습', '심플한', '수제비', '시장', '떡볶이', '칼국수', '고추장', '숨은맛집', '경치', '비오는날', '힐링', '등산']"
바로방,강원 강릉시 경강로 2092,37.7543398,128.8958736,4.26,"['화려한', '조그마한', '소박한', '친절한', '도넛', '단팥빵', '칼국수', '빵집', '야채빵', '옛날맛', '재방문', '오픈키친', '힐링', '촬영지']"
유포리막국수,강원 춘천시 신북읍 맥국2길 123,37.9461346,127.7782413,4.37,"['친절함', '개성있는', '분위기좋은', '소박한', '화려한', '메밀전병', '감자전', '만두', '막국수', '닭갈비', '나들이', '경치', '드라이브', '자극적인', '힐링']"
도사곡휴양림,강원 정선군 사북읍 지장천로 436-27,37.2256778,128.7966009,4.5,"['계곡', '캠핑', '휴양림', '카지노', '철쭉', '경치', '가족여행', '산행', '힐링', '등산']"
글라스하우스,강원 고성군 토성면 천진해변길 43,38.2605571,128.559916,4.36,"['모던한', '의자가편한', '분위기좋은', '심플한', '이국적', '카페', '바다전망', '해변', '물회', '일출', '핫플레이스', '경치', '데이트', '힐링', '드라이브']"
동해무릉건강숲,강원 동해시 삼화동,37.4908884,129.068103,4.64,"['동굴', '힐링', '체험관']"
횡성한우피아,강원 횡성군 둔내면 고원로 141,37.5112667,128.2219262,4.38,"['친절하고', '고급진', '친절한', '쾌적한', '고급스러운', '정육식당', '한우', '꽃등심', '냉면', '육회', '연말모임', '가족여행', '신선한', '드라이브', '나들이']"
중광정해수욕장,강원 양양군 현북면 중광정리,38.0266357,128.7065277,4.23,[]
감나무식당,강원 양양군 양양읍 안산1길 73-6,38.0706004,128.6279758,4.21,"['생태탕', '생태찌개', '해물탕', '국밥', '황태', '숨은맛집', '휴식']"
이모네생선찜,강원 강릉시 가작로 8,37.7691663,128.8764264,4.26,"['아귀찜', '갈치', '해변', '도루묵', '가오리찜', '싱싱한']"
금강굴,강원 속초시 설악동,38.1681813,128.4769101,4.23,"['계곡', '암벽', '케이블카', '동굴', '폭포', '경치', '산행', '등산']"
이승복기념관,강원 평창군 용평면 노동리 322,37.6997822,128.4688147,4.23,"['아늑한', '아담한', '옛모습', '평화로운', '계곡', '캠핑', '박물관', '목장', '송어회', '가족여행', '산행', '나들이', '유물', '체험관']"
회동집,강원 정선군 정선읍 5일장길 37-10,37.380958,128.6646236,4.37,"['재미있는', '친절한', '고급지게', '친절해서', '메밀전병', '수수부꾸미', '시장', '곤드레밥', '녹두전', '향토음식', '핫플레이스', '착한가격', '토속음식', '봄여행']"
광덕식당 중앙시장점,강원 강릉시 중앙시장길 22-3 소머리국밥골목,37.7536591,128.8988953,4.29,"['분주한', '시장', '국밥', '한우', '닭곰탕', '순대국밥', '나들이']"
카쿠레가,강원 원주시 능라동길 48-1 104호 카쿠레가,37.3337532,127.9290742,4.4,[]
원평해수욕장,강원 삼척시 근덕면 매원리,37.2840921,129.2731304,4.23,"['깨끗한', '스노클링', '계곡', '해변', '캠핑', '레일바이크', '경치']"
왕박골식당,강원 속초시 중앙로 431-1,38.2257092,128.5864328,4.21,"['소박한', '만두', '물회', '만두국', '칼국수', '고추장', '숨은맛집', '숨은']"
두물머리,경기 양평군 양서면 양수리,37.57343,127.3446625,4.15,"['재미있는', '고즈넉한', '분위기좋은', '편안한', '운치있는', '자전거코스', '드라이브', '일몰', '산책', '연꽃', '주말나들이', '가족여행', '경치', '드라마촬영지', '영화촬영지']"
헤이리 예술마을,경기 파주시 탄현면 헤이리마을길 70-21 헤이리 갈대광장,37.7882764,126.6991763,4.16,"['분위기있는', '재미있는', '분위기좋은', '편안한', '아기자기', '아울렛', '못난이빵', '박물관', '마늘빵', '트릭아트', '나들이', '경치', '도자기체험', '드라이브', '데이트']"
포천아트밸리,경기 포천시 신북면 아트밸리로 234,37.9230477,127.2379702,4.21,"['재미있는', '이국적', '편안한', '웅장한', '깨끗한', '과학관', '공원', '천문대', '모노레일', '호수', '주말나들이', '가족여행', '경치', '가족나들이', '드라이브']"
에버랜드,경기 용인시 처인구 포곡읍 에버랜드로 199,37.2934755,127.1998066,4.58,"['재미있는', '화려한', '편안한', '이국적', '화사한', '사파리', '놀이동산', '호러클럽', '눈썰매', '썸머스플래쉬', '공포체험', '주말나들이', '사파리투어', '데이트', '가족나들이']"
남이섬,경기 가평군 가평읍 북한강변로 1024,37.8037573,127.5254247,4.48,"['낭만적인', '재미있는', '이국적', '운치있는', '깨끗한', '유람선', '메타세콰이어길', '번지점프', '짚와이어', '짚라인', '가족여행', '경치', '가을여행', '단풍여행', '기차여행']"
궁평항,경기 화성시 서신면 궁평항로 1049-24,37.1157218,126.6821115,4.22,"['재미있는', '조그마한', '깨끗한', '편안한', '평화로운', '꽃게', '수산물시장', '일몰', '수산시장', '항구', '갯벌체험', '주말나들이', '경치', '가족나들이', '드라이브']"
전곡항,경기 화성시 서신면 전곡리,37.1895032,126.6866822,4.38,"['재미있는', '이국적', '화려한', '편안한', '깨끗한', '꽃게찜', '요트', '항구', '수산시장', '바다낚시', '갯벌체험', '가족여행', '낚시체험', '드라이브', '나들이']"
수리산,경기 군포시 산본동,37.3594144,126.9207863,4.22,"['재미있는', '편안한', '화사한', '계곡', '둘레길', '유원지', '산림욕장', '공원', '경치', '봄꽃', '산행', '등산', '휴식']"
물의정원,경기 남양주시 조안면 북한강로 398,37.5753144,127.3234451,4.03,"['깨끗한', '화려한', '편안한', '운치있는', '평화로운', '공원', '라이딩', '자전거코스', '산책', '연꽃', '주말나들이', '슬로시티', '경치', '드라이브', '힐링']"
산정호수,경기 포천시 영북면 산정호수로411번길 89,38.0686138,127.3230194,4.45,"['조그마한', '재미있는', '편안한', '웅장한', '고즈넉한', '이동갈비', '오리배', '둘레길', '놀이동산', '억새', '주말나들이', '드라이브', '경치', '가을여행', '등산']"
광명동굴,경기 광명시 가학로85번길 142,37.4251755,126.8644482,4.55,"['재미있는', '깨끗한', '화려한', '웅장한', '신비한', '귀신의집', '와인동굴', '테마파크', '공연', '계곡', '공포체험', '주말나들이', '가족나들이', '등산', '데이트']"
갯골생태공원,경기 시흥시 동서로 287,37.3871749,126.8124991,4.27,"['평화로운', '재미있는', '편안한', '옛모습', '깨끗한', '저수지', '전망대', '생태공원', '수영장', '캠핑', '갯벌체험', '주말나들이', '가족나들이', '드라이브', '휴식']"
용인자연휴양림,경기 용인시 처인구 모현읍 초부로 220,37.3147157,127.2679653,4.35,"['아담한', '재미있는', '편안한', '쾌적한', '깨끗한', '계곡', '캠핑', '휴양림', '짚라인', '짚와이어', '경치', '가족나들이', '드라이브', '등산', '체험관']"
쁘띠프랑스,경기 가평군 청평면 호반로 1063,37.7148921,127.4903236,4.15,"['재미있는', '이국적', '화려한', '엔틱한', '아기자기', '수목원', '박물관', '테마파크', '동화마을', '공연', '드라이브', '가족여행', '데이트', '드라마촬영지', '나들이']"
탄도항,경기 안산시 단원구 선감동 717-5,37.1924384,126.6461002,4.25,"['아담한', '이국적', '분위기좋은', '편안한', '깨끗한', '풍력발전소', '전망대', '항구', '일몰', '테마파크', '갯벌체험', '가족여행', '주말나들이', '드라이브', '등산']"
한국민속촌,경기 용인시 기흥구 민속촌로 90 한국민속촌,37.2584488,127.1170034,4.53,"['재미있는', '화려한', '편안한', '옛모습', '고즈넉한', '귀신의집', '전통혼례', '놀이동산', '공연', '눈썰매장', '공포체험', '가족여행', '한복체험', '가족나들이', '데이트']"
남한산성,경기 광주시 남한산성면 산성리 산23,37.4788893,127.1794483,4.31,"['고즈넉한', '화려한', '편안한', '웅장한', '깨끗한', '둘레길', '성곽', '트래킹', '일몰', '야경', '경치', '산행', '가족나들이', '드라이브', '등산']"
연꽃테마파크,경기 시흥시 관곡지로 139,37.4006572,126.8082527,4.16,"['고혹적인', '우아한', '아담한', '화려한', '화사한', '저수지', '연꽃단지', '생태공원', '테마파크', '산책', '주말나들이', '힐링', '유적', '가족나들이', '드라이브']"
만석공원,경기 수원시 장안구 송죽동 248,37.3023837,127.0003716,4.12,"['화려한', '아담한', '분위기좋은', '편안한', '쾌적한', '공원', '연꽃', '호수', '산책', '분수', '피크닉', '경치', '데이트', '등산', '휴식']"
방아머리해수욕장,경기 안산시 단원구 대부북동,37.258289,126.5731267,4.2,[]
동탄호수공원,경기 화성시 동탄순환대로 67,37.199327,127.0970177,4.34,[]
오이도빨강등대,경기 시흥시 오이도로 175 오이해양파출소,37.3452397,126.6879337,4.15,"['조그마한', '재미있는', '화려한', '운치있는', '깨끗한', '해물칼국수', '전망대', '해물파전', '조개구이', '공원', '갯벌체험', '주말나들이', '경치', '데이트', '드라이브']"
비둘기낭폭포,경기 포천시 영북면 대회산리 415-2,38.08109,127.2175868,3.85,"['아늑한', '깨끗한', '이국적', '신비로운', '웅장한', '폭포', '둘레길', '캠핑', '동굴', '계곡', '드라이브', '경치', '드라마촬영지', '영화촬영지', '나들이']"
상동호수공원,경기 부천시 길주로 16,37.4890636,126.7628051,4.15,"['화사한', '깨끗한', '화려한', '편안한', '평화로운', '야경', '공원', '호수', '산책', '인라인', '주말나들이', '가을소풍', '경치', '가족나들이', '데이트']"
방화수류정,경기 수원시 팔달구 수원천로392번길 44-6 방화수류정,37.2875232,127.0181107,4.2,"['고즈넉한', '화려한', '웅장한', '옛모습', '고풍스런', '산책', '치킨', '성곽', '일몰', '야경', '나들이', '경치', '데이트', '휴식', '촬영지']"
제부도,경기 화성시 서신면 제부리,37.1710576,126.6224067,4.17,"['신비로운', '조그마한', '재미있는', '낭만적인', '편안한', '조개구이', '해안산책로', '횟집', '칼국수', '대하구이', '갯벌체험', '주말여행', '경치', '드라이브', '가족여행']"
서울대공원,경기 과천시 대공원광장로 102,37.4362233,127.0140581,4.48,"['우아한', '재미있는', '화려한', '편안한', '깨끗한', '미술관', '돌고래쇼', '코끼리열차', '동물원', '도시락', '나들이', '동물체험', '등산', '단풍구경', '가을소풍']"
다산생태공원,경기 남양주시 조안면 다산로 767,37.525792,127.293598,3.93,"['웅장한', '고즈넉한', '몽환적인', '운치있는', '편안한', '생태공원', '박물관', '산책', '유적지', '연꽃', '주말나들이', '힐링', '경치', '데이트', '드라이브']"
명지계곡,경기 가평군 북면 도대리,37.9467242,127.4879054,4.5,"['깨끗한', '계곡', '유원지', '백숙', '다슬기', '폭포', '주말나들이', '가족여행', '주말여행', '등산', '힐링']"
임진각관광지평화누리평화랜드,경기 파주시 문산읍 임진각로 148-33,37.890076,126.7420639,4.26,"['잔디밭', '공원', '놀이동산', '바람개비', '회전목마', '나들이', '가족나들이', '드라이브', '데이트']"
벽초지수목원,경기 파주시 광탄면 부흥로 242,37.801384,126.8740377,4.3,"['유럽풍', '재미있는', '화려한', '아담한', '운치있는', '수목원', '공원', '빙어', '식물원', '연꽃', '주말나들이', '드라이브', '가족나들이', '드라마촬영지', '도자기체험']"
소요산,경기 동두천시 평화로2910번길 406-33,37.9464858,127.0693176,4.3,"['재미있는', '아담한', '깨끗한', '화려한', '편안한', '폭포', '썰매', '온천', '산책', '계곡', '경치', '산행', '등산', '단풍구경', '나들이']"
중원계곡,경기 양평군 용문면 중원리,37.5572227,127.6140272,4.09,"['아담한', '깨끗한', '편안한', '쉴만한', '평화로운', '폭포', '캠핑', '수영장', '백숙', '계곡', '나들이', '산행', '드라이브', '등산', '휴식']"
호암미술관,경기 용인시 처인구 포곡읍 에버랜드로562번길 38,37.2937356,127.1918107,4.24,"['우아한', '호젓한', '고즈넉한', '화려한', '소박한', '미술관', '드라이브', '호수', '벚꽃길', '벚꽃명소', '나들이', '경치', '데이트', '단풍여행', '단풍구경']"
송추계곡,경기 양주시 장흥면 울대리 송추계곡,37.7120735,126.9849275,4.14,"['웅장한', '호젓한', '깨끗한', '편안한', '쾌적한', '계곡', '유원지', '수영장', '폭포', '국립공원', '주말나들이', '경치', '산행', '드라이브', '등산']"
더그림,경기 양평군 옥천면 사나사길 175,37.5290836,127.4970417,4.38,"['분위기있는', '유럽풍', '아기자기', '분위기좋은', '고급스러운', '옥천냉면', '계곡', '수목원', '식물원', '산책', '드라마촬영지', '경치', '나들이', '드라이브', '촬영지']"
구리한강시민공원,경기 구리시 토평동 829-2,37.575552,127.1367648,4.31,"['편안한', '재미있는', '화려한', '분주한', '화사한', '꽃구경', '시민공원', '코스모스밭', '유채꽃', '코스모스길', '나들이', '경치', '데이트', '가을축제', '힐링']"
백운호수,경기 의왕시 학의동,37.3757879,127.0129378,4.23,"['호젓한', '분위기좋은', '쾌적한', '운치있는', '고급스러운', '저수지', '모터보트', '드라이브', '산책', '라이브카페', '나들이', '경치', '데이트', '힐링', '보양식']"
북한산,경기 고양시 덕양구 대서문길 375,37.6451323,126.9747911,4.4,"['화려한', '깨끗한', '쾌적한', '편안한', '웅장한', '계곡', '둘레길', '암벽등반', '성곽', '국립공원', '휴식', '경치', '산행', '등산', '숨은']"
대명포구,경기 김포시 대곶면 대명리,37.6511311,126.5551527,4.09,"['활기찬', '꽃게', '생새우', '시장', '항구', '젓갈', '나들이', '싱싱한', '드라이브', '휴식', '데이트']"
설봉공원,경기 이천시 관고동 418-2,37.2753829,127.4274186,4.23,"['재미있는', '화려한', '편안한', '운치있는', '아기자기', '공원', '공방', '호수', '산책', '비엔날레', '드라이브', '도자기체험', '가을축제', '가족나들이', '등산']"
수원화성,경기 수원시 장안구 영화동 320-2,37.2871202,127.0119379,4.39,"['재미있는', '화려한', '옛모습', '웅장한', '고즈넉한', '공원', '둘레길', '성곽', '공방거리', '야경', '나들이', '경치', '데이트', '드라이브', '등산']"
불곡산,경기 양주시 유양동,37.7898865,127.0267981,4.15,"['깨끗한', '재미있는', '편안한', '웅장한', '아기자기', '저수지', '계곡', '둘레길', '막걸리', '야경', '경치', '산행', '유적', '등산', '휴식']"
아침고요수목원,경기 가평군 상면 수목원로 432,37.7439678,127.3524864,4.43,"['아담한', '깨끗한', '화려한', '편안한', '고즈넉한', '수목원', '닭갈비', '레일바이크', '계곡', '공원', '주말나들이', '가족여행', '가을여행', '단풍여행', '드라이브']"
제부도해수욕장,경기 화성시 서신면 제부리,37.1710576,126.6224067,4.28,"['재미있는', '느낌있는', '평온한', '깨끗한', '따뜻한느낌', '해변', '조개구이', '횟집', '일몰', '캠핑', '갯벌체험', '가족여행', '커플여행', '드라이브', '힐링']"
재인폭포,경기 연천군 연천읍 고문리 산21,38.0702803,127.1286023,3.91,"['재미있는', '아담한', '깨끗한', '신비로운', '웅장한', '전망대', '폭포', '라이딩', '캠핑', '계곡', '경치', '촬영지', '드라이브', '등산', '기차여행']"
고삼호수,경기 안성시 고삼면 월향리,37.0917458,127.2744377,4.44,"['깨끗한', '고즈넉한', '서정적인', '몽환적인', '편안한', '저수지', '캠핑', '붕어', '호수', '연꽃', '힐링', '경치', '나들이', '드라이브', '촬영지']"
일산호수,경기 고양시 일산동구 호수로 731,37.658391,126.7642233,4.2,"['재미있는', '화려한', '편안한', '평화로운', '깨끗한', '자전거대여', '공원', '호수', '산책', '박람회', '주말나들이', '경치', '가족나들이', '가을축제', '데이트']"
광교호수공원,경기 수원시 영통구 광교호수로 57,37.283123,127.0659168,4.28,"['분위기있는', '재미있는', '화려한', '신비한', '깨끗한', '해바라기밭', '분수', '호수', '야경', '공원', '주말나들이', '경치', '스템프투어', '드라이브', '가족나들이']"
농협안성팜랜드,경기 안성시 공도읍 대신두길 28,36.9920809,127.1931869,4.4,"['목가적인', '재미있는', '이국적', '편안한', '깨끗한', '수영장', '눈썰매장', '체험학습', '동물농장', '목장', '주말나들이', '드라이브', '동물체험', '승마체험', '가족여행']"
관악산,경기 과천시 중앙동,37.4359673,126.9927774,4.48,"['웅장한', '재미있는', '화려한', '편안한', '쾌적한', '계곡', '둘레길', '암벽', '케이블카', '공원', '경치', '산행', '힐링', '등산', '나들이']"
헤세의 정원,경기 양주시 장흥면 호국로550번길 111,37.716415,126.9806592,4.23,"['분위기짱', '낭만적인', '아기자기', '분위기좋은', '유럽풍', '공원', '레스토랑', '글램핑', '브런치', '계곡', '주말나들이', '경치', '데이트', '드라이브', '숨어있는']"
국립유명산자연휴양림,경기 가평군 설악면 유명산길 79-53,37.5928839,127.4920842,4.46,"['재미있는', '호젓한', '조그마한', '깨끗한', '편안한', '계곡', '오토캠핑', '휴양림', '식물원', '산책', '주말나들이', '드라이브', '산행', '가을여행', '등산']"
나리공원,경기 양주시 광사로 131-66,37.7917803,127.0712148,3.81,"['분위기있는', '이국적', '화려한', '신비로운', '몽환적인', '전망대', '꽃구경', '억새', '코스모스밭', '장미정원', '드라이브', '축제행사', '힐링', '승마체험', '핫플레이스']"
시화나래휴게소달전망대,경기 안산시 단원구 대부황금로 1927,37.3129812,126.6092392,3.88,"['분위기좋은', '조그마한', '재미있는', '화려한', '깨끗한', '공원', '전망대', '테마파크', '야경', '스테이크', '주말나들이', '가족여행', '경치', '가족나들이', '드라이브']"
서울랜드,경기 과천시 광명로 181,37.4364611,127.024139,4.46,"['소박한', '재미있는', '화려한', '오붓한', '아기자기', '놀이동산', '회전목마', '동물원', '코끼리열차', '눈썰매장', '주말나들이', '경치', '데이트', '드라이브', '가족나들이']"
대부바다향기테마파크,경기 안산시 단원구 대부북동 1841-10,37.2832421,126.5781241,4.23,"['재미있는', '분위기있는', '이국적', '화려한', '고즈넉한', '공원', '전망대', '테마파크', '코끼리열차', '갈대', '갯벌체험', '주말나들이', '경치', '드라이브', '주말여행']"
사나사계곡,경기 양평군 옥천면 용천리,37.555427,127.5181436,4.17,"['깨끗한', '소박한', '편안한', '계곡', '캠핑', '트래킹', '백숙', '닭볶음탕', '경치', '나들이', '산행', '힐링', '등산']"
운정호수공원,경기 파주시 경의로 1151,37.7385905,126.7636255,3.97,"['작은규모', '쉴만한', '분위기있는', '편안한', '쾌적한', '폭포', '코스모스밭', '자전거도로', '산책', '바람개비동산', '경치', '나들이', '유적', '데이트', '휴식']"
국립현대미술관 과천,경기 과천시 광명로 313 국립현대미술관,37.4310373,127.019961,4.53,"['재미있는', '화려한', '편안한', '몽환적인', '신비로운', '미술관', '박물관', '코끼리열차', '동물원', '공원', '주말나들이', '비오는날', '데이트', '드라이브', '단풍구경']"
문호리리버마켓,경기 양평군 서종면 북한강로 941,37.6214595,127.3521288,3.67,"['재미있는', '개성있는', '편안한', '운치있는', '아기자기', '농장', '시장', '프리마켓', '공방', '플리마켓', '주말나들이', '힐링', '데이트', '드라이브', '유기농']"
한택식물원,경기 용인시 처인구 백암면 한택로 2 한택식물원,37.094601,127.406503,3.92,"['아담한', '화려한', '편안한', '신비한', '화사한', '수목원', '공원', '식물원', '산책', '연꽃', '봄꽃', '가족나들이', '동물체험', '주말여행', '가족여행']"
가나아트파크,경기 양주시 장흥면 권율로 117,37.7258899,126.9496427,4.49,"['따뜻한느낌', '근사한', '재미있는', '편안한', '작은규모', '실내놀이터', '미술관', '박물관', '키즈카페', '공원', '주말나들이', '나들이', '데이트', '소풍가기', '체험관']"
마장호수,경기 파주시 광탄면 기산로 365,37.7746655,126.9327526,4.26,[]
아쿠아플라넷 일산,경기 고양시 일산서구 한류월드로 282 아쿠아플라넷 일산,37.6633627,126.7553083,4.33,"['조그마한', '재미있는', '화려한', '몽환적인', '신비한', '고래', '펭귄', '동물원', '아쿠아리움', '공연', '주말나들이', '비오는날', '가족나들이', '동물체험', '데이트']"
동막계곡,경기 연천군 연천읍 동막리 동막계곡,38.1064989,127.1156905,4.67,"['깨끗한', '계곡', '유원지', '다슬기', '삼겹살', '캠핑', '나들이', '비오는날']"
효원공원월화원,경기 수원시 팔달구 동수원로 399,37.2663063,127.0439423,4.36,"['화려한', '아담한', '이국적', '우아한', '운치있는', '야경', '공원', '호수', '산책', '분수', '나들이', '경치', '데이트', '휴식', '촬영지']"
평강랜드,경기 포천시 영북면 우물목길 171-18,38.0499693,127.3061016,4.51,"['신비로운', '아기자기', '화려한', '편안한', '화사한', '수목원', '이동갈비', '둘레길', '식물원', '호수', '가족여행', '나들이', '가을여행', '주말여행', '힐링']"
캐리비안베이,경기 용인시 처인구 포곡읍 에버랜드로 199,37.2934755,127.1998066,4.5,"['재미있는', '화려한', '편안한', '이국적', '깨끗한', '유수풀', '수영장', '파도풀', '워터봅슬레이', '워터파크', '피크닉', '비오는날', '데이트', '휴식', '나들이']"
경기도잣향기푸른숲,경기 가평군 상면 축령로 289-146,37.7721391,127.3391224,4.38,"['조그마한', '고즈넉한', '화려한', '쾌적한', '웅장한', '수목원', '계곡', '캠핑', '산책', '출렁다리', '경치', '산행', '힐링', '등산', '나들이']"
수원KT위즈파크,경기 수원시 장안구 경수대로 893 수원종합운동장(주경기장),37.2977121,127.0113038,4.38,"['재미있는', '화려한', '세련된', '쾌적한', '깨끗한', '치킨', '만두', '닭강정', '통닭', '펍', '나들이', '가족나들이', '휴식', '데이트', '등산']"
산음자연휴양림,경기 양평군 단월면 고북길 347,37.5969104,127.5717371,4.38,"['깨끗한', '청량한', '호젓한', '운치있는', '편안한', '계곡', '캠핑', '휴양림', '산책', '산림욕', '딸기체험', '산행', '힐링', '등산', '가족여행']"
이천 테르메덴,경기 이천시 모가면 사실로 984,37.1822659,127.4446368,4.21,"['재미있는', '깨끗한', '운치있는', '편안한', '쾌적한', '유수풀', '온천', '수영장', '카라반', '워터파크', '가족여행', '데이트', '힐링', '나들이', '온천여행']"
연천호로고루,경기 연천군 장남면 원당리 1258,37.985796,126.8595787,4.43,"['화사한', '화려한', '평화로운', '전망대', '공원', '성곽', '공연', '유적지', '축제행사', '경치', '드라이브', '유물', '나들이']"
아인스월드,경기 부천시 도약로 1,37.5108987,126.7674566,4.3,"['이국적', '재미있는', '화려한', '신비로운', '웅장한', '공원', '박물관', '테마파크', '야경', '수영장', '나들이', '데이트', '드라이브', '힐링', '동물체험']"
서운동산,경기 포천시 내촌면 마명리 127-3,37.7715969,127.2020363,4.45,"['화려한', '아기자기', '고즈넉한', '편안한', '깨끗한', '공원', '레스토랑', '수영장', '물놀이장', '바베큐장', '주말나들이', '가을소풍', '힐링', '동물체험', '가족여행']"
효원공원,경기 수원시 팔달구 동수원로 397,37.2663063,127.0439423,4.64,"['재미있는', '이국적', '화려한', '아기자기', '공원', '극장', '바람개비', '산책', '분수', '나들이', '봄꽃', '휴식', '전통적인', '촬영지']"
렛츠런팜 원당,경기 고양시 덕양구 서삼릉길 233-112,37.6641008,126.8735634,4.25,"['재미있는', '목가적인', '이국적', '오붓한', '평화로운', '도시락', '공원', '목장', '산책', '경마장', '주말나들이', '소풍가기', '가족나들이', '드라이브', '승마체험']"
황순원문학촌소나기마을,경기 양평군 서종면 소나기마을길 24,37.5945109,127.3781099,4.52,"['낭만적인', '조그마한', '재미있는', '서정적인', '세련된', '공원', '박물관', '농장', '산책', '휴양림', '딸기체험', '경치', '드라이브', '힐링', '나들이']"
병목안시민공원,경기 안양시 만안구 안양동 산81-1,37.3834468,126.9100216,4.17,"['쾌적한', '깨끗한', '분위기좋은', '편안한', '웅장한', '폭포', '시민공원', '캠핑', '산책', '계곡', '산행', '데이트', '힐링', '등산', '단풍구경']"
남양주한강공원(삼패지구),경기 남양주시 고산로 184-1,37.5939015,127.1855454,4.63,"['작은공간', '편안한', '평화로운', '분수', '시민공원', '인라인', '물놀이장', '수영장', '피크닉', '경치', '데이트', '드라이브', '휴식']"
지앤아트스페이스,경기 용인시 기흥구 백남준로 7,37.2699229,127.1103118,4.28,"['빈티지한', '멋스러운', '개성있는', '심플한', '화사한', '미술관', '레스토랑', '박물관', '공방', '파스타', '나들이', '도자기체험', '힐링', '데이트', '봄꽃']"
국화도,경기 화성시 우정읍 국화리,37.1063663,126.5394823,4.25,"['재미있는', '소박한', '깨끗한', '장어', '유람선', '바지락', '횟집', '일몰', '갯벌체험', '가족여행', '낚시체험', '힐링', '나들이']"
숲을그리다,경기 여주시 북내면 상교3길 56-37,37.4004137,127.6590975,4.67,"['삼겹살', '장작구이', '야외수영장', '야경', '공연', '경치', '데이트', '힐링', '휴식']"
에델바이스 스위스 테마파크,경기 가평군 설악면 다락재로 226-57,37.6677785,127.4474131,4.01,"['재미있는', '목가적인', '이국적', '친절한', '아기자기', '수목원', '박물관', '테마파크', '스위스마을', '치즈퐁듀', '프로포즈', '경치', '데이트', '드라이브', '가족나들이']"
대부도,경기 안산시 단원구 대부동동,37.251758,126.6136994,4.42,"['깨끗한', '이국적', '화려한', '아담한', '평화로운', '전망대', '조개구이', '테마파크', '일몰', '칼국수', '갯벌체험', '가족여행', '드라이브', '등산', '나들이']"
웅진플레이도시,경기 부천시 조마루로 2,37.4993929,126.7448116,4.28,"['프라이빗', '재미있는', '화려한', '편안한', '깨끗한', '유수풀', '실내눈썰매장', '수영장', '파도풀', '워터파크', '가족여행', '재방문', '가족나들이', '휴식', '데이트']"
묘적사계곡,경기 남양주시 와부읍 월문리,37.6108664,127.2613592,4.5,"['재미있는', '평온한', '깨끗한', '아담한', '편안한', '계곡', '캠핑', '백숙', '삼겹살', '폭포', '템플스테이', '산행', '힐링', '드라이브', '나들이']"
화석정,경기 파주시 파평면 율곡리,37.8874885,126.8178993,4.47,"['아담한', '멋스러운', '오붓한', '옛모습', '평화로운', '공원', '유적지', '매운탕', '산책', '캠핑', '나들이', '경치', '유적', '드라이브', '등산']"
궁평리해수욕장,경기 화성시 서신면 궁평리,37.1301681,126.6961236,4.63,"['아담한', '해변', '캠핑', '유원지', '항구', '일몰', '갯벌체험', '나들이', '드라이브', '휴식']"
구리시고구려대장간마을,경기 구리시 우미내길 41,37.5605386,127.1110023,4.24,"['독특한분위기', '아담한', '재미있는', '옛모습', '웅장한', '고기집', '둘레길', '세트장', '박물관', '유채꽃', '주말나들이', '가족나들이', '유적', '등산', '촬영지']"
융건릉,경기 화성시 안녕동 187-39,37.2072514,126.9878117,4.63,"['호젓한', '재미있는', '화려한', '편안한', '웅장한', '수목원', '공원', '둘레길', '온천', '산책', '나들이', '경치', '데이트', '힐링', '등산']"
감악산 출렁다리,경기 파주시 적성면 설마리 48-6,37.9391536,126.9436284,4.25,"['분위기있는', '고즈넉한', '편안한', '웅장한', '깨끗한', '폭포', '둘레길', '전망대', '계곡', '출렁다리', '경치', '나들이', '산행', '드라이브', '등산']"
피아노폭포,경기 남양주시 화도읍 금남리 산47-48,37.6306721,127.3480903,4.23,"['재미있는', '근사한', '깨끗한', '쉴만한', '웅장한', '계곡', '생태공원', '수영장', '물놀이장', '폭포', '주말나들이', '가족여행', '경치', '가족나들이', '드라이브']"
스카이라인짚와이어,경기 가평군 가평읍 북한강변로 1024,37.8037573,127.5254247,4.42,"['이국적', '쾌적한', '블롭점프', '번지점프', '수상레포츠', '짚와이어', '하늘자전거', '핫플레이스', '경치', '힐링', '레포츠', '가족여행']"
분당중앙공원,경기 성남시 분당구 성남대로 550,37.3778859,127.1246764,4.57,"['활기찬', '분위기좋은', '화려한', '편안한', '웅장한', '분수', '공원', '콘서트', '산책', '야외공연장', '나들이', '소풍가기', '드라이브', '휴식', '단풍구경']"
옥구공원,경기 시흥시 서해안로 277 론볼 경기장 운영센터,37.3670286,126.7595681,3,"['아담한', '재미있는', '편안한', '운치있는', '깨끗한', '공원', '라이딩', '야경', '산책', '도서관', '주말나들이', '경치', '가족나들이', '등산', '휴식']"
전류리포구,경기 김포시 하성면 금포로 1928,37.6976785,126.6619349,4.17,"['재미있는', '분위기있는', '조그마한', '깨끗한', '운치있는', '숭어회', '참게', '전어회', '새우구이', '대하구이', '나들이', '경치', '싱싱한', '드라이브', '제철음식']"
걸포중앙공원,경기 김포시 걸포동 1550-2,37.6387937,126.7056286,5,"['편안한', '스케이트보드', '바닥분수', '인라인', '산책', '공원', '피크닉', '경치', '나들이', '휴식', '축제행사']"
용문산 자연휴양림,경기 양평군 양평읍 백안리 산70,37.5174296,127.5207697,4.58,"['아담한', '깨끗한', '트래킹', '계곡', '캠핑', '휴양림', '산책', '나들이', '경치', '힐링', '등산', '숨은']"
삼막사계곡,경기 안양시 만안구 석수동,37.4224747,126.9098163,4.08,"['재미있는', '활기찬', '깨끗한', '편안한', '치킨', '계곡', '유원지', '중국집', '짜장면', '나들이', '산행', '데이트', '등산', '휴식']"
한탄강관광지 오토캠핑장,경기 연천군 전곡읍 선사로 76,38.0147057,127.068102,4.28,"['재미있는', '깨끗한', '화려한', '편안한', '쾌적한', '도시락', '캠핑', '카라반', '글램핑', '선사유적지', '주말나들이', '나들이', '봄소풍', '힐링', '경치']"
금광호수,경기 안성시 금광면 오흥리,37.0067253,127.3463803,4.23,"['평온한', '호젓한', '분위기좋은', '아담한', '운치있는', '저수지', '공원', '팥빙수', '호수', '산책', '나들이', '경치', '데이트', '드라이브', '힐링']"
감악산,경기 파주시 적성면,37.954643,126.9169755,4,"['재미있는', '편안한', '저수지', '계곡', '둘레길', '폭포', '출렁다리', '경치', '산행', '유적', '등산', '휴식']"
축령산,경기 남양주시 수동면 축령산로 299,37.7547427,127.3132292,4.06,"['조그마한', '깨끗한', '화려한', '편안한', '화사한', '계곡', '트래킹', '휴양림', '철쭉', '캠핑', '경치', '산행', '나들이', '등산', '휴식']"
용인대장금파크,경기 용인시 처인구 백암면 용천로 330,37.1194118,127.3370812,4.05,"['재미있는', '화려한', '편안한', '웅장한', '세련된', '드라마세트장', '궁궐', '세트장', '테마파크', '식물원', '나들이', '한복체험', '드라이브', '데이트', '촬영지']"
안산대부광산퇴적암층,경기 안산시 단원구 선감동,37.2100274,126.6504817,4.23,[]
노송지대,경기 수원시 장안구 이목동 산119,37.3137826,126.9865249,4.23,"['저수지', '공원', '시장', '성곽', '산책로', '웰빙', '체험관', '휴식']"
두리랜드,경기 양주시 장흥면 권율로 120,37.7247081,126.9505963,4.21,"['재미있는', '조그마한', '깨끗한', '화려한', '쾌적한', '공원', '놀이동산', '유원지', '수영장', '물놀이장', '나들이', '데이트', '드라이브', '힐링', '피크닉']"
미사경정공원조정카누경기장,경기 하남시 미사대로 505,37.5535718,127.2132285,3.83,"['재미있는', '깨끗한', '화려한', '쾌적한', '평화로운', '자전거대여', '공원', '수상스키', '산책', '카누', '주말나들이', '가족나들이', '드라이브', '단풍여행', '단풍구경']"
배곧생명공원,경기 시흥시 배곧2로 25,37.3724817,126.721685,4.75,[]
물왕저수지,경기 시흥시 물왕동,37.3855458,126.8391916,4,"['화려한', '재미있는', '분위기좋은', '운치있는', '깨끗한', '저수지', '장어', '라이브카페', '산책', '연꽃', '나들이', '경치', '데이트', '드라이브', '힐링']"
장자호수공원,경기 구리시 토평동 878,37.5731397,127.135381,4.29,"['활기찬', '깨끗한', '우아한', '화려한', '평화로운', '공원', '시장', '호수', '산책', '분수', '나들이', '경치', '데이트', '체험관', '휴식']"
국립과천과학관,경기 과천시 상하벌로 110 국립과천과학관,37.4382837,127.0057486,4.47,"['재미있는', '화려한', '편안한', '신비한', '깨끗한', '과학관', '박물관', '체험학습', '공연', '뮤지컬', '주말나들이', '비오는날', '가족나들이', '체험관', '직업체험']"
미메시스 아트 뮤지엄,경기 파주시 문발로 253,37.7167814,126.6889236,4.39,"['재미있는', '작은공간', '깨끗한', '분위기좋은', '품위있는', '아울렛', '미술관', '잔디밭', '박물관', '플리마켓', '나들이', '데이트', '드라이브', '힐링', '피크닉']"
관곡지,경기 시흥시 하중동 208,37.4023015,126.8044915,4.21,"['화려한', '아담한', '깨끗한', '우아한', '기품있는', '연밭', '연꽃단지', '생태공원', '테마파크', '연꽃', '주말나들이', '드라이브', '비오는날', '유적', '주말여행']"
율곡습지공원,경기 파주시 파평면 율곡리 191-3,37.8894197,126.8137029,4.23,[]
백남준아트센터,경기 용인시 기흥구 백남준로 10,37.2691494,127.1103829,4.38,"['신비스러운', '고혹적인', '재미있는', '서정적인', '동적인', '미술관', '체험학습', '박물관', '도서관', '아트홀', '주말나들이', '데이트', '유물', '전통적인', '휴식']"
세종대왕릉,경기 여주시 능서면 영릉로 269-50,37.304074,127.603751,4.48,"['호젓한', '화려한', '웅장한', '옛모습', '고즈넉한', '아울렛', '박물관', '체험학습', '돌솥밥', '산책', '나들이', '경치', '힐링', '유물', '봄꽃']"
김포아트빌리지,경기 김포시 운양동 1325-10,37.6593368,126.6832269,4.06,[]
청학동계곡,경기 남양주시 별내면 청학리,37.7004203,127.1032686,4.23,"['깨끗한', '계곡', '감자전', '전어회', '백숙', '수영장', '산행', '힐링', '등산']"
우음도,경기 화성시 송산면 고정리,37.2455111,126.7468539,4.23,"['분위기있는', '고즈넉한', '화려한', '편안한', '평화로운', '캠핑', '공룡알', '전망대', '일몰', '갈대', '나들이', '신선한', '드라이브', '사진찍기', '촬영지']"
안양중앙공원,경기 안양시 동안구 관평로 149,37.3899821,126.9612655,4.34,"['깨끗한', '재미있는', '화려한', '편안한', '쉬기좋은', '분수', '시장', '프리마켓', '공원', '플리마켓', '피크닉', '가족나들이', '휴식', '데이트', '등산']"
태산패밀리파크,경기 김포시 하성면 하성로 585 태산패밀리파크,37.7257476,126.6287784,5,"['재미있는', '화사한', '깨끗한', '평화로운', '아기자기', '잔디밭', '공원', '수영장', '물놀이장', '바닥분수', '주말나들이', '도자기체험', '드라이브', '체험관', '휴식']"
황학산수목원,경기 여주시 황학산수목원길 73,37.2784958,127.6493943,4.23,"['편안한', '호젓한', '화려한', '소박한', '화사한', '수목원', '미로', '박물관', '식물원', '도시락', '나들이', '힐링', '등산', '드라이브', '봄꽃']"
안성맞춤랜드,경기 안성시 보개면 남사당로 198,37.0317819,127.3101664,4.47,"['작은공간', '재미있는', '화려한', '편안한', '깨끗한', '박람회', '공원', '썰매장', '공연', '과학관', '주말나들이', '가족여행', '가족나들이', '가을여행', '드라이브']"
미사경정공원,경기 하남시 미사대로 505,37.5535718,127.2132285,4.65,"['카누', '공원', '라이딩', '자전거대여', '산책', '경치', '가족나들이', '드라이브', '휴식', '데이트']"
월곶포구,경기 시흥시 월곶동,37.3847999,126.7579922,4.42,"['낭만이있는', '소박한', '화려한', '편안한', '깨끗한', '일몰', '전망대', '횟집', '야경', '항구', '프로포즈', '싱싱한', '드라이브', '데이트', '나들이']"
임진각관광지,경기 파주시 문산읍 임진각로 164,37.8901807,126.7431652,4.82,"['화려한', '깨끗한', '멋스러운', '편안한', '평화로운', '공원', '철길', '전망대', '한정식', '바람개비', '주말나들이', '가족나들이', '드라이브', '휴식', '데이트']"
천진암계곡,경기 광주시 퇴촌면 천진암로 1142,37.4564266,127.3243249,4.23,[]
천마산,경기 남양주시 화도읍,37.6523921,127.3083224,4.5,"['호젓한', '분위기좋은', '편안한', '쾌적한', '깨끗한', '공원', '둘레길', '스키장', '산책', '계곡', '경치', '봄꽃', '산행', '등산', '휴식']"
구둔역 폐역,경기 양평군 지평면 일신리 1336-9,37.4374693,127.6888351,4.23,"['작은공간', '고즈넉한', '소박한', '옛모습', '그윽한분위기', '옥천냉면', '철길', '연극', '공연', '산책', '드라이브', '기차여행', '가을여행', '영화촬영지', '촬영지']"
만골근린공원,경기 용인시 기흥구 기흥로116번길 10,37.2862231,127.1141009,4.23,[]
양주시립장욱진미술관,경기 양주시 장흥면 권율로 193,37.7312783,126.9488836,4.31,"['재미있는', '아담한', '깨끗한', '심플한', '편안한', '공원', '캠핑', '천문대', '산책', '계곡', '주말나들이', '힐링', '데이트', '드라이브', '피크닉']"
포천한탄강하늘다리,경기 포천시 영북면 비둘기낭길 207,38.0838576,127.2187725,4.25,[]
광교산(시루봉),경기 용인시 수지구 고기동 산58-1,37.3549532,127.0427431,4.5,"['호젓한', '화려한', '편안한', '운치있는', '고즈넉한', '막걸리', '저수지', '반딧불', '호수', '계곡', '경치', '산행', '나들이', '등산', '휴식']"
삼성교통박물관,경기 용인시 처인구 포곡읍 에버랜드로376번길 171,37.2993534,127.2185665,4.44,"['우아한', '근사한', '재미있는', '화려한', '작은공간', '도시락', '체험학습', '미술관', '박물관', '공원', '주말나들이', '데이트', '드라이브', '체험관', '휴식']"
청평자연휴양림,경기 가평군 청평면 북한강로2246번길 8-6,37.711878,127.4072261,4.22,"['아기자기', '화려한', '편안한', '작은규모', '깨끗한', '수목원', '전망대', '휴양림', '산책', '산림욕', '힐링', '경치', '드라이브', '등산', '나들이']"
해우재,경기 수원시 장안구 장안로458번길 9,37.3191723,126.9779818,4.4,"['작은공간', '재미있는', '아담한', '작은규모', '깨끗한', '똥돼지', '공원', '시장', '박물관', '체험학습', '주말나들이', '가족나들이', '드라이브', '체험관', '유물']"
부천자연생태공원,경기 부천시 길주로 660,37.504907,126.8161883,4.39,"['깨끗한', '재미있는', '화려한', '이국적', '화사한', '수목원', '생태공원', '박물관', '식물원', '동물원', '나들이', '소풍가기', '유물', '등산', '체험관']"
남양주종합촬영소,경기 남양주시 조안면 북한강로855번길 138 남양주종합촬영소,37.6046708,127.3202175,4.23,"['옛모습', '재미있는', '화려한', '편안한', '운치있는', '영화관', '세트장', '박물관', '영화촬영소', '극장', '나들이', '경치', '드라이브', '체험관', '촬영지']"
용문산,경기 양평군 용문면 용문산로 782 용문사,37.5501859,127.570823,3.98,"['조그마한', '깨끗한', '편안한', '웅장한', '청량한', '계곡', '둘레길', '휴양림', '산책', '산나물', '템플스테이', '산행', '힐링', '등산', '단풍구경']"
강천섬유원지,경기 여주시 강천면 강천리 627,37.2347348,127.6949356,4.23,[]
철도박물관,경기 의왕시 철도박물관로 142 철도박물관,37.3140657,126.9512546,4.36,"['화려한', '재미있는', '친절한', '편안한', '웅장한', '박물관', '철길', '체험학습', '공원', '도시락', '주말나들이', '체험관', '데이트', '유물', '기차여행']"
중대물빛공원,경기 광주시 중대동 91,37.4003356,127.2200006,4.23,"['공원', '산책', '나들이']"
설매재자연휴양림,경기 양평군 옥천면 용천로 510 설매재자연휴양림,37.5567337,127.5094364,4.36,"['평온한', '깨끗한', '친절한', '편안한', '몽환적인', '계곡', '억새', '캠핑', '휴양림', '수영장', '경치', '산행', '힐링', '등산', '촬영지']"
내추럴가든529,경기 양평군 서종면 내수입길 108-8,37.6372166,127.3807341,4.22,[]
평택호예술공원,경기 평택시 현덕면 권관리 315-2,36.9219321,126.9239911,4.23,[]
양평군립미술관,경기 양평군 양평읍 문화복지길 2,37.4971388,127.4840738,4.8,"['친절한', '재미있는', '화려한', '신비로운', '깨끗한', '미술관', '라이딩', '박물관', '공연', '체험학습', '딸기체험', '경치', '데이트', '드라이브', '휴식']"
백미리어촌체험마을,경기 화성시 서신면 백미길 210-35,37.1433232,126.6800603,4.22,"['재미있는', '깨끗한', '소박한', '편안한', '조개잡기', '캠핑', '바지락', '카약', '칼국수', '갯벌체험', '나들이', '낚시체험', '싱싱한', '데이트']"
그랜드유원지,경기 양주시 장흥면 부곡리,37.7363802,126.9768703,4.23,"['계곡', '캠핑', '유원지', '백숙', '삼겹살', '나들이', '힐링', '가족여행']"
반월호수,경기 군포시 둔대동,37.3265382,126.888738,4.05,"['조그마한', '깨끗한', '분위기좋은', '운치있는', '화사한', '저수지', '공원', '캠핑', '호수', '산책', '힐링', '경치', '데이트', '드라이브', '나들이']"
기천저수지,경기 화성시 봉담읍 상기리 744,37.1933203,126.9055904,4.23,[]
주토피아,경기 용인시 처인구 포곡읍 에버랜드로 199,37.2934755,127.1998066,4.4,"['조그마한', '재미있는', '화려한', '신비로운', '평화로운', '사파리', '공연', '야경', '동물원', '공원', '나들이', '사파리투어', '데이트', '동물체험', '휴식']"
유명산,경기 가평군 설악면,37.6761522,127.4947001,4.23,"['화려한', '호젓한', '소박하지만', '편안한', '청량한', '계곡', '패러글라이딩', '휴양림', '억새', '활공장', '경치', '산행', '촬영지', '등산', '휴식']"
검단산,경기 하남시 신장동 검단산,37.538209,127.2045038,4.23,"['호젓한', '화려한', '편안한', '웅장한', '깨끗한', '막걸리', '계곡', '간장게장', '일몰', '야경', '휴식', '경치', '산행', '등산', '야간산행']"
구봉도,경기 안산시 단원구 대부북동,37.258289,126.5731267,3.5,"['낭만적인', '조그마한', '화려한', '편안한', '운치있는', '둘레길', '전망대', '산책', '일몰', '대하구이', '갯벌체험', '가족여행', '경치', '드라이브', '등산']"
석성산,경기 용인시 처인구 포곡읍 마성리,37.2793006,127.1869605,4.6,"['아담한', '운치있는', '고급스런', '편안한', '쾌적한', '막걸리', '아이스크림', '둘레길', '도서관', '산책', '휴식', '산행', '유적', '등산', '야간산행']"
몽골문화촌,경기 남양주시 수동면 내방리 250,37.7580275,127.2759893,4.23,"['이국적', '화려한', '신비로운', '웅장한', '고급스러운', '계곡', '캠핑', '박물관', '양고기', '공연', '나들이', '힐링', '체험관', '드라이브', '유물']"
왕송호수,경기 의왕시 초평동,37.3117802,126.9396599,4.28,"['느낌있는', '아담한', '분위기좋은', '화사한', '저수지', '연꽃단지', '레일바이크', '일몰', '호수', '경치', '가족나들이', '드라이브', '휴식', '데이트']"
힐링그라운드,경기 파주시 탑삭골1길 31-29 힐링그라운드,37.7330193,126.7911935,4.41,[]
쥬라리움 일산점,경기 고양시 덕양구 원당로458번길 7-42,37.6894541,126.8549178,4.11,"['조그마한', '재미있는', '화려한', '작은규모', '깨끗한', '공원', '사파리', '테마파크', '동물원', '눈썰매장', '주말나들이', '드라이브', '데이트', '동물체험', '가족나들이']"
소다미술관,경기 화성시 효행로707번길 30,37.2006504,127.0070171,4.03,"['재미있는', '정적인', '아기자기', '화려한', '감각적인', '미술관', '프리마켓', '박물관', '공연', '플리마켓', '주말나들이', '힐링', '재방문', '데이트', '드라이브']"
렛츠런파크서울,경기 과천시 경마공원대로 107,37.4448469,127.017142,4.17,"['친절한', '재미있는', '이국적', '웅장한', '화려한', '도시락', '경마장', '승마', '벚꽃길', '공원', '주말나들이', '봄소풍', '데이트', '드라이브', '승마체험']"
주금산,경기 가평군 상면 상동리,37.7858811,127.299456,4.23,"['재미있는', '호젓한', '화려한', '편안한', '깨끗한', '계곡', '둘레길', '트래킹', '알탕', '스키장', '경치', '산행', '야간산행', '등산', '휴식']"
허브아일랜드,경기 포천시 신북면 청신로947번길 35,37.9653434,127.1316512,4.22,[]
동탄여울공원,경기 화성시 오산동 967-611,37.1512175,127.0752332,4.2,[]
정자동카페골목,경기 성남시 분당구 정자동,37.3638388,127.1163207,4.45,"['개성있는', '분위기있는', '이국적', '분위기좋은', '화려한', '커피거리', '아이스크림', '피자', '디저트', '브런치', '나들이', '신선한', '데이트', '힐링', '유기농']"
호명호수공원,경기 가평군 청평면 상천리 산371-8,37.7773388,127.4510029,4.23,"['화려한', '저수지', '공원', '전망대', '갤러리카페', '호수', '나들이', '산행', '드라이브', '등산', '단풍구경']"
수미마을,경기 양평군 단월면 곱다니길 55-2 수미마을 방문객센터,37.5145052,127.6573969,4.04,"['쉴만한', '재미있는', '개성있는', '편안한', '깨끗한', 'atv', '도시락', '눈썰매', '빙어낚시', '찐빵', '딸기체험', '봄소풍', '가족나들이', '힐링', '경치']"
코코몽에코파크 용인점,경기 용인시 수지구 동천로 581,37.3544044,127.0520262,4.18,"['깨끗한', '재미있는', '편안한', '작은규모', '아기자기', '실내놀이터', '썰매', '키즈카페', '물놀이장', '테마파크', '주말나들이', '나들이', '드라이브', '휴식', '승마체험']"
화성행궁,경기 수원시 팔달구 정조로 825,37.2817978,127.0137047,4.52,"['재미있는', '화려한', '웅장한', '옛모습', '고즈넉한', '미술관', '공방거리', '성곽', '공연', '야경', '주말나들이', '스템프투어', '경치', '한복체험', '촬영지']"
공룡알화석지,경기 화성시 송산면 공룡로 659,37.2519565,126.7390636,4.63,"['분위기있는', '조그마한', '이국적', '화려한', '몽환적인', '공룡알', '전망대', '박물관', '공원', '갈대', '나들이', '경치', '데이트', '드라이브', '힐링']"
레솔레파크,경기 의왕시 월암동 525-5,37.3112816,126.9499897,3.83,[]
낙조전망대,경기 안산시 단원구 대부북동 산23,37.2880921,126.5349156,4.23,"['재미있는', '산책', '해변', '트래킹', '코끼리열차', '일몰', '갯벌체험', '경치', '데이트', '힐링', '산행']"
소울원,경기 파주시 탄현면 검산로 424-12,37.8060114,126.7348292,4.16,"['낭만이있는', '아담한', '편안한', '신비한', '평화로운', '수목원', '폭포', '식물원', '산책', '공원', '나들이', '경치', '데이트', '힐링', '촬영지']"
플라잉수원,경기 수원시 팔달구 지동 255-4,37.2866289,127.026375,4.34,[]
김포국제조각공원,경기 김포시 월곶면 고막리 435-14,37.7212355,126.5544279,3.67,"['재미있는', '깨끗한', '화려한', '공원', '썰매장', '수영장', '산책', '눈썰매장', '나들이', '산행', '데이트', '등산', '휴식']"
앤드 모안,경기 용인시 처인구 원삼면 두창호수로 188,37.1429377,127.3381029,4.56,[]
오남호수공원,경기 남양주시 오남읍 오남리 산50-2,37.6939081,127.225728,4.23,[]
카페도자기마을,경기 남양주시 조안면 북한강로433번길 37,37.5604835,127.3097031,4.32,"['재미있는', '멋스러운', '분위기있는', '아기자기', '개성있는', '카페', '딸기농장', '공방', '체험학습', '팥빙수', '딸기체험', '도자기체험', '힐링', '가족나들이', '데이트']"
성남아트센터,경기 성남시 분당구 성남대로 808 성남아트센터,37.4031543,127.1320346,4.3,"['우아한', '개성있는', '재미있는', '화려한', '웅장한', '미술관', '극장', '공연', '뮤지컬', '콘서트', '체험관', '가족나들이', '휴식', '데이트', '등산']"
구갈레스피아,경기 용인시 기흥구 구갈동 33,37.2678361,127.1294854,5,"['공원', '생태공원', '자전거도로', '산책', '도시락', '나들이']"
청계산맑은숲공원,경기 의왕시 청계동,37.3885571,126.9959455,4.23,[]
석산계곡,경기 양평군 단월면 석산리,37.6332007,127.6013165,4.23,"['아담한', '깨끗한', '계곡', '다슬기', '레일바이크', '철쭉', '캠핑', '경치', '나들이', '산행', '힐링', '휴식']"
한국잡월드,경기 성남시 분당구 분당수서로 501,37.3784564,127.106615,4.45,"['정적인', '모던한', '재미있는', '친절한', '편안한', '피자', '체험학습', '공연', '뮤지컬', '극장', '나들이', '데이트', '체험관', '직업체험', '휴식']"
옥정중앙공원,경기 양주시 옥정동 1035-1,37.8203009,127.0864731,3.6,[]
일산호수공원,경기 고양시 일산동구 호수로 731,37.658391,126.7642233,4.14,[]
고기리막국수,경기 용인시 수지구 이종무로 157,37.360306,127.0400885,4.37,"['아늑한', '아담한', '깨끗한', '분위기좋은', '운치있는', '국수집', '냉면', '녹두전', '막국수', '메밀국수', '드라이브', '자극적인', '등산', '힐링', '나들이']"
수원시립아이파크미술관,경기 수원시 팔달구 정조로 833,37.2824692,127.0162129,4.34,"['정적인', '재미있는', '화려한', '편안한', '몽환적인', '미술관', '시장', '박물관', '도서관', '공원', '나들이', '경치', '데이트', '휴식', '전통적인']"
양평 쉬자파크공원,경기 양평군 양평읍 쉬자파크길 193,37.5114155,127.533327,4.26,"['조그마한', '재미있는', '화려한', '편안한', '신비로운', '공원', '암벽등반', '산책로', '산나물', '야외공연장', '힐링', '경치', '드라이브', '등산', '나들이']"
곤지암도자공원,경기 광주시 곤지암읍 경충대로 727,37.3511041,127.3275659,4.33,"['격조높은', '멋스러운', '화려한', '편안한', '이국적', '공원', '냉면', '박물관', '비엔날레', '공연', '체험관', '나들이', '유물', '전통적인', '휴식']"
시화MTV거북섬,경기 시흥시 정왕동,37.3486016,126.7271088,4.23,[]
행주산성,경기 고양시 덕양구 행주내동 산26-1,37.5949454,126.8297196,4.36,"['분위기있는', '화려한', '편안한', '웅장한', '평화로운', '공원', '둘레길', '국궁', '야경', '산책', '주말나들이', '경치', '가족나들이', '드라이브', '등산']"
미사호수공원,경기 하남시 망월동 739-1,37.5624389,127.1876605,4.23,[]
지장산계곡,경기 포천시 관인면 중리,38.0995919,127.1978415,4.23,"['조그마한', '깨끗한', '분주한', '편안한', '저수지', '계곡', '캠핑', '유원지', '막국수', '힐링', '경치', '산행', '등산', '나들이']"
예봉산,경기 남양주시 조안면 조안리 예봉산,37.53585,127.3033831,4.23,"['재미있는', '화려한', '편안한', '웅장한', '깨끗한', '계곡', '라이딩', '박물관', '야경', '활공장', '경치', '산행', '봄꽃', '등산', '휴식']"
한강신도시 호수공원,경기 김포시 마산동 617-2,37.6462408,126.636238,4.23,[]
목향원,경기 남양주시 덕릉로1071번길 34-12,37.6831662,127.1016319,4.3,"['아늑한', '토속적인분위기', '고즈넉한', '분위기좋은', '운치있는', '쌈밥', '파전', '한정식', '시래기', '불고기', '드라마촬영지', '경치', '데이트', '드라이브', '유기농']"
구름산,경기 광명시 소하동,37.4397958,126.8832786,4.42,"['아기자기', '편안한', '화사한', '공원', '전망대', '동굴', '산림욕장', '활공장', '경치', '산행', '자연식', '등산', '휴식']"
동두천 자연휴양림,경기 동두천시 탑동가산로 1,37.9034112,127.0605075,4.37,[]
스파플러스,경기 이천시 중리천로115번길 45 미란다호텔&미란다스파플러스,37.2760978,127.4509931,3.76,"['재미있는', '깨끗한', '깔끔한인테리어', '편안한', '감각적인', '유수풀', '파도풀', '수영장', '키즈카페', '워터파크', '가족여행', '나들이', '휴식', '데이트', '온천여행']"
동백호수공원,경기 용인시 기흥구 동백중앙로 239,37.27493,127.1500227,4.9,"['아담한', '쾌적한', '음악분수', '공원', '호수', '산책', '야외공연장', '기념일', '데이트', '드라이브']"
진위천유원지,경기 평택시 진위면 진위서로 264-15 관리동,37.0980367,127.0866126,4.25,[]
레솔레파크레일파크,경기 의왕시 왕송못동로 221,37.3196181,126.9459986,4.19,"['조그마한', '재미있는', '낭만적인', '햇살좋은', '근사한', '과학관', '스쿠터', '공원', '레일바이크', '호수', '나들이', '경치', '데이트', '휴식', '기차여행']"
부천백만송이장미원,경기 부천시 성곡로63번길 99 도당공원,37.5154025,126.7914422,3.59,"['고혹적인', '쉴만한', '화려한', '우아한', '화사한', '수목원', '공원', '둘레길', '장미정원', '분수', '나들이', '데이트', '힐링', '등산', '드라이브']"
피싱파크 진산각,경기 김포시 중봉로33번길 174,37.6264413,126.6896626,4.36,"['조그마한', '재미있는', '친절한', '포근한', '깨끗한', '미로', '빙어', '체험학습', '얼음썰매', '송어회', '낚시체험', '가족나들이', '휴식', '데이트', '신선한']"
피노지움,경기 파주시 회동길 152 열림원,37.7089547,126.6874772,4.27,"['재미있는', '작은공간', '동화적인', '화려한', '아기자기', '체험학습', '박물관', '도서관', '서점', '공연', '나들이', '데이트', '드라이브', '체험관', '휴식']"
은아목장,경기 여주시 가남읍 금당5길 139,37.2125963,127.620231,4.71,"['근사한', '재미있는', '화려한', '쾌적한', '평화로운', '아이스크림', '피자', '체험학습', '목장', '농장', '가족여행', '신선한', '힐링', '봄소풍', '나들이']"
직동근린공원,경기 의정부시 호국로1162번길 73,37.7401341,127.0327216,4.23,[]
안터생태공원,경기 광명시 안재로1번길 27 안터생태공원,37.4592961,126.8698111,4.23,"['저수지', '생태공원', '산책', '암벽', '연꽃', '나들이', '힐링', '휴식']"
파주삼릉,경기 파주시 조리읍 삼릉로 89,37.7405486,126.8423122,4.62,"['아담한', '고즈넉한', '소박한', '웅장한', '깨끗한', '저수지', '공원', '유적지', '산책', '전나무숲길', '나들이', '경치', '토속음식', '힐링', '드라이브']"
전통술박물관산사원,경기 포천시 화현면 화동로432번길 25,37.9058675,127.3093844,4.58,"['재미있는', '조그마한', '고즈넉한', '옛모습', '깨끗한', '막걸리', '캠핑', '박물관', '술박물관', '모노레일', '나들이', '경치', '데이트', '드라이브', '유물']"
홍유릉,경기 남양주시 홍유릉로 352-1,37.6315094,127.2113052,4.43,"['재미있는', '고즈넉한', '옛모습', '운치있는', '웅장한', '공원', '벚꽃길', '궁궐', '산책', '도시락', '나들이', '경치', '데이트', '힐링', '드라이브']"
연천전곡리유적,경기 연천군 전곡읍 양연로 1510,38.0154257,127.061393,4.24,"['화사한', '재미있는', '화려한', '포근한', '깨끗한', '눈썰매', '캠핑', '박물관', '공연', '선사유적지', '나들이', '유적', '드라이브', '체험관', '가족여행']"
유리섬박물관,경기 안산시 단원구 부흥로 254,37.2196238,126.5988709,4.2,"['친절한', '재미있는', '화려한', '쾌적한', '아기자기', '미술관', '공원', '박물관', '공연', '테마파크', '갯벌체험', '나들이', '경치', '드라이브', '힐링']"
풍산개마을,경기 안성시 삼죽면 계곡길 89,37.0870356,127.3813568,4.3,"['잔디밭', '메타세콰이어길', '농장', '산책', '테마파크', '나들이']"
수어장대,경기 광주시 남한산성면 산성리,37.4776548,127.184168,4.23,[]
고당,경기 남양주시 조안면 북한강로 121 고당,37.5362031,127.3024876,4.19,"['운치좋은', '분위기있는', '고즈넉한', '분위기좋은', '운치있는', '카페', '한옥카페', '팥빙수', '곤드레밥', '불고기', '나들이', '경치', '데이트', '힐링', '비오는날']"
드라마[낭만닥터김사부]촬영지,경기 포천시 영북면 산정리,38.0659809,127.3236845,4.23,[]
하남 나무고아원,경기 하남시 미사동 607,37.5815588,127.1954994,4.23,[]
호명산,경기 가평군 청평면 호명리,37.7262989,127.458242,4.23,"['아담한', '호젓한', '편안한', '운치있는', '신비로운', '계곡', '라이딩', '캠핑', '호수', '둘레길', '경치', '산행', '드라이브', '등산', '휴식']"
별빛마을포토랜드,경기 안산시 상록구 수인로 1723,37.3394089,126.8634489,4.23,"['화사한', '재미있는', '화려한', '작은규모', '아기자기', '미로', '공원', '저수지', '공연', '야경', '주말나들이', '프로포즈', '가족나들이', '드라이브', '데이트']"
운길산,경기 남양주시 조안면 북한강로433번길 186 수종사,37.5710953,127.3024997,4.23,"['아담한', '편안한', '포근한', '계곡', '찻집', '등반코스', '활공장', '장어', '경치', '산행', '등산', '슬로시티', '휴식']"
내리문화공원,경기 평택시 팽성읍 내리 18-2,36.974926,127.0308836,4.23,[]
독산성 세마대지,경기 오산시 양산동,37.1920151,127.0214012,4.5,"['편안한', '야경', '성곽', '트래킹', '산림욕장', '산책', '경치', '유적', '산행', '등산', '휴식']"
오산 맑음터공원,경기 오산시 누읍동 115-1,37.1366125,127.0631918,4.58,[]
당남리섬,경기 여주시 대신면 천서리 700-2,37.39606,127.5425575,3.17,[]
드라마 아스달연대기 촬영지,경기 오산시 내삼미동 240,37.1793222,127.0637762,4.23,[]
서후리숲,경기 양평군 서종면 거북바위1길 200,37.5662921,127.430153,4.3,"['목가적인', '깨끗한', '화려한', '아담한', '고즈넉한', '수목원', '계곡', '잔디밭', '캠핑', '산책', '나들이', '경치', '힐링', '등산', '산행']"
수목원프로방스,경기 포천시 신북면 탑신로 1066,37.9412549,127.1356197,4.48,[]
예크생물원,경기 여주시 흥천면 신근안터길 48,37.3010889,127.5515538,4.52,"['작은공간', '아기자기', '이국적', '아담한', '깨끗한', '썰매', '동물농장', '키즈카페', '동물원', '짚라인', '휴식', '드라이브', '동물체험', '승마체험', '나들이']"
열미리계곡,경기 광주시 곤지암읍 열미길 431,37.3855506,127.3568494,4.23,"['계곡', '캠핑', '백숙', '삼겹살', '닭백숙', '나들이']"
용소폭포,경기 가평군 북면 적목리,37.9794527,127.4282149,4.23,"['계곡', '캠핑', '닭백숙', '삼겹살', '폭포', '숨은', '경치']"
산들소리카페,경기 남양주시 불암산로59번길 48-31 산들소리수목원,37.6505556,127.1011111,4.13,"['화사한', '재미있는', '아기자기', '편안한', '깨끗한', '수목원', '체험학습', '트릭아트', '박물관', '눈썰매장', '주말나들이', '힐링', '드라이브', '등산', '동물체험']"
철쭉동산,경기 군포시 산본동 1152-10,37.3555027,126.9252363,4.68,"['신비로운', '조그마한', '화려한', '편안한', '화사한', '도시락', '공원', '공연', '철쭉', '꽃구경', '나들이', '산행', '데이트', '등산', '봄꽃']"
수지외식타운,경기 용인시 수지구 풍덕천동,37.3241541,127.0932899,4.5,[]
아산호,경기 평택시 현덕면 대안리 1396,36.9237808,126.9485967,3.75,"['근사한', '깨끗한', '아담한', '오리배', '라이딩', '캠핑', '붕어', '호수', '나들이', '경치', '데이트', '드라이브', '등산']"
아프리카예술박물관 카라반펜션캠핑장,경기 포천시 소흘읍 광릉수목원로 967,37.775906,127.1388607,4.25,"['재미있는', '화려한', '편안한', '수목원', '난타', '캠핑', '박물관', '공연', '나들이', '경치', '가족나들이', '유물', '휴식']"
어비계곡,경기 가평군 설악면 천안리,37.6415696,127.4686187,4.23,"['깨끗한', '스노클링', '계곡', '캠핑', '휴양림', '백숙', '나들이', '산행', '힐링', '경치', '힐링타임']"
김중업건축박물관,경기 안양시 만안구 예술공원로103번길 4,37.4185936,126.9178858,4.23,"['재미있는', '분위기좋은', '작은공간', '고즈넉한', '우아한', '공원', '유원지', '박물관', '백숙', '계곡', '나들이', '데이트', '유물', '등산', '휴식']"
남양주유기농테마파크코코몽팜빌리지,경기 남양주시 조안면 북한강로 881,37.595598,127.3374459,4.06,"['아늑한', '조그마한', '재미있는', '작은공간', '작은규모', '수영장', '동물농장', '테마파크', '물놀이장', '눈썰매장', '주말나들이', '드라이브', '가족나들이', '동물체험', '딸기체험']"
행주산성공원,경기 고양시 덕양구 행주외동 140-8,37.5981374,126.8197372,4.23,[]
부천시남부수자원생태공원,경기 부천시 연동로 89,37.4702324,126.8273857,4.5,"['수목원', '도시락', '생태공원', '산책', '물놀이장', '주말나들이', '나들이', '데이트', '휴식', '피크닉']"
호명호수,경기 가평군 청평면 호명리 5,37.7488264,127.475591,4.23,"['분위기있는', '깨끗한', '분위기좋은', '편안한', '운치있는', '저수지', '둘레길', '전망대', '갤러리카페', '호수', '경치', '드라이브', '단풍여행', '산행', '등산']"
오두산 통일전망대,경기 파주시 탄현면 필승로 369 오두산통일전망대,37.773117,126.6772249,4.67,"['조그마한', '재미있는', '친절한', '심플한', '평화로운', '아울렛', '공원', '전망대', '박물관', '극장', '가족여행', '가족나들이', '드라이브', '체험관', '기차여행']"
양수리,경기 양평군 양서면 양수리,37.57343,127.3446625,4.29,"['시장', '연꽃', '드라이브']"
카페 대너리스,경기 남양주시 조안면 북한강로 914,37.5974684,127.3390226,4.34,"['분위기깡패', '분위기있는', '분위기좋은', '엔틱한', '빈티지한', '카페', '도쿄롤', '디저트', '케이크', '브런치', '힐링', '경치', '데이트', '드라이브', '나들이']"
화악산,경기 가평군 북면,37.8855879,127.5502287,4.23,"['깨끗한', '화려한', '편안한', '웅장한', '구절초', '계곡', '라이딩', '철쭉', '폭포', '경치', '산행', '나들이', '등산', '휴식']"
부천종합운동장,경기 부천시 소사로 482,37.5228052,126.8032697,4.25,"['공원', '놀이동산', '박물관', '인라인', '수영장', '나들이', '착한가격', '데이트', '힐링', '피크닉']"
백로주유원지휴양림,경기 포천시 영중면 호국로 2671-22,37.9823583,127.2421576,4.63,"['잔디밭', '유원지', '캠핑', '휴양림', '안동소주']"
장안문,경기 수원시 팔달구 장안동,37.2863101,127.0127694,4.23,"['화려한', '옛모습', '웅장한', '만두', '공원', '성곽', '산책', '야경', '나들이', '경치', '데이트', '휴식', '촬영지']"
기와집순두부 조안본점,경기 남양주시 조안면 북한강로 133,37.5372294,127.3024064,4.33,"['고풍스러운', '고즈넉한', '분위기좋은', '운치있는', '깨끗한', '녹두전', '백반', '순두부', '손두부', '두부요리', '나들이', '자극적인', '데이트', '드라이브', '딸기체험']"
희망대공원,경기 성남시 수정구 공원로370번길 30 희망대공원,37.4472469,127.1504561,4.88,"['아담한', '화려한', '운치있는', '평화로운', '산책', '공원', '놀이동산', '도서관', '물놀이장', '나들이', '경치', '휴식', '단풍구경', '등산']"
두메향기,경기 양평군 양서면 목왕로592번길 62-59,37.5553821,127.3806038,4.1,"['근사한', '깨끗한', '화려한', '편안한', '운치있는', '비빔밥', '공원', '트래킹', '산책', '산나물', '주말나들이', '드라이브', '경치', '주말여행', '등산']"
동동국수집,경기 남양주시 와부읍 경강로 908 팔당화로구이,37.5571194,127.2365918,4.38,"['친절함', '친절하고', '조그마한', '분위기좋은', '만두', '육개장', '비빔국수', '칼국수', '국수집', '나들이', '경치', '데이트', '드라이브', '힐링']"
파주 프리미엄 아울렛,경기 파주시 탄현면 필승로 200 파주프리미엄아울렛,37.7691847,126.6970148,4.36,[]
고인돌공원,경기 오산시 금암동,37.1750794,127.0453531,4.23,[]
곤지암리조트 스키장,경기 광주시 도척면 도척윗로 278,37.3372414,127.2953076,4.46,"['어묵', '라이딩', '스노우보드', '스키장', '눈썰매장', '휴식']"
모네정원,경기 부천시 고강동 185-3,37.5315006,126.8108657,4.64,['농장']
웃다리문화촌,경기 평택시 서탄면 용소금각로 438-14,37.0688233,127.0081637,4.33,"['작은공간', '아담한', '이국적', '재미있는', '편안한', '체험학습', '편백나무', '캠핑', '박물관', '동물농장', '나들이', '한복체험', '드라이브', '체험관', '촬영지']"
장흥관광지,경기 양주시 장흥면 석현리 산2-3,37.7349342,126.9541051,4.23,"['재미있는', '깨끗한', '계곡', '유원지', '백숙', '공원', '미술관', '나들이', '드라이브', '사진찍기', '가족여행']"
사기막골도예촌,경기 이천시 경충대로2993번길 56,37.2935556,127.4116316,4.7,"['감각적인', '아기자기', '화려한', '편안한', '고즈넉한', '아울렛', '공방', '쌀밥정식', '도예공방', '비엔날레', '나들이', '도자기체험', '가을축제', '드라이브', '데이트']"
아쿠아필드 하남,경기 하남시 미사대로 750 스타필드 하남 3층,37.5456143,127.2240641,4.4,"['근사한', '깨끗한', '편한의자', '편안한', '럭셔리한', '유수풀', '편백나무', '노천온천', '수영장', '워터파크', '나들이', '경치', '데이트', '힐링', '휴식']"
칼봉산자연휴양림,경기 가평군 가평읍 경반안로 454,37.8365339,127.4650719,4.31,"['깨끗한', '친절한', '편안한', '웅장한', '트래킹', '계곡', '캠핑', '휴양림', '산책', '경치', '가족여행', '산행', '힐링', '등산']"
곤충생태관,경기 구리시 수택동 89,37.5919331,127.1612824,4.23,"['작은공간', '재미있는', '아담한', '깨끗한', '닥터피쉬', '체험학습', '전망대', '박물관', '식물원', '휴식', '나들이', '데이트', '체험관', '숨어있는']"
안골계곡,경기 의정부시 가능동,37.7387661,127.0159233,4.23,"['운치있는', '계곡', '둘레길', '폭포', '백숙', '국립공원', '경치', '산행', '나들이', '등산', '휴식']"
건원릉,경기 구리시 인창동 산4-1,37.6245831,127.1312408,4.19,"['재미있는', '신비한', '궁궐', '억새', '유적지', '억새풀', '갈대', '경치', '유적']"
고봉산,경기 고양시 일산동구 성석동,37.7019692,126.7952805,4.6,"['공원', '둘레길', '산책', '등산', '휴식']"
바다향기수목원,경기 안산시 단원구 대부황금로 399,37.2546417,126.5960467,3.6,[]
화서문,경기 수원시 팔달구 장안동 334,37.2854593,127.0096568,4.32,"['웅장한', '막걸리', '공원', '억새', '성곽', '갈대밭', '나들이', '경치']"
추읍산,경기 양평군 개군면 내리,37.445042,127.5647672,4.23,"['아담한', '호젓한', '화려한', '편안한', '깨끗한', '저수지', '카누', '둘레길', '트래킹', '산림욕장', '휴식', '경치', '산행', '등산', '봄꽃']"
도당근린공원,경기 부천시 여월동 산30-1,37.5118728,126.7910062,4.6,"['재미있는', '화려한', '수목원', '공원', '둘레길', '산책', '장미정원', '나들이', '가족나들이', '사진찍기', '데이트']"
