name,region,address,lat,lon
국립중앙과학관,대전 유성구,대전광역시 유성구 대덕대로 481,36.3771312,127.3749897
옛터민속박물관,대전 동구,대전광역시 동구 산내로 321-35,36.21510494,127.4408443
신탄진도서관,대전 대덕구,대전광역시 대덕구 신탄진동로 64,36.44650532,127.437329
한남대학교 성지관,대전 대덕구,대전광역시 대덕구 한남로 70,36.35279952,127.4233094
평송청소년문화센터,대전 서구,대전광역시 서구 둔산대로 201,36.36585777,127.3918502
충남대학교박물관,대전 유성구,대전광역시 유성구 대학로 99,36.36836824,127.3420015
