name,region,tel,keyword,photo,address,lat,lon
(주)우리술,경기 가평군,031-585-8525,"['견학', '관광지', '산업관광', '수도권', '연중무휴', '우리술', '이색체험', '전통산업']",https://cdn.visitkorea.or.kr/img/call?cmd=VIEW&id=d6251033-a3d9-4249-88c2-1922f3f68e88&thumb,경기도 가평군 조종면 대보간선로 29,37.8197693,127.3562591
1.21 무장공비 침투로,경기 연천군,031-839-2144,"['관광지', '역사', '역사공부', '역사관광지', '역사를품은곳', '역사문화재', '역사속']",https://cdn.visitkorea.or.kr/img/call?cmd=VIEW&id=20d43020-e856-4fe9-bf5f-7608c6acc6c8&thumb,경기도 연천군 장남면 반정리 294,37.9701273,126.8280474
38선마을,경기 연천군,031-835-1124,"['관광지', '농촌마을', '농촌여행', '농촌체험여행', '역사공부', '역사를품은곳']",https://cdn.visitkorea.or.kr/img/call?cmd=VIEW&id=undefined&thumb,경기도 연천군 백학면 노곡로42번길 5,37.9953172,126.9237112
OBS 방송역사체험관,경기 부천시,032-670-6900,"['OBS', 'OBS방송역사체험관', '관광지', '문화콘텐츠산업', '박물관', '방송역사체험관']",https://cdn.visitkorea.or.kr/img/call?cmd=VIEW&id=a197b0d2-1679-4ebe-95ca-31e8a8d6cb0c&thumb,경기도 부천시 오정로 233,37.5293322,126.7842597
가나아트파크,경기 양주시,031-877-0500,"['관광지', '나홀로여행', '문화공간', '문화예술', '문화예술공간', '문화예술활동']",https://cdn.visitkorea.or.kr/img/call?cmd=VIEW&id=060f1056-4fb3-4012-8269-3a2e59cf063c&thumb,경기도 양주시 장흥면 권율로 117,37.7258899,126.9496427
가덕산,경기 가평군,031-582-8830,"['관광지', '자연']",https://cdn.visitkorea.or.kr/img/call?cmd=VIEW&id=4de95fdd-e384-4237-8d72-d2ba62227632&thumb,경기 가평군 북면,37.8855879,127.5502287
가루매마을,경기 양평군,031-774-3908,"['가족과함께', '가족체험', '관광지', '농촌', '농촌체험', '농촌체험마을', '농촌체험학습']",https://cdn.visitkorea.or.kr/img/call?cmd=VIEW&id=660d8f05-c80d-4b24-ad66-3cae507520ff&thumb,경기도 양평군 지평면 부일길 101,37.4517049,127.6140253
가리산(포천),경기 포천시,031-538-3341,"['가리산', '관광지', '수도권', '자연', '트레킹']",https://cdn.visitkorea.or.kr/img/call?cmd=VIEW&id=15a21c46-129b-4d03-9c27-21ba44e5dbde&thumb,경기도 포천시 이동면 장암리,38.0297307,127.3844939
가원미술관,경기,02-504-3730,"['가원미술관', '가족과함께', '관광지', '문화체험', '아이와함께']",https://cdn.visitkorea.or.kr/img/call?cmd=VIEW&id=6f61ee62-db45-453f-8444-c86ee98d77f7&thumb,경기도 과천시 문원동 226번지,37.4239009,126.9992125
가월리 · 주월리 구석기 유적,경기 파주시,031-940-5831,"['관광지', '안보관광', '역사공부', '역사관광지', '역사를품은곳', '역사문화재']",https://cdn.visitkorea.or.kr/img/call?cmd=VIEW&id=0be75d4b-3213-41c9-83df-0b797fbf4430&thumb,경기도 파주시 적성면,37.954643,126.9169755
가치가(관광두레 주민사업체),경기 가평군,031-584-4267,"['가평가볼만한곳', '공정여행', '관광두레', '관광두레_주민사업체', '관광지', '남녀노소']",https://cdn.visitkorea.or.kr/img/call?cmd=VIEW&id=5d7874b6-72cd-42b9-b2f1-9c6fc0eb9326&thumb,경기도 가평군 가평읍 용추로 269,37.8495927,127.484139
가평 아홉마지기마을,경기 가평군,031-582-3115,"['관광지', '농촌', '농촌여행코스', '농촌체험', '농촌체험마을', '농촌체험여행']",https://cdn.visitkorea.or.kr/img/call?cmd=VIEW&id=3fde8e1a-fd6a-4c17-8e4c-6cba5c08d26b&thumb,경기도 가평군 가평읍 용추로 238,37.8481047,127.4875423
가평 연인산마을,경기 가평군,031-582-9334,"['가족과함께', '가족휴양', '가평숙소', '관광지', '연인과함께', '이색체험', '자연관광지']",https://cdn.visitkorea.or.kr/img/call?cmd=VIEW&id=cd08439b-9b08-4e7c-8071-3f1da2ebcf26&thumb,경기도 가평군 북면 백둔로 417-11,37.9013619,127.4624756
가평 연하리향나무,경기 가평군,031-580-2067,"['관광지', '역사', '역사공부', '역사를품은곳', '역사문화재', '역사속', '역사속으로']",https://cdn.visitkorea.or.kr/img/call?cmd=VIEW&id=a9a4a0d1-5082-4049-b01b-64db0218a362&thumb,경기도 가평군 상면 역촌길 68,37.7991757,127.3489105
가평 영양잣마을,경기 가평군,031-585-6969,"['가평영양잣마을', '관광지', '농촌마을', '농촌여행', '농촌체험마을', '수도권']",https://cdn.visitkorea.or.kr/img/call?cmd=VIEW&id=3a36d918-f9cc-4e90-afd9-adbe8a3c1b6b&thumb,경기도 가평군 상면 축령로 70,37.7741023,127.3646467
가평 현충탑,경기 가평군,031-580-4016,"['가평현충탑', '관광지', '수도권', '아이와함께', '애국지사', '역사', '역사공부']",https://cdn.visitkorea.or.kr/img/call?cmd=VIEW&id=499bf7d6-4e41-4457-9289-210130cddbcc&thumb,경기도 가평군 가평읍 호반로 2540,37.812498,127.5152062
가평군목공예영농조합,경기 가평군,031-581-0550,"['가평군목공예영농조합', '관광지', '목공예체험', '이색체험']",https://cdn.visitkorea.or.kr/img/call?cmd=VIEW&id=3846e68c-0b72-4b4e-b613-21009a5e7fb5&thumb,경기도 가평군 가평읍 경춘로 2045-65,37.8163136,127.4983534
가평별묘,경기 가평군,031-580-2063,"['관광지', '역사', '역사관광지', '역사를품은곳', '역사문화재', '역사속', '역사속으로']",https://cdn.visitkorea.or.kr/img/call?cmd=VIEW&id=6ab02414-34bd-4de7-8381-1dac390d44f5&thumb,경기도 가평군 설악면 방일리,37.6186095,127.488984
가평삼회 생태복원지구,경기 가평군,031-584-8541,"['가족여행', '가평삼회생태복원지구', '걷기여행', '걷기좋은길', '관광지', '당일치기여행']",https://cdn.visitkorea.or.kr/img/call?cmd=VIEW&id=2889928e-6849-45c0-82b3-71ba9bde778e&thumb,경기도 가평군 청평면 북한강로 2047,37.6994213,127.3929156
가평의병3.1항일운동기념비,경기 가평군,1577-0606,"['3·1운동', '3·1운동_100주년_여행지추천', '관광지', '독립운동', '아이와함께']",https://cdn.visitkorea.or.kr/img/call?cmd=VIEW&id=undefined&thumb,경기도 가평군 가평읍 대곡리,37.8223783,127.5045779
가평학도의용대참전기념비,경기 가평군,031-580-2503,"['가평학도의용대참전기념비', '관광지', '기념비', '수도권', '애국정신', '역사']",https://cdn.visitkorea.or.kr/img/call?cmd=VIEW&id=cc6c1d50-1b22-4559-9804-3abc1db1e6c8&thumb,경기도 가평군 가평읍 문화로 131,37.825131,127.5062327
가평향교,경기 가평군,031-580-2063,"['가평향교', '관광지', '수도권', '역사', '역사공부', '역사관광지', '역사를품은곳']",https://cdn.visitkorea.or.kr/img/call?cmd=VIEW&id=ad1fe2eb-2a0f-42c3-b4cb-ad141186e0cd&thumb,경기도 가평군 가평읍 향교로 23-1,37.8299466,127.5074445
가학동지석묘,경기 광명시,02-2680-6142,"['가학동지석묘', '경기도문화재자료', '관광지', '서울근교', '수도권', '역사', '역사공부']",https://cdn.visitkorea.or.kr/img/call?cmd=VIEW&id=f8dab08f-06a3-4374-8c43-d811ae691c22&thumb,경기도 광명시 가학동,37.4126539,126.8580068
감악산 출렁다리,경기 파주시,031-940-4617,"['경치좋은곳', '관광지', '안보관광', '연인과함께', '자연속으로', '자연여행', '자연좋은곳']",https://cdn.visitkorea.or.kr/img/call?cmd=VIEW&id=172be4b1-9f42-4501-ac68-b42945db3a77&thumb,경기도 파주시 적성면 설마리 48-6,37.9391536,126.9436284
감악산(파주),경기 양주시,031-940-4612,"['걷기좋은곳', '관광지', '등산', '등산객', '등산로', '수도권', '양주감악산', '자연']",https://cdn.visitkorea.or.kr/img/call?cmd=VIEW&id=1f0034e2-65e2-4895-8953-a48e72cf9a87&thumb,경기도 파주시 적성면 감골길 48,37.9119705,126.9522371
강북 아리수 정수센터,경기 남양주시,02-3146-5818,"['강북아리수정수센터', '견학', '관광지', '산업관광', '수도권', '아리수정수센터']",https://cdn.visitkorea.or.kr/img/call?cmd=VIEW&id=063a9a61-eefb-4138-9d87-0394a09dee3c&thumb,경기도 남양주시 고산로 171,37.5957369,127.1861901
강씨봉,경기 포천시,031-538-3341,"['가족과함께', '강씨봉', '관광지', '수도권', '자연', '풍경좋은곳']",https://cdn.visitkorea.or.kr/img/call?cmd=VIEW&id=29d2068d-b7f3-4803-b682-eebdf3e24be6&thumb,경기도 포천시 일동면 사직리,37.986204,127.3555719
강영천효자문,경기 가평군,031-580-2063,"['관광지', '역사']",https://cdn.visitkorea.or.kr/img/call?cmd=VIEW&id=f674f3b2-9b53-41a5-ba73-35e6f73d0483&thumb,경기도 가평군 북면 논남기길 402-19,37.9689327,127.4215943
강한사,경기 여주시,031-887-2868,"['관광지', '역사', '역사공부', '역사관광지', '역사를품은곳', '역사문화재', '역사속']",https://cdn.visitkorea.or.kr/img/call?cmd=VIEW&id=6c4d456c-3109-48f5-ad3e-054875768542&thumb,경기도 여주시 청심로 113,37.2992995,127.6332636
개원사(경기),경기 광주시,031-743-6568,"['관광지', '광주개원사', '불교', '불교문화', '사찰', '사찰', '사찰여행', '수도권']",https://cdn.visitkorea.or.kr/img/call?cmd=VIEW&id=abe8e8b7-eba8-4256-a210-0f31c2d6e899&thumb,경기도 광주시 남한산성면 남한산성로 731-73,37.4744028,127.1852916
갯골생태문화탐방로,경기 시흥시,031-488-6900,"['갯골생태문화탐방로', '걷기길', '관광지', '국가습지보호구역', '생태관광', '생태관광지']",https://cdn.visitkorea.or.kr/img/call?cmd=VIEW&id=6f163555-79fd-4133-9882-0a91ab6454aa&thumb,경기도 시흥시 동서로 287,37.3871749,126.8124991
갱매폭포,경기,02-502-5001,"['관광지', '자연']",https://cdn.visitkorea.or.kr/img/call?cmd=VIEW&id=c063293c-ea87-4947-833d-25827dfab091&thumb,경기도 과천시 막계동,37.426251,127.0273859
건강나라,경기 안성시,031-674-8255,"['가족과함께', '관광지', '남녀노소', '리조트', '아이와함께', '연인과함께', '자연환경']",https://cdn.visitkorea.or.kr/img/call?cmd=VIEW&id=51940fb2-26c6-4056-974f-85d41878da15&thumb,경기도 안성시 죽산면 죽양대로 136-16,37.0937854,127.4371381
걸포중앙공원,경기 김포시,031-980-2974,"['걷기길', '걸포중앙공원', '관광지', '놀이터', '산책길', '산책하기', '산책하기좋은곳']",https://cdn.visitkorea.or.kr/img/call?cmd=VIEW&id=ca0c7f4c-e395-46d3-973b-90eaf0827328&thumb,경기도 김포시 걸포1로 60-42,37.6340933,126.709501
검단사(파주),경기 파주시,031-949-8729,"['관광지', '불교', '불교문화', '사찰', '사찰여행', '자연환경', '전통사찰', '휴식여행']",https://cdn.visitkorea.or.kr/img/call?cmd=VIEW&id=d9b7daf1-c4d2-4ddc-9738-115285882dd4&thumb,경기도 파주시 탄현면 필승로 292-33,37.7692065,126.6861178
검단산,경기 하남시,031-790-6341,"['가족과함께', '검단산', '관광지', '수도권', '자연', '전망좋은곳', '트레킹']",https://cdn.visitkorea.or.kr/img/call?cmd=VIEW&id=8835687d-03e1-4ff6-9bf3-3d2c27b8356f&thumb,경기도 하남시 천현동,37.5192112,127.2240306
경기 남양주 조안 [슬로시티],경기 남양주시,031-521-5686,"['가족과함께', '걷기길', '걷기여행', '관광지', '남한강', '북한강', '산책하기좋은곳']",https://cdn.visitkorea.or.kr/img/call?cmd=VIEW&id=4e91fce7-cebb-48bd-9254-8601bfc89187&thumb,경기도 남양주시 조안면 북한강로 413,37.5589813,127.3122976
경기 남양주시,경기 남양주시,031-590-8861,"['11월추천가볼만한곳', '걷기길', '걷기여행', '관광지', '남양주유기농테마파크']",https://cdn.visitkorea.or.kr/img/call?cmd=VIEW&id=d5844b1e-6f27-42f7-b6bc-942c42746410&thumb,경기도 남양주시 조안면 전역,37.5358482,127.3034032
경기도립 물향기수목원,경기 오산시,031-378-1261,"['걷기길', '경기도립물향기수목원', '관광지', '생태관광', '수도권', '숲치유', '자연']",https://cdn.visitkorea.or.kr/img/call?cmd=VIEW&id=91eaa055-bd54-422a-9aaf-73fe8f5f8b9c&thumb,경기도 오산시 청학로 211,37.1684823,127.0554177
경기미래교육 파주캠퍼스,경기 파주시,1588-0554,"['경기영어마을파주캠프', '관광지', '문화프로그램', '수도권', '아이와함께', '여름방학에가볼만한곳']",https://cdn.visitkorea.or.kr/img/call?cmd=VIEW&id=fc15e769-8104-4dbe-a28f-ca5ad34d4ce5&thumb,경기도 파주시 탄현면 얼음실로 40,37.784985,126.703487
경기영어마을 양평캠프,경기 양평군,031-770-1300,"['가족체험', '경기영어마을양평캠프', '관광지', '드라마촬영지', '문화공간', '문화활동']",https://cdn.visitkorea.or.kr/img/call?cmd=VIEW&id=285795d9-1182-4c4b-aa3b-5d4dc953a8a7&thumb,경기도 양평군 용문면 연수로 209,37.4983994,127.5758006
경기콘텐츠 코리아 랩,경기 성남시,031-776-4677,"['관광지', '테마']",https://cdn.visitkorea.or.kr/img/call?cmd=VIEW&id=def43730-d9ed-4aa4-bd75-539876aa3d4a&thumb,경기도 성남시 분당구 대왕판교로645번길 12,37.400161,127.104948
경안천 습지생태공원,경기 광주시,031-760-3762,"['걷기길', '경안천', '경안천습지생태공원', '관광지', '생태관광', '생태관광지']",https://cdn.visitkorea.or.kr/img/call?cmd=VIEW&id=aaa5cb60-0434-426d-844d-16b3b117cb56&thumb,경기도 광주시 퇴촌면 정자동길 119,37.4455574,127.322063
경안천 습지생태공원,경기 광주시,031-760-4482,"['걷기길', '경기도자박물관', '경안천', '경안천습지생태공원', '관광지', '박물관']",https://cdn.visitkorea.or.kr/img/call?cmd=VIEW&id=7d8fea61-72a0-4448-b929-1fdd1562eca5&thumb,경기도 광주시 퇴촌면 정지리 447,37.4589505,127.3038475
경앙사,경기 안성시,031-678-2504,"['관광지', '역사', '역사공부', '역사관광지', '역사를품은곳', '역사문화재', '역사속']",https://cdn.visitkorea.or.kr/img/call?cmd=VIEW&id=069b7596-5bda-4158-8570-f5cde5206115&thumb,경기도 안성시 양성면 덕봉리,37.0467623,127.1910289
경인아라뱃길유람선 현대크루즈호,경기 김포시,032-882-5555,"['가족과함께', '가족여행', '경인아라뱃길유람선현대크루즈호', '경치좋은곳']",https://cdn.visitkorea.or.kr/img/call?cmd=VIEW&id=cc2c58b6-2c08-4c5c-9607-d1b221cd0e8b&thumb,경기도 김포시 고촌읍 아라육로270번길 74,37.5991386,126.7890149
경희천문대,경기 용인시,031-201-2470,"['관광지', '자연']",https://cdn.visitkorea.or.kr/img/call?cmd=VIEW&id=ab4f68c6-aa71-4cea-ade9-7b2f080d27f1&thumb,경기도 용인시 기흥구 덕영대로 1732,37.2398963,127.0818121
계류리 예술창고,경기 포천시,031-535-5677,"['관광지', '복합문화공간', '안보관광', '연인과함께', '열린문화공간', '예술창작']",https://cdn.visitkorea.or.kr/img/call?cmd=VIEW&id=undefined&thumb,경기도 포천시 신북면 양지말길 66-72,37.9573493,127.1720716
고구려대장간마을 (태왕사신기 촬영장),경기 구리시,031-550-2363,"['고구려대장간마을', '관광지', '드라마촬영지', '문화콘텐츠', '박물관', '산업관광']",https://cdn.visitkorea.or.kr/img/call?cmd=VIEW&id=014fc7d4-8e65-492b-91ac-ffe6340d3e81&thumb,경기도 구리시 우미내길,37.5627558,127.1116897
고기동 오리촌,경기 용인시,,"['가족과함께', '건강식', '관광지', '맛집', '맛집탐방', '숨은맛집', '어르신여행']",https://cdn.visitkorea.or.kr/img/call?cmd=VIEW&id=bbe2905e-c82b-40a0-b365-9ab27611ed7d&thumb,경기도 용인시 수지구 고기동,37.35822,127.0336602
고대산,경기 연천군,031-839-2061,"['가족여행', '고대산', '관광지', '서울근교여행', '수도권', '자연']",https://cdn.visitkorea.or.kr/img/call?cmd=VIEW&id=9664a476-0156-4744-9e0d-12352231c9de&thumb,경기도 연천군 신서면 평화로 3282-108,38.2366167,127.1570763
고동산,경기 양평군,031-582-8830,"['관광지', '자연']",https://cdn.visitkorea.or.kr/img/call?cmd=VIEW&id=undefined&thumb,경기 양평군 서종면,37.6065603,127.3486933
고려 공양왕릉,경기 고양시,031-8075-3396,"['가족여행', '고려공양왕릉', '관광지', '사적', '수도권', '역사', '역사공부', '역사관광지']",https://cdn.visitkorea.or.kr/img/call?cmd=VIEW&id=89599f32-efc1-4e6f-97e7-16da782eca3a&thumb,경기도 고양시 덕양구 호국로1121번길 95-61 (원당동),37.680108,126.8600383
고모저수지,경기 포천시,031-538-4102,"['강', '고모저수지', '관광지', '수도권', '자연', '휴양여행']",https://cdn.visitkorea.or.kr/img/call?cmd=VIEW&id=19eb0da2-c6c7-4c94-ac9b-eee5468cbe71&thumb,경기도 포천시 소흘읍 죽엽산로 452,37.7946036,127.1651233
고삼호수,경기 안성시,031-672-3481,"['관광지', '자연']",https://cdn.visitkorea.or.kr/img/call?cmd=VIEW&id=4ba397bd-0be4-429e-9102-52dd1bdea5d7&thumb,경기도 안성시 고삼면 향림길 50,37.0884129,127.2849411
고성산,경기 안성시,031-677-1330,"['관광지', '자연']",https://cdn.visitkorea.or.kr/img/call?cmd=VIEW&id=undefined&thumb,경기도 안성시 양성면 덕봉리,37.0467623,127.1910289
고송정지,경기 안산시,031-481-3059,"['관광지', '역사', '역사공부', '역사관광지', '역사를품은곳', '역사문화재', '역사속']",https://cdn.visitkorea.or.kr/img/call?cmd=VIEW&id=ba3e262d-6a0b-4231-8e64-e8a82b4565aa&thumb,경기도 안산시 단원구 화정동,37.356269,126.8273848
고양 관광특구,경기 고양시,031-8075-3405,"['가볼만한축제', '관광지', '남녀노소', '데이트코스', '도심여행', '복합문화공간']",https://cdn.visitkorea.or.kr/img/call?cmd=VIEW&id=9c3e0ae9-38f2-480d-861d-33856ae18bbb&thumb,경기도 고양시 일산서구 가좌1로 10,37.6910041,126.7206709
고양 구 일산역사,경기 고양시,031-8075-3396,"['관광지', '구일산역사', '등록문화재', '수도권', '역사', '역사공부', '역사관광지']",https://cdn.visitkorea.or.kr/img/call?cmd=VIEW&id=1f9a5dbc-fd7d-467b-adb5-53698583fc0b&thumb,경기도 고양시 일산서구 고양대로662번길 35,37.6829489,126.7685461
고양 벽제관지,경기 고양시,031-8075-3396,"['관광지', '벽제관지', '사적', '수도권', '역사', '역사공부', '역사관광지', '역사를품은곳']",https://cdn.visitkorea.or.kr/img/call?cmd=VIEW&id=1b6c0e8f-2633-4f3e-8277-4529463ef50f&thumb,경기도 고양시 덕양구 벽제관로 34-16,37.7045402,126.9009863
고양 서삼릉(장경왕후) [유네스코 세계문화유산],경기 고양시,031-962-6009,"['가족여행', '고양서삼릉', '관광지', '교과서속여행', '나들이', '당일치기여행']",https://cdn.visitkorea.or.kr/img/call?cmd=VIEW&id=125c424d-5d96-4bd0-ae92-dae5c8006a20&thumb,경기도 고양시 덕양구 서삼릉길 233-126,37.6636635,126.8679732
고양 서오릉 [유네스코 세계문화유산],경기 고양시,02-359-0090,"['가족여행', '고양서오릉', '관광지', '교과서속여행', '나들이', '당일치기여행']",https://cdn.visitkorea.or.kr/img/call?cmd=VIEW&id=9b77cfa4-e789-4a72-ad49-e29b4e694966&thumb,경기도 고양시 덕양구 서오릉로 334-32,37.6253341,126.8978397
고양대덕생태공원,경기 고양시,,"['공원', '관광지', '산책하기좋은곳', '휴양관광지', '힐링&휴양여행']",https://cdn.visitkorea.or.kr/img/call?cmd=VIEW&id=de682a3b-8059-4ca3-bdea-7a7d436935a6&thumb,경기 고양시 덕양구 현천동 770,37.5894654,126.8385671
고양향교,경기 고양시,031-8075-3396,"['경기도문화재자료', '고양향교', '관광지', '수도권', '역사', '역사공부', '역사관광지']",https://cdn.visitkorea.or.kr/img/call?cmd=VIEW&id=cf2ceb2f-bee9-4174-8699-82bdc6bfeb6d&thumb,경기도 고양시 덕양구 대양로285번길 33-13 (고양동),37.7037037,126.8948771
곤지암리조트,경기 광주시,1661-8787,"['가족여행', '경기도여행', '곤지암리조트', '관광지', '당일치기여행', '수도권']",https://cdn.visitkorea.or.kr/img/call?cmd=VIEW&id=36043e26-6393-40f0-8835-8e35dafe0058&thumb,경기도 광주시 도척면 도척윗로 278,37.3372414,127.2953076
곤지암리조트 힐링캠퍼스,경기 광주시,031-8026-6777,"['가족과함께', '관광지', '국내힐링여행', '언택트관광지_100선', '자연좋은곳']",https://cdn.visitkorea.or.kr/img/call?cmd=VIEW&id=a2af8141-aee1-4087-a2ff-c8de790ce65b&thumb,경기도 광주시 도척면 도척윗로 278,37.3372414,127.2953076
곤충생태관,경기 구리시,031-550-2586,"['곤충생태관', '관광지', '수도권', '자연', '체험학습']",https://cdn.visitkorea.or.kr/img/call?cmd=VIEW&id=69370b95-fae8-4b29-a4e7-17995f733709&thumb,경기도 구리시 검배로 200,37.5919331,127.1612824
곱돌광산약수터,경기 하남시,031-790-6114,"['검단산', '곱돌광산약수터', '관광지', '수도권', '자연']",https://cdn.visitkorea.or.kr/img/call?cmd=VIEW&id=372d2217-394f-4906-ae53-b8313f3a88c9&thumb,경기도 하남시 창우동,37.5389973,127.23066
공릉천,경기 고양시,031-909-9000,"['가을경치', '경치좋은곳', '관광지', '남녀노소', '산책길', '산책하기', '산책하기좋은곳']",https://cdn.visitkorea.or.kr/img/call?cmd=VIEW&id=0167ae62-f4af-4d87-9bed-c65d90da9926&thumb,경기도 고양시 덕양구 신원동,37.6743374,126.877559
과천향교,경기,02-502-2944,"['경기도문화재자료', '과천향교', '관광지', '서울근교여행', '수도권', '역사', '역사관광지']",https://cdn.visitkorea.or.kr/img/call?cmd=VIEW&id=33c9fdc3-1a3a-42e1-a793-075a36af7de7&thumb,경기도 과천시 자하동길 18,37.4336055,126.9873872
관곡지,경기 시흥시,031-310-6223,"['관곡지', '관광지', '수도권', '자연', '향토유적']",https://cdn.visitkorea.or.kr/img/call?cmd=VIEW&id=1b2bb442-db4e-42ba-9342-1f532c0d2d7b&thumb,경기도 시흥시 관곡지로 93,37.4024096,126.8035998
관음산,경기 포천시,031-538-3341,"['관광지', '관음산', '수도권', '자연', '트레킹', '풍경좋은곳']",https://cdn.visitkorea.or.kr/img/call?cmd=VIEW&id=610cbed5-06bb-49f7-b1a4-a6d86c5229be&thumb,경기도 포천시 이동면,38.0306291,127.3675561
광개토태왕비ㆍ동상,경기 구리시,031-557-1010,"['경관광장', '관광지', '광개토동상', '구리시', '동상', '아이와함께', '역사', '역사공부']",https://cdn.visitkorea.or.kr/img/call?cmd=VIEW&id=43e90c1d-a7c8-4595-8695-2ed994a01eca&thumb,경기도 구리시 장자대로 34,37.5869034,127.1341869
광교 프라이부르크전망대,경기 수원시,070-8800-2460,"['경치좋은곳', '관광지', '남녀노소', '산책길', '산책하기', '산책하기좋은곳', '수원가볼만한곳']",https://cdn.visitkorea.or.kr/img/call?cmd=VIEW&id=4588c704-a2ec-423b-9e7e-4695e639c5d7&thumb,경기도 수원시 영통구 광교호수공원로 102,37.283123,127.0659168
광교산,경기 수원시,031-228-4574,"['관광지', '광교산', '산림욕', '수도권', '자연', '트레킹', '풍경좋은곳']",https://cdn.visitkorea.or.kr/img/call?cmd=VIEW&id=07ebf8ea-8a5f-4ea6-92c2-5f70dc1fe035&thumb,경기도 수원시 장안구 상광교동,37.3355493,127.0172627
광교호수공원,경기 수원시,070-8800-2460,"['관광지', '수원관광', '자연', '호수공원']",https://cdn.visitkorea.or.kr/img/call?cmd=VIEW&id=8ed5d577-f12a-43a0-b8af-a2198068f8ea&thumb,경기도 수원시 영통구 광교호수로 57,37.283123,127.0659168
광명 영회원(민회빈),경기 광명시,02-2680-6142,"['관광지', '광명영회원', '사적', '서울근교여행', '수도권', '역사', '역사공부', '역사를품은곳']",https://cdn.visitkorea.or.kr/img/call?cmd=VIEW&id=f580f3d7-f7ef-4923-a86b-21c9ddf9b22c&thumb,경기도 광명시 노은사동,37.4378977,126.8502154
광명동굴,경기 광명시,070-4277-8902,"['관광명소', '관광지', '광명가볼만한곳', '교육여행', '동굴', '아이와함께', '여름가볼만한곳']",https://cdn.visitkorea.or.kr/img/call?cmd=VIEW&id=5f131b63-47c0-43a3-9064-ea53d63b5701&thumb,경기도 광명시 가학로85번길 142,37.4251755,126.8644482
광암 아리수 정수센터,경기 하남시,02-3146-5314,"['견학', '관광지', '광암아리수정수센터', '산업관광', '수도권', '아리수정수센터']",https://cdn.visitkorea.or.kr/img/call?cmd=VIEW&id=16ea36a1-38d8-4c6e-9d8e-b7b9643dc379&thumb,경기도 하남시 서하남로 293,37.519816,127.1726868
광주 곤지암도자공원,경기 광주시,031-799-1500,"['가족여행', '가족체험여행', '관광지', '광주곤지암도자공원', '교과서속여행']",https://cdn.visitkorea.or.kr/img/call?cmd=VIEW&id=f0a8273b-48d8-4e09-ac22-7c0fbf46ce20&thumb,경기도 광주시 곤지암읍 경충대로 727,37.3511041,127.3275659
광주 산두른마을 [농촌전통테마],경기 광주시,031-762-0166,"['가족체험', '관광지', '농촌체험', '농촌체험마을', '농촌체험여행', '농촌체험학습']",https://cdn.visitkorea.or.kr/img/call?cmd=VIEW&id=85a54f07-563a-4361-856b-0faf3e3bffb8&thumb,경기도 광주시 도척면 추곡길 38,37.2792319,127.291275
광주 조선백자 요지,경기 광주시,031-760-4821,"['관광지', '역사', '역사공부', '역사관광지', '역사를품은곳', '역사문화재', '역사속']",https://cdn.visitkorea.or.kr/img/call?cmd=VIEW&id=76259bbf-a2e7-42a2-a818-5b4e6befa338&thumb,경기도 광주시 남한산성면 해공로 91,37.4466198,127.268418
광주향교,경기 하남시,031-790-5632,"['관광지', '광주향교', '교과서속여행', '수도권', '역사', '역사공부', '역사관광지']",https://cdn.visitkorea.or.kr/img/call?cmd=VIEW&id=b24f39f1-9569-4d2e-b515-5139ef3d6731&thumb,경기도 하남시 대성로 126-13,37.5216847,127.1982808
교동 가마소 (한탄강 국가지질공원),경기 포천시,031-538-2312,"['경치좋은곳', '관광지', '국가지질공원', '자연', '자연경관', '자연관광지', '자연속으로']",https://cdn.visitkorea.or.kr/img/call?cmd=VIEW&id=eb375fe7-d48f-4490-ae9e-8eb97abf2eb8&thumb,경기도 포천시 관인면 중리,38.0995919,127.1978415
교동 장독대마을,경기 포천시,031-534-5211,"['관광지', '체험']",https://cdn.visitkorea.or.kr/img/call?cmd=VIEW&id=2dbaf71e-a778-45c1-9ec9-e1cc5bc016f1&thumb,경기도 포천시 관인면 교동길 123,38.0993524,127.2147458
교하동 고인돌 산림욕장,경기 파주시,031-940-4612,"['관광지', '안보관광', '역사관광지', '역사를품은곳', '역사문화재', '역사속', '역사속으로']",https://cdn.visitkorea.or.kr/img/call?cmd=VIEW&id=f1871d3c-8932-4fbc-975b-d75b070610f3&thumb,경기도 파주시 당하2길 172,37.7447959,126.743262
교하향교,경기 파주시,031-940-5831,"['경기도문화재자료', '관광지', '교하향교', '수도권', '역사', '역사공부', '역사관광지']",https://cdn.visitkorea.or.kr/img/call?cmd=VIEW&id=3a96ed27-31c4-4a00-a391-85aed68a2393&thumb,경기도 파주시 쇠재로 91,37.7496376,126.776813
구라이골 (한탄강 국가지질공원),경기 포천시,031-538-2312,"['관광지', '국가지질공원', '자연', '자연관광지', '자연속으로', '자연여행', '자연좋은곳']",https://cdn.visitkorea.or.kr/img/call?cmd=VIEW&id=9e1bee83-cb87-4d30-8654-749a803c5e9f&thumb,경기도 포천시 창수면 운산리,38.0524436,127.2064349
구리 동구릉 [유네스코 세계문화유산],경기 구리시,031-563-2909,"['가족여행', '관광지', '교과서속여행', '구리동구릉', '나들이', '당일치기여행']",https://cdn.visitkorea.or.kr/img/call?cmd=VIEW&id=4ce63be7-85be-4c34-a175-8ce655641121&thumb,경기도 구리시 동구릉로 197,37.6197924,127.131505
구리 명빈묘,경기 구리시,031-550-2546,"['관광지', '명빈묘', '문화재', '수도권', '역사', '역사공부', '역사관광지', '역사를품은곳']",https://cdn.visitkorea.or.kr/img/call?cmd=VIEW&id=91b8814c-5e8d-4795-a4c6-d6331936c1f8&thumb,경기도 구리시 아천동,37.5699411,127.1166396
구리 자원회수시설,경기 구리시,031-550-2477,"['견학', '관광지', '구리자원회수시설', '나들이', '복합문화시설', '산업관광', '수도권']",https://cdn.visitkorea.or.kr/img/call?cmd=VIEW&id=e2b0b896-d587-4437-a166-dc8407e917c8&thumb,경기도 구리시 왕숙천로 49,37.5888392,127.1606921
구리시민한강공원(코스모스공원),경기 구리시,031-550-2474,"['가족여행', '걷기길', '걷기여행', '관광지', '구리한강시민공원', '데이트코스']",https://cdn.visitkorea.or.kr/img/call?cmd=VIEW&id=18dcbf12-ba40-48ba-a956-d4a35f2261e6&thumb,경기도 구리시 토평동,37.5782765,127.1490031
구리역공원,경기 구리시,031-550-2045,"['걷기길', '관광지', '구리역', '구리역공원', '도심공원', '산책하기', '산책하기좋은곳']",https://cdn.visitkorea.or.kr/img/call?cmd=VIEW&id=dd525d3f-5b4c-4cbd-ba00-3f512ee572d7&thumb,경기도 구리시 인창동,37.6146576,127.1325968
구리타워,경기 구리시,031-550-2880,"['관광지', '구리타워', '기념관', '나들이', '데이트코스', '무료관람', '복합문화공간']",https://cdn.visitkorea.or.kr/img/call?cmd=VIEW&id=a7c8941b-ff41-4cc4-b713-adccfb756eeb&thumb,경기도 구리시 왕숙천로 49,37.5888392,127.1606921
구봉도 낙조전망대,경기 안산시,031-481-3408,"['경치좋은곳', '관광지', '바다경치', '바다내음', '사진찍기', '사진찍기좋은곳']",https://cdn.visitkorea.or.kr/img/call?cmd=VIEW&id=89d3050a-688b-4fe6-a69d-7fede5a565e5&thumb,경기도 안산시 단원구 대부북동,37.258289,126.5731267
구산성지,경기 하남시,031-792-8540,"['관광지', '교과서속여행', '구산성지', '드라마촬영지', '수도권', '아이와함께']",https://cdn.visitkorea.or.kr/img/call?cmd=VIEW&id=7bb55706-fd74-4145-af01-80de7faeb10e&thumb,경기도 하남시 미사강변북로 99,37.5723434,127.188921
구석구석여행사(관광두레 주민사업체),경기 연천군,031-835-4545,"['DMZ여행', '가족과함께', '관광두레', '관광두레_주민사업체', '관광지', '관광프로그램']",https://cdn.visitkorea.or.kr/img/call?cmd=VIEW&id=4b658bc1-9e29-4ac0-af73-682a1eaa9fa3&thumb,경기도 연천군 전곡읍 전곡로 112,38.0225434,127.07087
국녕사(경기),경기 고양시,02-387-0743,"['관광지', '불교', '불교문화', '사찰', '사찰여행', '역사', '자연속으로', '자연환경']",https://cdn.visitkorea.or.kr/img/call?cmd=VIEW&id=null&thumb,경기도 고양시 덕양구 대서문길 268,37.6469968,126.9625601
국립 산음자연휴양림,경기 양평군,031-774-8133,"['걷기길', '관광지', '국립산음자연휴양림', '수도권', '자연', '자연좋은곳', '휴양여행']",https://cdn.visitkorea.or.kr/img/call?cmd=VIEW&id=bb6e12ed-e5a5-4c08-9f15-760d0941b732&thumb,경기도 양평군 단월면 고북길 347,37.5969104,127.5717371
국립 운악산자연휴양림,경기 포천시,031-534-6330,"['가족여행', '걷기길', '경기권', '관광지', '국립운악산자연휴양림', '나들이', '서울근교여행']",https://cdn.visitkorea.or.kr/img/call?cmd=VIEW&id=326a681e-4bc0-4dfc-8a91-378218ebe168&thumb,경기도 포천시 화현면 화동로184번길 39,37.8833886,127.3063647
국립 유명산자연휴양림,경기 가평군,031-589-5487,"['가족여행', '걷기길', '관광지', '국립유명산자연휴양림', '등산', '등산로', '서울근교여행']",https://cdn.visitkorea.or.kr/img/call?cmd=VIEW&id=d53d29e4-d20f-47a5-b26e-7ff4442040a5&thumb,경기도 가평군 설악면 유명산길 79-53,37.5928839,127.4920842
국립수목원(광릉숲),경기 포천시,031-540-2000,"['17_18한국관광100선', '가족여행', '관광지', '국립수목원광릉숲', '수도권']",https://cdn.visitkorea.or.kr/img/call?cmd=VIEW&id=048974a5-64ab-40f3-ab9e-fbc8fb78818b&thumb,경기도 포천시 소흘읍 광릉수목원로 415,37.7521287,127.1634605
국립양평치유의숲,경기 양평군,031-8079-7942,"['관광지', '자연']",https://cdn.visitkorea.or.kr/img/call?cmd=VIEW&id=f9f19242-5b5e-40ca-a2fb-29eaecdb982a&thumb,경기도 양평군 양동면 황거길 262-10,37.454761,127.7196907
국망봉자연휴양림(포천),경기 포천시,010-2234-5522,"['가족과함께', '관광지', '아이와함께', '자연', '자연관광지', '자연여행', '자연좋은곳']",https://cdn.visitkorea.or.kr/img/call?cmd=VIEW&id=d67526be-9c16-451f-bd3f-00558b616cb6&thumb,경기도 포천시 이동면 늠바위길 207-28,38.028861,127.3962259
국사암,경기 안성시,031-672-3130,"['경기권', '관광지', '국사암', '불교문화', '불상', '사찰', '사찰여행', '서울근교여행']",https://cdn.visitkorea.or.kr/img/call?cmd=VIEW&id=9ef99100-f79d-4a52-b46b-eeb3d21ce62e&thumb,경기도 안성시 삼죽면 텃골길 80-100,37.0713457,127.3419633
국청사(경기),경기 광주시,031-743-6801,"['관광지', '불교', '불교문화', '사찰', '사찰여행', '역사', '자연속으로', '자연환경']",https://cdn.visitkorea.or.kr/img/call?cmd=VIEW&id=a4f9b733-8140-4082-8aae-5fc6df8a3df4&thumb,경기도 광주시 남한산성면 남한산성로780번길 105,37.4840089,127.1770721
국화도,경기 화성시,1577-4200,"['가족여행', '갯벌체험장', '경기권', '관광지', '국화도', '서울근교여행', '자연']",https://cdn.visitkorea.or.kr/img/call?cmd=VIEW&id=b51c5499-142a-4224-a24f-23f356097d77&thumb,경기도 화성시 우정읍 국화길 8,37.0608142,126.5589752
군남홍수조절지 두루미테마파크,경기 연천군,031-839-2061,"['걷기길', '관광지', '국남홍수조절지두루미테마파크', '사계절', '아이와함께']",https://cdn.visitkorea.or.kr/img/call?cmd=VIEW&id=885a5fcc-52ac-4c5f-a98f-0fbb551071d9&thumb,경기도 연천군 군남면,38.0852047,127.018886
궁평리 해수욕장,경기 화성시,031-356-7339,"['갯벌체험', '관광지', '궁평리해수욕장', '수도권', '자연']",https://cdn.visitkorea.or.kr/img/call?cmd=VIEW&id=97c91fff-955c-4541-832f-6cc991ecdbe0&thumb,경기도 화성시 서신면 수문개길 81-36,37.1233188,126.6848752
궁평항,경기 화성시,031-356-7339,"['경기권', '관광지', '궁평항', '바다', '서울근교여행', '서해', '자연']",https://cdn.visitkorea.or.kr/img/call?cmd=VIEW&id=1b95ebf4-46dd-4ba1-a700-549b678a2e8e&thumb,경기도 화성시 서신면,37.1665501,126.7087095
권관마을,경기 평택시,031-8024-8005,"['관광지', '자연']",https://cdn.visitkorea.or.kr/img/call?cmd=VIEW&id=4dc2b75e-9687-483b-b6d7-34d387723dac&thumb,경기도 평택시 현덕면 평택호2길,36.9212229,126.9175664
권율장군묘,경기 양주시,031-8082-5672,"['경기도기념물', '관광지', '권율장군묘', '수도권', '역사', '역사공부', '역사관광지']",https://cdn.visitkorea.or.kr/img/call?cmd=VIEW&id=3df185e5-3493-4528-8ecd-726fb291addd&thumb,경기도 양주시 장흥면 권율로 223,37.7364964,126.9474995
궐리사,경기 오산시,031-373-0151,"['관광지', '역사', '역사공부', '역사관광지', '역사를품은곳', '역사문화재', '역사속']",https://cdn.visitkorea.or.kr/img/call?cmd=VIEW&id=7ab719de-5888-4032-b1b6-d72ab2458b1a&thumb,경기도 오산시 매홀로 3,37.1590003,127.062606
귀목봉,경기 가평군,031-582-8830,"['관광지', '자연']",https://cdn.visitkorea.or.kr/img/call?cmd=VIEW&id=undefined&thumb,경기도 가평군 북면 조무락골길 132,37.9876206,127.4544721
그린토피아,경기 양평군,031-774-4929,"['가족과함께', '가족체험', '가족휴양', '가족힐링', '관광지', '농촌체험학습', '숙박업소']",https://cdn.visitkorea.or.kr/img/call?cmd=VIEW&id=54500fa5-6798-42d7-86dc-37a3d1ee0697&thumb,경기도 양평군 양서면 골용진길19번길 2-6,37.5572785,127.3286174
극락사(경기),경기 광주시,031-766-3549,"['관광지', '불교', '불교문화', '사찰', '사찰여행', '역사', '자연속으로', '자연환경']",https://cdn.visitkorea.or.kr/img/call?cmd=VIEW&id=null&thumb,경기도 광주시 오포읍 양촌길 268-1,37.3729072,127.2716376
금강정사,경기 광명시,02-898-8200,"['관광지', '불교', '불교문화', '사찰', '사찰여행', '역사', '자연속으로', '자연환경']",https://cdn.visitkorea.or.kr/img/call?cmd=VIEW&id=null&thumb,경기도 광명시 설월로 58,37.4418402,126.8728131
금광관광농원,경기 안성시,031-673-8881,"['가족과함께', '관광지', '아이와함께', '자연속으로', '자연좋은곳', '자연체험']",https://cdn.visitkorea.or.kr/img/call?cmd=VIEW&id=2f6624f5-ecc9-4280-bb3b-df2ac21fb133&thumb,경기도 안성시 금광면 현곡길 344,36.9596783,127.3606362
금광산성,경기 안성시,031-677-1330,"['관광지', '역사', '역사공부', '역사관광지', '역사를품은곳', '역사문화재', '역사속']",https://cdn.visitkorea.or.kr/img/call?cmd=VIEW&id=undefined&thumb,경기도 안성시 금광면 금광리,36.9931294,127.3286817
금광호수,경기 안성시,031-677-1330,"['관광지', '자연']",https://cdn.visitkorea.or.kr/img/call?cmd=VIEW&id=3d6e8236-5cb2-42e7-88a3-441f8d66d801&thumb,경기도 안성시 금광면,36.9971798,127.3175151
금정사(김포),경기 김포시,031-984-3235,"['관광지', '불교', '불교문화', '사찰', '사찰여행', '역사', '자연속으로', '자연환경']",https://cdn.visitkorea.or.kr/img/call?cmd=VIEW&id=undefined&thumb,경기도 김포시 승가로 125,37.6070954,126.708416
금주산,경기 포천시,031-538-3341,"['가족과함께', '관광지', '금주산', '수도권', '자연', '트레킹']",https://cdn.visitkorea.or.kr/img/call?cmd=VIEW&id=722b6add-cdf6-4f96-8077-d7085fcae719&thumb,경기도 포천시 영중면 금주리,37.9749196,127.2767585
기아자동차 소하리공장,경기 광명시,02-801-3408,"['견학', '공장견학', '관광지', '교육여행', '기아자동차', '기아자동차소하리공장']",https://cdn.visitkorea.or.kr/img/call?cmd=VIEW&id=f36442d5-8562-484c-978f-492817eb2084&thumb,경기도 광명시 기아로 113,37.4393145,126.8876362
기아자동차 화성공장,경기 화성시,031-359-5138,"['견학', '공장견학', '관광지', '교육여행', '기아자동차', '기아자동차화성공장']",https://cdn.visitkorea.or.kr/img/call?cmd=VIEW&id=b0c9dde1-d2e9-4395-bca0-7dfabc753887&thumb,경기도 화성시 우정읍 기아자동차로 95,37.0384313,126.8002326
기천서원,경기 여주시,031-887-2868,"['경기도문화재자료', '관광지', '기천서원', '수도권', '역사', '역사공부', '역사관광지']",https://cdn.visitkorea.or.kr/img/call?cmd=VIEW&id=6a1e70eb-054f-4794-917e-a9b13f8b0e75&thumb,경기도 여주시 금사면 뒷머리길 11,37.3925317,127.5295562
기흥맛깔촌,경기 용인시,031-321-9393,"['건강식', '건강식맛집', '관광지', '맛집', '맛집탐방', '맛집투어', '숨은맛집', '음식거리']",https://cdn.visitkorea.or.kr/img/call?cmd=VIEW&id=ffb5f609-dc96-48a8-98d1-23a30e19b04d&thumb,경기도 용인시 기흥구 상갈동,37.2616855,127.1051884
김중업 건축박물관 (옛 유유산업 공장),경기 안양시,031-687-0909,"['건축박물관', '관광지', '김중업건축박물관', '문화콘텐츠산업', '박물관', '산업관광']",https://cdn.visitkorea.or.kr/img/call?cmd=VIEW&id=230562ea-dea0-4c3a-b249-3b51bde44618&thumb,경기도 안양시 만안구 예술공원로103번길 4,37.4185936,126.9178858
김포 대명항,경기 김포시,031-988-6394,"['가족여행', '관광지', '김포대명항', '바다풍경', '수도권', '자연', '포구']",https://cdn.visitkorea.or.kr/img/call?cmd=VIEW&id=bf1860e5-a6ed-4210-b46f-48958cc77e4f&thumb,경기도 김포시 대곶면 대명항1로 107-1,37.6384901,126.5421174
김포 덕포진,경기 김포시,031-980-2485,"['관광지', '김포덕포진', '박물관', '수도권', '아이와함께', '역사', '역사공부', '역사관광지']",https://cdn.visitkorea.or.kr/img/call?cmd=VIEW&id=57e4894e-37d9-44ff-a679-b6c01ef2a4e3&thumb,경기도 김포시 대곶면 덕포진로103번길 130,37.6502183,126.5372467
김포 문수산성,경기 김포시,031-980-2485,"['관광지', '문수산성', '사적', '수도권', '역사', '역사공부', '역사관광지', '역사를품은곳']",https://cdn.visitkorea.or.kr/img/call?cmd=VIEW&id=304c7d4b-88c5-4d6c-acd2-7f7172d5e0ff&thumb,경기도 김포시 월곶면 포내리,37.7242018,126.5360503
김포 사색의 길,경기 김포시,031-980-5631,"['관광지', '도심산책', '산책길', '산책코스', '산책하기', '자연여행', '자연좋은곳']",https://cdn.visitkorea.or.kr/img/call?cmd=VIEW&id=0d077e68-a034-4db5-9308-874aecde1664&thumb,경기도 김포시 김포한강11로 455,37.6545814,126.6991515
김포 수안산성,경기 김포시,031-980-2485,"['경기도기념물', '관광지', '김포수안산성', '수도권', '역사', '역사공부', '역사관광지']",https://cdn.visitkorea.or.kr/img/call?cmd=VIEW&id=750498e0-ba32-4799-9b86-621d05ca174c&thumb,경기도 김포시 대곶면 율생리,37.6482743,126.5911293
김포 장릉(인헌왕후) [유네스코 세계문화유산],경기 김포시,031-984-2897,"['가족여행', '관광지', '교과서속여행', '김포장릉', '아이와함께', '역사', '역사공부']",https://cdn.visitkorea.or.kr/img/call?cmd=VIEW&id=c65394e2-4044-4353-8118-d366de9c3c48&thumb,경기도 김포시 장릉로 79,37.6106306,126.7125896
김포국제조각공원,경기 김포시,031-996-7645,"['관광지', '김포국제조각공원', '데이트코스', '산책길', '산책하기', '산책하기좋은곳']",https://cdn.visitkorea.or.kr/img/call?cmd=VIEW&id=d028f8cc-d8fd-43c2-bdc3-17f96fda5a72&thumb,경기도 김포시 월곶면 용강로13번길 38,37.7207585,126.5521903
김포한강야생조류생태공원,경기 김포시,031-980-5635,"['가족과함께', '관광지', '산책길', '산책하기', '산책하기좋은곳', '아이와함께']",https://cdn.visitkorea.or.kr/img/call?cmd=VIEW&id=e2cd0b7a-19d8-4f6e-a5e3-bf275b8c658f&thumb,경기도 김포시 김포한강11로 455,37.6545814,126.6991515
김포함상공원,경기 김포시,031-987-4097,"['관광지', '김포가볼만한곳', '김포여행', '김포함상공원', '산책길', '산책하기']",https://cdn.visitkorea.or.kr/img/call?cmd=VIEW&id=4fa3d085-c634-4b07-b843-4cdd48f22d07&thumb,경기도 김포시 대곶면 대명항1로 110-36,37.6406387,126.539261
김포향교,경기 김포시,031-984-8891,"['관광지', '역사', '역사공부', '역사관광지', '역사를품은곳', '역사문화재', '역사속']",https://cdn.visitkorea.or.kr/img/call?cmd=VIEW&id=5997f714-5ef8-4e1b-bde0-e308a52efeef&thumb,경기도 김포시 북변중로25번길 38,37.624626,126.7098799
까치울 먹거리촌 (작동 먹거리촌),경기 부천시,032-320-3000,"['가족과함께', '건강식', '건강식맛집', '건강여행', '관광지', '농촌마을', '맛집']",https://cdn.visitkorea.or.kr/img/call?cmd=VIEW&id=1ece0658-ce5e-432f-a8cf-5028afa06ec3&thumb,경기도 부천시 작동,37.5114589,126.8155489
꾸메숲 버섯나라,경기 이천시,010-5161-3427,"['가족체험', '관광지', '느타리버섯', '송이버섯', '아이와함께', '자연관광지', '자연좋은곳']",https://cdn.visitkorea.or.kr/img/call?cmd=VIEW&id=5af77b04-1cea-4b03-975f-d4aa9fc9646b&thumb,경기도 이천시 모가면 서경리,37.1595841,127.4807681
꿈이익는농장,경기 양평군,031-774-1776,"['가족과함께', '경기도', '관광지', '꿈이익는농장', '아이와함께', '이색체험', '체험']",https://cdn.visitkorea.or.kr/img/call?cmd=VIEW&id=25b1c237-65d9-4fb4-9776-e7f4c636608a&thumb,경기도 양평군 강하면 강하1로 46,37.4834562,127.3966121
나를 찾는 정원 (R401 Discovery Park),경기 양평군,031-774-7988,"['관광지', '자연']",https://cdn.visitkorea.or.kr/img/call?cmd=VIEW&id=890eebe4-e530-4a21-95b3-701d0448c77d&thumb,경기도 양평군 강상면 신당곡1길 6-15,37.4652368,127.4653658
나만갑선생신도비,경기 구리시,031-550-2546,"['관광지', '역사', '역사공부', '역사관광지', '역사를품은곳', '역사문화재', '역사속']",https://cdn.visitkorea.or.kr/img/call?cmd=VIEW&id=b03c7d22-ac0f-4df0-af11-df139ab9507f&thumb,경기도 구리시 사노동,37.6347435,127.1389026
나인포레스트 이화원,경기 가평군,031-581-0228,"['가평이화원나비스토리', '관광지', '나인포레스트이화원', '데이트코스', '서울근교여행']",https://cdn.visitkorea.or.kr/img/call?cmd=VIEW&id=c1d50e90-e82c-4aa6-80a3-287bb64245e8&thumb,경기도 가평군 가평읍 자라섬로 64,37.818124,127.5189347
나혜석거리,경기 수원시,031-228-2765,"['거리', '관광지', '나들이', '나혜석거리', '데이트', '먹거리', '복합문화시설', '산책길']",https://cdn.visitkorea.or.kr/img/call?cmd=VIEW&id=4bc617b8-e3ca-4fdd-9a1e-74070d3e5ed5&thumb,경기도 수원시 팔달구 인계동,37.2714577,127.0281553
낙원역사공원,경기 안성시,031-677-1330,"['가족여행', '관광지', '나들이', '낙원역사공원', '당일치기여행', '드라이브여행']",https://cdn.visitkorea.or.kr/img/call?cmd=VIEW&id=a61d659f-ef6d-43f9-a998-10d1c193e91a&thumb,경기도 안성시 장기로91번길 22,37.0050203,127.2726477
남양성모성지,경기 화성시,031-356-5880,"['관광지', '산책길', '산책하기', '산책하기좋은곳', '성지', '역사', '역사공부', '역사속']",https://cdn.visitkorea.or.kr/img/call?cmd=VIEW&id=4145d0a3-1208-476e-80c1-1a24730c823e&thumb,경기도 화성시 남양읍 남양성지로 112,37.2117634,126.8237722
"남양주 광릉(세조,정희왕후) [유네스코 세계문화유산]",경기 남양주시,031-527-7105,"['가족여행', '관광지', '교과서속여행', '나들이', '남양주광릉', '당일치기여행']",https://cdn.visitkorea.or.kr/img/call?cmd=VIEW&id=50e62c65-167d-4e1d-a463-a7799c2bee63&thumb,경기도 남양주시 진접읍 광릉수목원로 354,37.7491133,127.1761752
남양주 구 팔당역,경기 남양주시,031-590-4721,"['관광지', '남양주시', '아이와함께', '역사', '역사를품은곳', '역사속', '역사속으로']",https://cdn.visitkorea.or.kr/img/call?cmd=VIEW&id=b5e31ccd-3f1a-4610-8317-f03445d5f1d5&thumb,경기도 남양주시 와부읍 팔당로 163,37.5441769,127.2488571
남양주 물의정원,경기 남양주시,031-590-2783,"['걷기길', '걷기여행', '관광지', '남녀노소', '반려견과함께', '반려견동반여행지']",https://cdn.visitkorea.or.kr/img/call?cmd=VIEW&id=1c45478d-d898-4249-8576-9391055b846d&thumb,경기도 남양주시 조안면 북한강로 398,37.5753144,127.3234451
남양주 사릉(정순왕후) [유네스코 세계문화유산],경기 남양주시,031-573-8124,"['관광지', '교과서속여행', '남양주사릉', '서울근교여행', '수도권', '아이와함께']",https://cdn.visitkorea.or.kr/img/call?cmd=VIEW&id=4e2309d1-868d-4171-8cb5-93daeaeb31da&thumb,경기도 남양주시 진건읍 사릉로 180,37.6439985,127.1979063
"남양주 홍릉(고종과 명성황후)과 유릉(순종과 순명,순정 황후) [유네스코 세계문화유산]",경기 남양주시,031-591-7043,"['가족여행', '관광지', '교과서속여행', '나들이', '남양주홍릉과유릉', '당일치기여행']",https://cdn.visitkorea.or.kr/img/call?cmd=VIEW&id=e7fc3f98-1afd-48ea-8494-f4c880f4bc16&thumb,경기도 남양주시 홍유릉로 352-1,37.6315094,127.2113052
남양향교,경기 화성시,031-5189-6526,"['경기도문화재자료', '관광지', '남양향교', '수도권', '역사', '역사공부', '역사관광지']",https://cdn.visitkorea.or.kr/img/call?cmd=VIEW&id=d76ada1a-e760-4628-8bc4-4c024773e14c&thumb,경기도 화성시 남양읍 글판동길15번길 18-3,37.2042148,126.8000248
남양호(남양황라),경기 화성시,031-369-2114,"['관광지', '낚시', '남양호', '남양황라', '수도권', '자연']",https://cdn.visitkorea.or.kr/img/call?cmd=VIEW&id=9eb366fe-7c23-4553-a9fc-c83fb4b209c8&thumb,경기 화성시 장안면,37.0798127,126.8312507
남이장군묘 (화성),경기 화성시,031-5189-2643,"['관광지', '역사']",https://cdn.visitkorea.or.kr/img/call?cmd=VIEW&id=63c42a46-ab35-4a1b-8005-954ed047b126&thumb,경기도 화성시 비봉면 남이로,37.248433,126.8373794
남한산성 전통음식마을,경기 광주시,031-762-3010,"['건강식맛집', '관광지', '남한산성', '맛집', '맛집탐방', '숨은맛집', '전국맛집']",https://cdn.visitkorea.or.kr/img/call?cmd=VIEW&id=c2e76982-9b73-42bc-8186-3fe12e9a0540&thumb,경기도 광주시 남한산성면 남한산성로 731,37.4765052,127.1883338
남한산성도립공원 [유네스코 세계문화유산],경기 광주시,031-746-1088,"['가족여행', '관광지', '나들이', '남한산성도립공원', '드라이브여행', '서울근교여행']",https://cdn.visitkorea.or.kr/img/call?cmd=VIEW&id=5341ad15-e6fd-4862-a8f4-35deda932c2e&thumb,경기도 광주시 남한산성면 남한산성로 731,37.4765052,127.1883338
내동마을 연꽃단지,경기 용인시,,"['가족과함께', '관광지', '아이와함께', '연꽃단지', '연꽃잎', '자연마을', '자연속으로']",https://cdn.visitkorea.or.kr/img/call?cmd=VIEW&id=99d4a34c-c44f-4a5b-8cc7-c98f1aaa9cbb&thumb,경기도 용인시 처인구 원삼면 내동로23번길 6,37.1759765,127.296834
내원암(경기),경기 남양주시,031-841-8794,"['관광지', '불교', '불교문화', '사찰', '사찰여행', '역사', '자연속으로', '자연환경']",https://cdn.visitkorea.or.kr/img/call?cmd=VIEW&id=null&thumb,경기도 남양주시 별내면 순화궁로909번길 104,37.7004427,127.0874617
내일의 기적소리,경기 파주시,070-4405-3323,"['가족여행', '관광지', '내일의기적소리', '당일치기여행', '수도권', '아이와함께']",https://cdn.visitkorea.or.kr/img/call?cmd=VIEW&id=7c2d6b99-223a-41d2-8a27-7ac379acbb0f&thumb,경기도 파주시 문산읍 마정리,37.897183,126.7543841
너리굴 문화마을,경기 안성시,031-675-2171,"['가족여행', '관광지', '너리굴문화마을', '복합문화공간', '산책로', '서울근교여행']",https://cdn.visitkorea.or.kr/img/call?cmd=VIEW&id=2cca9264-c762-4ebe-869f-7d4cc42fac69&thumb,경기도 안성시 보개면 너리굴길 100,37.0407666,127.2789987
노강서원,경기 의정부시,031-828-4334,"['경기도기념물', '관광지', '노강서원', '수도권', '역사', '역사공부', '역사관광지']",https://cdn.visitkorea.or.kr/img/call?cmd=VIEW&id=88ddc190-c1a4-41d8-b4d6-8749baaa928f&thumb,경기도 의정부시 동일로122번길 153,37.6997265,127.0614172
노성산,경기 이천시,031-645-3839,"['관광지', '자연']",https://cdn.visitkorea.or.kr/img/call?cmd=VIEW&id=null&thumb,경기도 이천시 설성면 진상미로665번길 241,37.1286955,127.5061646
노송지대(수원),경기 수원시,031-228-2114,"['관광지', '자연']",https://cdn.visitkorea.or.kr/img/call?cmd=VIEW&id=b1cd1903-237d-4748-aec7-9a376e754d12&thumb,경기도 수원시 장안구 장안로346번길 118,37.3167173,126.9877818
노적봉공원,경기 안산시,031-481-2710,"['가족여행', '관광지', '노적봉공원', '도심여행', '서울근교여행', '수도권', '연인과함께']",https://cdn.visitkorea.or.kr/img/call?cmd=VIEW&id=69f2d2db-baad-4d14-876d-2cd610fd865e&thumb,경기도 안산시 상록구 고잔로 162,37.318436,126.844302
노적사(경기),경기 고양시,02-353-5016,"['관광지', '불교', '불교문화', '사찰', '사찰여행', '역사', '자연속으로', '자연환경']",https://cdn.visitkorea.or.kr/img/call?cmd=VIEW&id=null&thumb,경기도 고양시 덕양구 대서문길 311-35,37.649577,126.9727163
녹수계곡,경기 가평군,031-282-8830,"['경치좋은곳', '계곡', '관광지', '녹수계곡', '사계절', '수도권', '자연', '자연좋은곳']",https://cdn.visitkorea.or.kr/img/call?cmd=VIEW&id=58b51676-a4ac-47bc-bd86-7acee8d421c5&thumb,경기도 가평군 상면 덕현리,37.765032,127.3991317
농심 안양공장,경기 군포시,031-450-5515,"['견학', '관광지', '농심', '농심안양공장', '산업관광', '수도권', '아이와함께', '이색체험']",https://cdn.visitkorea.or.kr/img/call?cmd=VIEW&id=d6a3fa78-68f1-4727-8180-b4c3ff697837&thumb,경기도 군포시 농심로 35,37.3610438,126.9541293
누리천문대,경기 군포시,031-501-7100,"['관광지', '누리천문대', '수도권', '아이와함께', '이색체험', '전망대', '전망좋은곳']",https://cdn.visitkorea.or.kr/img/call?cmd=VIEW&id=cd145594-d862-4c3c-8248-2a91e8f9b5ac&thumb,경기도 군포시 대야2로 139,37.3325122,126.9160717
누에섬 등대전망대,경기 안산시,032-886-0126,"['가족과함께', '경치좋은곳', '관광지', '교육여행', '누에섬', '누에섬등대전망대']",https://cdn.visitkorea.or.kr/img/call?cmd=VIEW&id=539ac150-4a83-46b6-9c63-683171cfd31b&thumb,경기도 안산시 단원구 선감동,37.2100274,126.6504817
뉴질랜드전투기념비,경기 가평군,031-580-2114,"['관광지', '기념비', '아이와함께', '역사', '역사관광', '역사를품은곳', '역사문화관광']",https://cdn.visitkorea.or.kr/img/call?cmd=VIEW&id=077d533c-5f88-4cb8-96a1-a07eadaff936&thumb,경기도 가평군 북면 목동리,37.9137075,127.5896846
능골공원,경기 성남시,031-729-4251,"['관광지', '근린공원', '능골공원', '물놀이장', '산책길', '산책하기', '산책하기좋은곳']",https://cdn.visitkorea.or.kr/img/call?cmd=VIEW&id=a09c7d6a-b3ac-432a-a15a-7dd8f0b98242&thumb,경기도 성남시 분당구 정자동,37.3638388,127.1163207
다산생태공원,경기 남양주시,031-590-8634,"['가볼만한축제', '걷기길', '관광지', '다산생태공원', '산책길', '산책하기', '산책하기좋은곳']",https://cdn.visitkorea.or.kr/img/call?cmd=VIEW&id=c980d293-71c5-430d-96ad-757de20c599e&thumb,경기도 남양주시 조안면 다산로 767,37.525792,127.293598
다산생태공원,경기 남양주시,031-590-8634,"['9월추천가볼만한곳', '걷기길', '관광지', '다산문화관', '다산생태공원', '다산유적지']",https://cdn.visitkorea.or.kr/img/call?cmd=VIEW&id=d48df15b-9455-4bc2-ac15-8df9f38efd34&thumb,경기도 남양주시 조안면 다산로747번길 11,37.5162381,127.2990419
다산유적지(남양주),경기 남양주시,031-590-4242,"['가족여행', '관광지', '교과서속여행', '다산유적지', '수도권', '아이와함께', '역사']",https://cdn.visitkorea.or.kr/img/call?cmd=VIEW&id=b4cea613-ce94-48ec-9b1b-c47d250ce144&thumb,경기도 남양주시 조안면 다산로747번길 11,37.5162381,127.2990419
다이노스타 (용인),경기 용인시,1661-2050,"['가족나들이', '공룡테마공원', '관광지', '놀이기구', '다이노스타', '아이가_좋아하는_여행']",https://cdn.visitkorea.or.kr/img/call?cmd=VIEW&id=02dd58d5-fe84-4f6a-8a3f-12733574c5ac&thumb,경기도 용인시 수지구 동천로 581,37.3544044,127.0520262
단대동 닭죽촌,경기 성남시,031-729-2993,"['가족과함께', '건강식', '건강식맛집', '관광지', '단대동닭죽촌', '닭백숙', '맛집']",https://cdn.visitkorea.or.kr/img/call?cmd=VIEW&id=0043b0d6-aaf4-47ad-a430-29df61b907b3&thumb,경기도 성남시 수정구 수정로 460-3,37.4616742,127.1559866
담다헌 체험교육관,경기 의정부시,031-848-8523,"['가족체험여행', '거문돌마을', '겨울방학가볼만한곳', '관광지', '그린빌리지']",https://cdn.visitkorea.or.kr/img/call?cmd=VIEW&id=8f480ab6-766c-4521-bc89-50ee49c6a178&thumb,경기도 의정부시 송산로939번길 98,37.7120262,127.1002254
당포성 (한탄강 국가지질공원),경기 연천군,031-839-2289,"['가족여행', '경기권', '관광지', '국가지질공원', '서울근교여행', '역사', '연천당포성']",https://cdn.visitkorea.or.kr/img/call?cmd=VIEW&id=b7ffc525-367c-4d7c-a6c2-3227d206525e&thumb,경기도 연천군 미산면 동이리,38.0184905,127.0000426
대가농원,경기 남양주시,010-2225-6641,"['가족과함께', '관광농원', '관광지', '교육프로그램', '남양주가볼만한곳', '농촌체험']",https://cdn.visitkorea.or.kr/img/call?cmd=VIEW&id=41ff573c-dd47-4164-8466-7802984299ba&thumb,경기도 남양주시 조안면 다산로761번길 15,37.5152808,127.2995758
대광사(성남),경기 성남시,031-715-3000,"['관광지', '불교', '불교문화', '사찰', '사찰여행', '역사', '자연마을', '자연환경']",https://cdn.visitkorea.or.kr/img/call?cmd=VIEW&id=6fc07466-060f-4abe-b02a-976cb19033b8&thumb,경기도 성남시 분당구 구미로185번길 30,37.3467088,127.1276242
대금산(경기),경기 가평군,031-582-8830,"['관광지', '자연']",https://cdn.visitkorea.or.kr/img/call?cmd=VIEW&id=46d990ac-53e5-40d9-ad8a-a435b827f896&thumb,경기 가평군 가평읍 두밀리,37.8228855,127.4358713
대동법시행기념비,경기 평택시,031-8024-3211,"['관광지', '아이와함께', '역사', '역사공부', '역사관광지', '역사를품은곳', '역사문화']",https://cdn.visitkorea.or.kr/img/call?cmd=VIEW&id=e9ab30c8-e584-4bcf-aecc-45b32b9a06bb&thumb,경기도 평택시 소사동,36.9842062,127.1285981
대법사,경기 여주시,031-882-3121,"['관광지', '불교', '불교문화', '사찰', '사찰여행', '역사', '자연속으로', '자연환경']",https://cdn.visitkorea.or.kr/img/call?cmd=VIEW&id=70dad734-b724-43d5-8185-d4161b14e18f&thumb,경기도 여주시 가남읍 안금3길 3-43,37.2288366,127.6046194
대부도,경기 안산시,1899-1720,"['관광지', '자연']",https://cdn.visitkorea.or.kr/img/call?cmd=VIEW&id=f3f78664-fca4-41be-89d7-abf8052cef04&thumb,경기도 안산시 단원구 대부중앙로 97-9,37.2434616,126.5852859
대부도 바다향기 수목원,경기 안산시,031-8008-6791,"['관광지', '대부도', '바다향기수목원', '산책하기좋은곳', '아이와함께', '연인과함께']",https://cdn.visitkorea.or.kr/img/call?cmd=VIEW&id=52f14f89-6214-4513-9aea-49053436fe57&thumb,경기도 안산시 단원구 대부황금로 399,37.2546417,126.5960467
대부도 방아머리 먹거리타운,경기 안산시,031-481-3059,"['관광지', '대부도', '맛집', '맛집탐방', '먹거리여행', '먹거리타운', '방아머리먹거리타운']",https://cdn.visitkorea.or.kr/img/call?cmd=VIEW&id=faee473f-f780-4d33-982a-a573ad9d421f&thumb,경기도 안산시 단원구 대부북동,37.258289,126.5731267
대부도 종현마을,경기 안산시,032-886-6044,"['가족과함께', '가족여행', '관광지', '대부도종현마을', '서울근교여행', '수도권']",https://cdn.visitkorea.or.kr/img/call?cmd=VIEW&id=a61a6b8f-e783-47f9-a42c-db7cad986b7e&thumb,경기도 안산시 단원구 구봉길 240,37.2802418,126.5480419
대부바다향기테마파크,경기 안산시,1899-1720,"['관광지', '바다향기테마파크', '산책하기좋은곳', '자연관광지', '자연여행', '자연좋은곳']",https://cdn.visitkorea.or.kr/img/call?cmd=VIEW&id=40c4a459-8a18-431c-9c2c-b14529d5d39e&thumb,경기도 안산시 단원구 대부북동,37.258289,126.5731267
대부산,경기 양평군,031-773-5101,"['가족과함께', '관광지', '대부산', '수도권', '자연', '전망좋은곳', '트레킹']",https://cdn.visitkorea.or.kr/img/call?cmd=VIEW&id=39bd474c-4f06-4a31-a9dc-7873a3dcf1f8&thumb,경기도 양평군 옥천면 신복리,37.5555495,127.4646804
대성동 자유의 마을,경기 파주시,031-940-8241,"['관광지', '대성동자유의마을', '수도권', '안보관광', '역사', '역사이야기', '역사탐험']",https://cdn.visitkorea.or.kr/img/call?cmd=VIEW&id=19e8547e-f189-4f49-91e6-38f3a66a2cdf&thumb,경기도 파주시 군내면 대성동길 150,37.9439037,126.6804123
대성리 국민관광지,경기 가평군,031-584-0088,"['관광지', '대성리 국민관광지', '레포츠여행', '레포츠체험', '보트놀이', '복합레포츠']",https://cdn.visitkorea.or.kr/img/call?cmd=VIEW&id=2a7cac77-e069-4b37-a4a9-5548da48470b&thumb,경기도 가평군 청평면 대성강변길 44,37.7404063,127.4241436
대성사(여주),경기 여주시,031-882-9846,"['관광지', '불교', '불교문화', '사찰', '사찰여행', '역사', '자연속으로', '자연환경']",https://cdn.visitkorea.or.kr/img/call?cmd=VIEW&id=null&thumb,경기도 여주시 금사면 발림길 89-47,37.3907649,127.5111793
대송습지,경기 안산시,1666-1234,"['관광지', '낙조전망대', '대부도', '대부바다향기테마파크', '대부해솔길', '대송습지']",https://cdn.visitkorea.or.kr/img/call?cmd=VIEW&id=eb82d4b4-8098-410a-ac1a-6494d0ada6f6&thumb,경기도 안산시 단원구 대부황금로 1531,37.2546417,126.5960467
대원공원,경기 성남시,031-729-4251,"['걷기길', '관광지', '대림공원', '도심공원', '산책길', '산책하기', '산책하기좋은곳']",https://cdn.visitkorea.or.kr/img/call?cmd=VIEW&id=5253b46d-d8cd-452d-b157-869dfae2dc1b&thumb,경기도 성남시 중원구 하대원동,37.4289325,127.1487831
대원사(가평),경기 가평군,031-582-0477,"['관광지', '불교', '불교문화', '불교사찰', '사찰', '사찰여행', '역사', '자연속으로']",https://cdn.visitkorea.or.kr/img/call?cmd=VIEW&id=9c4bde88-b2c3-4f89-8f4b-7cff2c601c0c&thumb,경기도 가평군 북면 백둔로 21-123,37.8986148,127.5013953
대포서원(김포),경기 김포시,031-980-2485,"['관광지', '대포서원', '수도권', '역사관광지', '역사를품은곳', '역사문화재', '역사속']",https://cdn.visitkorea.or.kr/img/call?cmd=VIEW&id=2cd5ca44-48e7-471e-9485-347d79136a8d&thumb,경기도 김포시 양촌읍 황금로23번길 30-30,37.6170404,126.6292472
댕이골 전통음식거리,경기 안산시,031-481-5237,"['관광지', '맛집', '맛집탐방', '숨은맛집', '음식거리', '음식거리', '음식문화', '음식문화거리']",https://cdn.visitkorea.or.kr/img/call?cmd=VIEW&id=9c2aa22b-9507-4a80-a2c6-fd4568164ea9&thumb,경기도 안산시 상록구 석호공원로2길 16-1,37.3000537,126.8493308
더그림,경기 양평군,070-4257-2210,"['가족과함께', '관광지', '남녀노소', '더그림', '드라마 촬영지', '아이와함께', '양평가볼만한곳']",https://cdn.visitkorea.or.kr/img/call?cmd=VIEW&id=9cf87a80-fd11-4d4c-a4f9-f9cc5a155a7e&thumb,경기도 양평군 옥천면 사나사길 175,37.5290836,127.4970417
덕봉서원,경기 안성시,031-677-1330,"['관광지', '역사', '역사공부', '역사관광', '역사관광지', '역사를품은곳', '역사문화재']",https://cdn.visitkorea.or.kr/img/call?cmd=VIEW&id=8959c75e-b2e1-42ce-a180-489e8104a885&thumb,경기도 안성시 양성면 덕봉리 108,37.04664,127.1926425
덕양서원(고양),경기 고양시,031-8075-3396,"['관광지', '덕양서원', '수도권', '역사', '역사공부', '역사관광지', '역사를품은곳']",https://cdn.visitkorea.or.kr/img/call?cmd=VIEW&id=54161049-de59-4c8b-a5f5-77362c319d48&thumb,경기도 고양시 덕양구 고양대로 1445-46,37.6547726,126.8453248
덕진산성,경기 파주시,031-940-5831,"['관광지', '안보관광', '역사', '역사공부', '역사관광지', '역사를품은곳', '역사문화재']",https://cdn.visitkorea.or.kr/img/call?cmd=VIEW&id=37f75f1e-4345-41fc-9777-60f3a70564c9&thumb,경기도 파주시 군내면 정자리,37.9168151,126.7558263
덕평공룡수목원,경기 이천시,031-633-5029,"['걷기길', '관광지', '덕평공릉수목원', '데이트코스', '서울근교여행', '수도권']",https://cdn.visitkorea.or.kr/img/call?cmd=VIEW&id=72e302ae-f0f3-4418-bedf-29e4d48bf534&thumb,경기도 이천시 마장면 작촌로 282,37.2450593,127.3454981
덕평자연휴게소,경기 이천시,031-645-0001,"['관광지', '덕평자연휴게소', '동물원', '드라이브여행', '먹거리', '미식여행', '반려견동반여행지']",https://cdn.visitkorea.or.kr/img/call?cmd=VIEW&id=cf325192-7620-4194-a6bd-8fa4fcbed287&thumb,경기도 이천시 마장면 덕이로154번길 287-76,37.240637,127.3888251
도당공원,경기 부천시,032-625-4854,"['관광지', '꽃여행', '데이트코스', '도담공원', '산책길', '산책하기', '산책하기좋은곳']",https://cdn.visitkorea.or.kr/img/call?cmd=VIEW&id=4ad9f639-f88c-458f-8821-592a4ff105f3&thumb,경기도 부천시 소사로593번길 124,37.5120548,126.7899502
도드람산(저명산),경기 이천시,031-644-2636,"['관광지', '자연']",https://cdn.visitkorea.or.kr/img/call?cmd=VIEW&id=33a428e6-2d97-4a79-a77a-4f3b553356aa&thumb,경기도 이천시 마장면 서이천로,37.2604475,127.3837892
도라산 평화공원,경기 파주시,031-953-4854,"['관광지', '산책길', '산책하기', '산책하기좋은곳', '아이와함께', '안보관광', '역사공부']",https://cdn.visitkorea.or.kr/img/call?cmd=VIEW&id=38ae3bda-ac03-4699-b416-d9ce3117a703&thumb,경기도 파주시 장단면 제3땅굴로 310,37.908956,126.7051966
도라산역,경기 파주시,031-953-3334,"['관광지', '도라산역', '수도권', '아이와함께', '안보관광', '역사']",https://cdn.visitkorea.or.kr/img/call?cmd=VIEW&id=05f25fbc-eba9-4043-9fd9-59da9669a751&thumb,경기도 파주시 장단면 희망로 307,37.8990043,126.7095734
도라전망대,경기 파주시,031-954-0303,"['DMZ안보견학', '관광지', '남녀노소', '도라전망대', '아이와함께', '안보관광']",https://cdn.visitkorea.or.kr/img/call?cmd=VIEW&id=fb0457ee-fedd-4ed4-99e1-cedf0434a7b0&thumb,경기도 파주시 장단면 제3땅굴로 310,37.908956,126.7051966
도마치계곡,경기 가평군,031-582-8830,"['관광지', '자연']",https://cdn.visitkorea.or.kr/img/call?cmd=VIEW&id=f69f8497-a32d-4309-a719-2dc2bb759ebc&thumb,경기도 가평군 북면 조무락골길 132,37.9876206,127.4544721
도예공방 들꽃마을,경기 이천시,010-7335-6832,"['가족과함께', '경기권', '공예체험', '공예품', '관광지', '도예공방들꽃마을', '도자기공방']",https://cdn.visitkorea.or.kr/img/call?cmd=VIEW&id=4f515f99-8f78-4fc2-aa70-d0ffb2782c72&thumb,경기도 이천시 신둔면 도자예술로5번길 95,37.2934515,127.3847471
도예촌 쌀밥거리,경기 이천시,031-632-7001,"['건강식', '건강식맛집', '건강여행', '관광지', '부모님과함께', '쌀밥정식', '이천맛집']",https://cdn.visitkorea.or.kr/img/call?cmd=VIEW&id=a477779f-89d5-4824-9e0e-c1f4e7cbfb20&thumb,경기도 이천시 신둔면 경충대로 3194,37.3113714,127.4010733
도일봉,경기 양평군,031-770-2099,"['관광지', '자연']",https://cdn.visitkorea.or.kr/img/call?cmd=VIEW&id=undefined&thumb,경기도 양평군 용문면 중원산로,37.5310403,127.614444
도자기엑스포 조각공원,경기 광주시,031-762-3010,"['관광지', '기획전시', '도자기공방', '도자기만들기체험', '도자기박물관', '도자기체험']",https://cdn.visitkorea.or.kr/img/call?cmd=VIEW&id=2c45833e-b203-42c3-b9c5-debbc1010c7b&thumb,경기도 광주시 곤지암읍 경충대로 727,37.3511041,127.3275659
돌다리 곱창골목,경기 구리시,031-550-2233,"['곱창골목', '곱창맛집', '관광지', '돌다리곱창골목', '맛집', '먹자골목', '수도권']",https://cdn.visitkorea.or.kr/img/call?cmd=VIEW&id=ced84099-e266-49cf-8abb-75cabab4acfc&thumb,경기도 구리시 안골로103번길 41,37.5991246,127.1413915
동도사(용인),경기 용인시,031-333-7417,"['관광지', '불교', '불교문화', '사찰', '사찰여행', '역사', '자연속으로', '자연환경']",https://cdn.visitkorea.or.kr/img/call?cmd=VIEW&id=undefined&thumb,경기도 용인시 처인구 이동읍 어진로 842,37.1080621,127.1983242
동두천 관광특구,경기 동두천시,031-860-2093,"['가족과함께', '관광지', '산책하기좋은곳', '자연여행', '자연좋은곳', '자연환경']",https://cdn.visitkorea.or.kr/img/call?cmd=VIEW&id=500a4823-18d6-4777-9fc1-b19034b63d26&thumb,경기도 동두천시,37.9034112,127.0605075
동두천자연휴양림,경기 동두천시,031-860-3259,"['가족과함께', '관광지', '국내힐링여행', '남녀노소', '언택트관광지_100선', '연인과함께']",https://cdn.visitkorea.or.kr/img/call?cmd=VIEW&id=0357aea3-d7ad-4e10-b123-216011f2c213&thumb,경기도 동두천시 탑동가산로 1,37.8914695,127.1038646
동막골 응회암 (한탄강 국가지질공원),경기 연천군,031-839-2288,"['경치좋은곳', '관광지', '국가지질공원', '자연', '자연관광지', '자연발생', '자연속으로']",https://cdn.visitkorea.or.kr/img/call?cmd=VIEW&id=5e829a8a-9316-4359-a9c5-d31f1a1dae18&thumb,경기도 연천군 연천읍 동막리,38.1041971,127.116591
동막골유원지,경기 연천군,031-839-2901,"['경기권', '관광지', '국가지질공원', '당일여행', '동막골유원지', '드라마촬영지']",https://cdn.visitkorea.or.kr/img/call?cmd=VIEW&id=005e3aa6-6064-4f4b-8632-a512dbe1af32&thumb,경기도 연천군 연천읍,38.1038391,127.0758749
동주염전,경기 안산시,010-5441-6829,"['가족과함께', '가족체험', '곰소염전', '관광지', '아이와함께', '어촌체험', '염전']",https://cdn.visitkorea.or.kr/img/call?cmd=VIEW&id=eaf0d440-70f2-4e8b-af63-a55fb4cf2823&thumb,경기도 안산시 단원구 동주길 46,37.2331296,126.6000994
동탄호수공원,경기 화성시,031-5189-6232,"['가족과함께', '관광지', '데이트명소', '산책하기', '산책하기좋은곳', '아이와함께']",https://cdn.visitkorea.or.kr/img/call?cmd=VIEW&id=6381f41d-fe07-45e7-b360-4148ba8aa361&thumb,경기도 화성시 동탄순환대로 67,37.199327,127.0970177
두메향기,경기 양평군,031-774-3114,"['관광지', '산나물', '산책길', '산책하기', '산책하기좋은곳', '서울근교', '아이와함께']",https://cdn.visitkorea.or.kr/img/call?cmd=VIEW&id=7540c1b7-cb45-4ceb-a06e-4e08b94aa6c6&thumb,경기도 양평군 양서면 목왕로592번길 62-59,37.5553821,127.3806038
두물머리 애벌레 생태학교,경기 양평군,031-771-0551,"['가족여행', '경기권', '관광지', '두물머리애벌레생태학교', '서울근교여행', '아이와함께']",https://cdn.visitkorea.or.kr/img/call?cmd=VIEW&id=bf9429a1-33c5-4b1e-9070-c3a5052e869a&thumb,경기도 양평군 양서면 두물머리길 108-22,37.5368767,127.3149753
두현리 석조삼존불입상,경기 안성시,031-678-2504,"['관광지', '역사', '역사공부', '역사관광지', '역사를품은곳', '역사문화재', '역사속']",https://cdn.visitkorea.or.kr/img/call?cmd=VIEW&id=c69da6ac-a704-4518-8fcd-ccffe5fc6ca1&thumb,경기도 안성시 죽산면 두현리,37.0730505,127.4063322
둔촌이집묘역,경기 성남시,031-729-3012,"['경기도기념물', '관광지', '둔촌이집묘역', '묘역', '수도권', '역사', '역사공부']",https://cdn.visitkorea.or.kr/img/call?cmd=VIEW&id=7e504d33-eab0-4239-88a1-917d5e917186&thumb,경기도 성남시 중원구 둔촌대로 320,37.4277004,127.154984
들꽃가람농장,경기 연천군,010-2684-7956,"['가족과함께', '관광지', '농촌체험', '아이와함께', '이색체험', '체험프로그램']",https://cdn.visitkorea.or.kr/img/call?cmd=VIEW&id=87735520-222d-4a99-b1f9-89fbc7e557fe&thumb,경기도 연천군 전곡읍 청연로 192,38.0484167,127.1106665
또나따목장,경기 화성시,031-356-1602,"['가족과함께', '가족체험여행', '관광지', '당일치기여행', '또나따목장', '봄방학']",https://cdn.visitkorea.or.kr/img/call?cmd=VIEW&id=e08ee043-ab25-4ffa-b0dc-6220cab574bd&thumb,경기도 화성시 마도면 마도로 223-19,37.1879028,126.7301065
뜰안에농장,경기 양평군,031-772-1709,"['가족과함께', '가족체험', '가족힐링', '관광지', '농촌체험', '농촌체험학습', '아이와함께']",https://cdn.visitkorea.or.kr/img/call?cmd=VIEW&id=a61bdcc5-e2a7-4c2f-b6d4-16c43be08dbc&thumb,경기도 양평군 강하면 강하2로 269-42,37.4774735,127.4202792
라비돌리조트,경기 화성시,031-352-7150,"['골프리조트', '골프장', '골프클럽', '관광지', '레포츠여행', '레포츠체험', '복합레포츠']",https://cdn.visitkorea.or.kr/img/call?cmd=VIEW&id=df1caced-34b7-4515-b16a-e2343f639777&thumb,경기도 화성시 정남면 세자로 286,37.187004,126.98414
리치플러스 스파,경기 남양주시,031-559-6200,"['가족과함께', '가족휴양', '관광지', '목욕탕', '뷰티&스파온천&스파', '스파', '휴식공간']",https://cdn.visitkorea.or.kr/img/call?cmd=VIEW&id=undefined&thumb,경기도 남양주시 경춘로1350번길 35,37.6502699,127.2432003
리틀빅아이 자유숲놀이터,경기 양주시,1644-4906,"['가족과함께', '관광지', '놀이공간', '놀이체험', '아이가_좋아하는_여행', '아이와함께']",https://cdn.visitkorea.or.kr/img/call?cmd=VIEW&id=0f48c8de-a818-4426-96ef-ff7a6b48d3e2&thumb,경기도 양주시 장흥면 일영로327번길 185-77,37.6710079,126.9133071
마장호수,경기 파주시,031-940-4724,"['관광지', '자연']",https://cdn.visitkorea.or.kr/img/call?cmd=VIEW&id=c1c42209-909e-4837-bf3e-0b9e344a6f99&thumb,경기도 파주시 광탄면 기산로 365,37.7746655,126.9327526
마장호수 출렁다리,경기 파주시,031-940-4724,"['가족과함께', '경기도', '관광지', '자연', '출렁다리', '파주가볼만한곳', '힐링']",https://cdn.visitkorea.or.kr/img/call?cmd=VIEW&id=693caa2b-572e-4f54-be9c-f12e9c0a1fc5&thumb,경기도 파주시 광탄면 기산로 313,37.7732101,126.9276645
만기사(경기),경기 평택시,031-664-7336,"['관광지', '불교', '불교문화', '사찰', '사찰여행', '역사', '자연속으로', '자연환경']",https://cdn.visitkorea.or.kr/img/call?cmd=VIEW&id=null&thumb,경기도 평택시 진위면 진위로 181-82,37.1081589,127.1009981
만석거공원,경기 수원시,031-228-4676,"['걷기길', '경치좋은곳', '공원', '관광지', '산책로', '산책하기좋은곳', '연인과함께']",https://cdn.visitkorea.or.kr/img/call?cmd=VIEW&id=4428b8f8-d2d9-485c-b69b-a8bd1263f0c4&thumb,경기도 수원시 장안구 정조로 1087,37.3018036,127.0016708
만의사(화성),경기 화성시,031-376-6005,"['관광지', '불교', '불교문화', '사찰', '사찰여행', '역사', '자연속으로', '자연환경']",https://cdn.visitkorea.or.kr/img/call?cmd=VIEW&id=null&thumb,경기도 화성시 동탄면 풀무골로 219,37.2094937,127.1498232
맑은물상상누리,경기 시흥시,031-310-3148,"['가족과함께', '공간재생', '관광지', '교육여행', '남녀노소', '복합문화공간', '시흥가볼만한곳']",https://cdn.visitkorea.or.kr/img/call?cmd=VIEW&id=4442f257-0da9-4805-a84d-e28cfb314f6f&thumb,경기도 시흥시 공단2대로 14,37.3349007,126.6972798
망경암,경기 성남시,031-753-3090,"['관광지', '불교', '불교문화', '사찰', '사찰여행', '역사', '자연속으로', '자연환경']",https://cdn.visitkorea.or.kr/img/call?cmd=VIEW&id=133e678d-4b13-4bb7-ba41-6c606a5d8753&thumb,경기도 성남시 수정구 태평로55번길 72,37.4534387,127.1370512
망곡산둘레길,경기 연천군,031-839-2375,"['가을경치', '경치좋은곳', '관광지', '산책길', '산책하기', '산책하기좋은곳', '자연관광지']",https://cdn.visitkorea.or.kr/img/call?cmd=VIEW&id=e230968f-4340-4225-b0be-4b8792d5e64f&thumb,경기도 연천군 연천읍 연천로285번길 52,38.1027881,127.0718922
망월사(경기),경기 의정부시,031-873-7744,"['관광지', '불교', '불교사찰', '사찰', '사찰여행', '수도권', '역사', '의정부망월사']",https://cdn.visitkorea.or.kr/img/call?cmd=VIEW&id=4c058376-0b97-4066-acd4-308c7c4c60b3&thumb,경기도 의정부시 망월로28번길 211-500,37.7046785,127.0214009
망월사(경기),경기 광주시,031-747-3312,"['관광지', '광주망월사', '불교', '불교문화', '사찰', '사찰여행', '수도권', '역사']",https://cdn.visitkorea.or.kr/img/call?cmd=VIEW&id=7c9e0ab2-b5e0-490d-a182-469b4ea7be0f&thumb,경기도 광주시 남한산성면 남한산성로 680,37.4781236,127.1959888
망이산성,경기 안성시,031-678-2504,"['경기권', '경기도기념물', '관광지', '망이산성', '서울근교', '역사', '역사공부']",https://cdn.visitkorea.or.kr/img/call?cmd=VIEW&id=1510c8e6-808f-4f33-ad8f-656aca66df49&thumb,경기도 안성시 일죽면,37.090591,127.476994
망해암,경기 안양시,031-443-5559,"['관광지', '불교', '불교문화', '사찰', '사찰여행', '역사', '자연속으로', '자연환경']",https://cdn.visitkorea.or.kr/img/call?cmd=VIEW&id=10b54b37-9b5e-4d4f-b46d-fe5ae084b37d&thumb,경기도 안양시 만안구 임곡로 245,37.4115699,126.9260895
매산리석불입상,경기 안성시,031-678-2504,"['관광지', '역사', '역사공부', '역사관광지', '역사를품은곳', '역사문화재', '역사속']",https://cdn.visitkorea.or.kr/img/call?cmd=VIEW&id=6feb99f5-d760-4472-8050-73c221c61e6f&thumb,경기도 안성시 죽산면 미륵당길 32-2,37.0850592,127.4349541
매산서원,경기 여주시,031-887-2868,"['관광지', '매산서원', '수도권', '역사', '역사공부', '역사관광지', '역사를품은곳']",https://cdn.visitkorea.or.kr/img/call?cmd=VIEW&id=ae086e98-e149-4794-b69c-618ddf553f54&thumb,경기도 여주시 능서면 능서로 94-8,37.3062802,127.5765302
맹산반딧불이자연학교,경기 성남시,031-702-5610,"['관광지', '아이들과가볼만한곳', '아이와함께', '자연&숲', '자연생태', '자연좋은곳']",https://cdn.visitkorea.or.kr/img/call?cmd=VIEW&id=8c579b88-cf47-4459-be3a-d050ea971d2d&thumb,경기도 성남시 분당구 야탑로 237,37.4075483,127.1449946
맹산생태학습원,경기 성남시,031-702-1192,"['관광지', '맹산생태학습원', '생태관광', '수도권', '아이와함께', '자연', '체험학습']",https://cdn.visitkorea.or.kr/img/call?cmd=VIEW&id=6a6f2564-d9a0-43e0-8ed0-f394383ba181&thumb,경기도 성남시 분당구 판교로 628,37.3985507,127.1068146
멍우리 협곡 (한탄강 국가지질공원),경기 포천시,031-538-2312,"['경치좋은곳', '관광지', '국가지질공원', '안보관광', '자연관광지', '자연속으로']",https://cdn.visitkorea.or.kr/img/call?cmd=VIEW&id=018b3e82-6630-407d-8e56-4544a29ef6b8&thumb,경기도 포천시 영북면 운천리,38.0813188,127.2820477
명성산,경기 포천시,031-538-3342,"['관광지', '등산', '등산객', '등산여행', '등산코스', '명성산', '수도권', '자연', '자연관광지']",https://cdn.visitkorea.or.kr/img/call?cmd=VIEW&id=44307e00-4f90-476f-8f8f-4023f34f7527&thumb,경기도 포천시 이동면 도평리,38.0757063,127.4032977
명성황후 생가,경기 여주시,031-887-3572,"['관광지', '교과서속여행', '명성황후생가', '수도권', '아이와함께', '역사', '역사공부']",https://cdn.visitkorea.or.kr/img/call?cmd=VIEW&id=551d1878-024e-4cc0-97a9-9ae6718defd6&thumb,경기도 여주시 명성로 71,37.2593607,127.6561875
명지계곡,경기 가평군,031-580-2114,"['가족과함께', '계곡', '관광지', '명지계곡', '수도권', '아이와함께', '여름피서지']",https://cdn.visitkorea.or.kr/img/call?cmd=VIEW&id=06d3bf57-0105-4e48-b4d7-d5409b77695d&thumb,경기도 가평군 북면 적목리,37.9794527,127.4282149
명지산군립공원,경기 가평군,031-582-0103,"['관광지', '자연']",https://cdn.visitkorea.or.kr/img/call?cmd=VIEW&id=1e227358-1819-4cec-acbe-32f6c4d9a068&thumb,경기도 가평군 북면 백둔로650번길,37.9152572,127.4396791
명지산-청계산 생태공원,경기 가평군,031-582-7426,"['관광지', '명지산', '명지산생태전시관', '생태관광', '생태관광지', '생태전시관']",https://cdn.visitkorea.or.kr/img/call?cmd=VIEW&id=b7396ca6-4fdf-4114-9227-652d03e0feca&thumb,경기도 가평군 북면 가화로 2089-42,37.9407097,127.4912991
모꼬지마을,경기 양평군,031-774-5427,"['가족과함께', '관광지', '농촌체험', '농촌체험', '농촌체험마을', '농촌체험여행']",https://cdn.visitkorea.or.kr/img/call?cmd=VIEW&id=a1cc6caf-3e90-4aad-b732-e0c0c1089bb1&thumb,경기도 양평군 용문면 중원산로 76,37.5171628,127.612332
모산목장,경기 파주시,010-7176-6480,"['가족과함께', '가족체험', '가족체험여행', '관광지', '낙농체험', '농장', '아이와함께']",https://cdn.visitkorea.or.kr/img/call?cmd=VIEW&id=11ab4cc3-b546-4a5d-9bc1-a115db5f9e17&thumb,경기도 파주시 탄현면 검산로519번길 6-36,37.8024192,126.7237204
몽골문화촌,경기 남양주시,031-559-8018,"['가족체험여행', '관광지', '당일치기여행', '몽골문화촌', '무더위_피해_실내여행']",https://cdn.visitkorea.or.kr/img/call?cmd=VIEW&id=e7bc4210-1341-47da-9e0c-3ed9d5c22416&thumb,경기도 남양주시 수동면 비룡로 1635,37.7578348,127.27498
몽덕산,경기 가평군,031-582-8830,"['관광지', '자연']",https://cdn.visitkorea.or.kr/img/call?cmd=VIEW&id=8ed9cab3-ad80-48f0-906b-036250570aaa&thumb,경기도 가평군 북면 화악리,37.9637408,127.5264685
묘적사,경기 남양주시,031-577-1761,"['관광지', '불교', '불교문화', '사찰', '사찰여행', '역사', '자연속으로', '자연환경']",https://cdn.visitkorea.or.kr/img/call?cmd=VIEW&id=9e82c202-27fb-46d7-a546-f215ad958ae8&thumb,경기도 남양주시 와부읍 수레로661번길 174,37.6234401,127.2613553
무량사(경기),경기 고양시,02-385-7777,"['관광지', '불교', '불교문화', '사찰여행', '사찰여행', '역사', '자연속으로', '자연환경']",https://cdn.visitkorea.or.kr/img/call?cmd=VIEW&id=undefined&thumb,경기도 고양시 덕양구 대서문길 184,37.6537789,126.9589979
무양산성(무한성),경기 안성시,031-678-2504,"['경기권', '관광지', '무양산성', '무한성', '서울근교여행', '역사', '역사공부', '역사관광지']",https://cdn.visitkorea.or.kr/img/call?cmd=VIEW&id=980d3f48-f90d-4d8e-a4c4-2536f5d5c3a8&thumb,경기도 안성시 양성면 방신리,37.0333,127.1785353
무주채폭포,경기 가평군,031-582-8830,"['관광지', '무주채폭포', '수도권', '자연', '폭포']",https://cdn.visitkorea.or.kr/img/call?cmd=VIEW&id=dcd08e0f-9c08-47da-9a10-d2ce85b9c0f5&thumb,경기도 가평군 북면 제령리,37.902746,127.5219147
문발리헌책방골목 블루박스,경기 파주시,031-955-7440,"['관광지', '남녀노소', '데이트장소추천', '독서여행', '실내데이트', '연인과함께']",https://cdn.visitkorea.or.kr/img/call?cmd=VIEW&id=undefined&thumb,경기도 파주시 문발로 240-21,37.7148652,126.688692
문수산산림욕장,경기 김포시,031-988-2965,"['관광지', '자연']",https://cdn.visitkorea.or.kr/img/call?cmd=VIEW&id=c21ab35f-9b49-44a0-84b3-4b98f4d32b5f&thumb,경기도 김포시 월곶면 문수산로 102-38,37.73778,126.5308772
문안산,경기 남양주시,031-590-2416,"['관광지', '등산', '문안산', '수도권', '자연', '트레킹']",https://cdn.visitkorea.or.kr/img/call?cmd=VIEW&id=44106cc9-94c1-42cc-9e27-86e53661c67d&thumb,경기도 남양주시 화도읍 금남리,37.6338291,127.3495355
문헌서원,경기 오산시,031-8036-7606,"['관광지', '역사', '역사공부', '역사관광지', '역사를품은곳', '역사문화재', '역사속']",https://cdn.visitkorea.or.kr/img/call?cmd=VIEW&id=62ee62ef-2d8e-4a5f-9c7a-966e5fbcd860&thumb,경기도 오산시 수청로 79-8,37.1742138,127.0534388
물맑음수목원,경기 남양주시,031-590-4076,"['가족과함께', '관광지', '남녀노소', '아이와함께', '자연속으로', '자연여행', '자연좋은곳']",https://cdn.visitkorea.or.kr/img/call?cmd=VIEW&id=0a057b47-d795-4a38-842f-c9e74b6d8f39&thumb,경기도 남양주시 수동면 지둔로307번길 47-4,37.7070868,127.2954599
물왕동 토속음식마을,경기 시흥시,,"['가족과함께', '건강식', '건강식맛집', '관광지', '맛집', '부모님과함께', '숨은맛집']",https://cdn.visitkorea.or.kr/img/call?cmd=VIEW&id=3f8e982a-7d8a-4750-8feb-2a607626f980&thumb,경기도 시흥시 물왕동,37.3855458,126.8391916
물왕저수지,경기 시흥시,031-310-2241,"['관광지', '라이브카페', '물왕저수지', '시흥관광', '야경명소', '저수지', '흥부저수지']",https://cdn.visitkorea.or.kr/img/call?cmd=VIEW&id=70f256e7-3683-4f40-802c-6bbd5489341f&thumb,경기도 시흥시 물왕동,37.3855458,126.8391916
미륵암,경기 의정부시,031-841-8001,"['관광지', '불교', '불교문화', '사찰', '사찰여행', '역사', '자연속으로', '자연환경']",https://cdn.visitkorea.or.kr/img/call?cmd=VIEW&id=ddc861a2-72a2-45a0-923e-50509590d224&thumb,경기도 의정부시 고산로65번길 94,37.7322278,127.1000944
미리내 성지,경기 안성시,031-674-1256,"['가족여행', '관광지', '기념관', '미리내성지', '수도권', '역사', '역사공부', '역사관광지']",https://cdn.visitkorea.or.kr/img/call?cmd=VIEW&id=e1ab7f7b-e20e-484b-92cf-5025d15b6890&thumb,경기도 안성시 양성면 미리내성지로 420,37.1413273,127.2599108
미음나루터(미음나루 풍속마을),경기 남양주시,031-590-8136,"['관광지', '미음나루터', '미음나루풍속마을', '수도권', '자연마을', '자연풍경']",https://cdn.visitkorea.or.kr/img/call?cmd=VIEW&id=f94e0ddb-b682-425c-95a1-acc54782da5f&thumb,경기도 남양주시 강변북로632번길 일대,37.5863854,127.1723873
바람새마을,경기 평택시,031-663-5453,"['가족체험', '가족힐링', '관광지', '농촌', '농촌체험', '농촌체험마을', '농촌체험학습']",https://cdn.visitkorea.or.kr/img/call?cmd=VIEW&id=f5806adf-63a8-41d9-896a-e2a5ff953f2f&thumb,경기도 평택시 고덕면 새악길 43-62,37.0123212,127.0214791
바람새마을 소풍정원,경기 평택시,031-668-4815,"['가볼만한곳', '가족과함게', '관광지', '남녀노소', '사진찍기좋은곳', '소풍공원']",https://cdn.visitkorea.or.kr/img/call?cmd=VIEW&id=ad79336f-958c-492c-911b-d6b430b2730b&thumb,경기도 평택시 고덕면 궁리,37.019303,127.0295837
바우덕이 묘,경기 안성시,031-677-1330,"['관광지', '역사', '역사공부', '역사를품은곳', '역사문화재', '역사속', '역사속으로']",https://cdn.visitkorea.or.kr/img/call?cmd=VIEW&id=ceef9528-6829-49c7-85b9-da671eb9f382&thumb,경기도 안성시 서운면 청용리,36.9115578,127.2891837
바우덕이사당,경기 안성시,031-678-2504,"['관광지', '역사', '역사공부', '역사관광', '역사관광지', '역사를품은곳', '역사문화재']",https://cdn.visitkorea.or.kr/img/call?cmd=VIEW&id=103e2911-d26c-4f80-b23a-da1693eab6de&thumb,경기도 안성시 서운면 청룡길 128-29,36.9132511,127.2918709
박달산(파주),경기 파주시,031-940-4614,"['가족과함께', '관광지', '등산', '박달산', '수도권', '아이와함께', '자연']",https://cdn.visitkorea.or.kr/img/call?cmd=VIEW&id=073d2c91-91a9-43ed-812f-b455f56201cb&thumb,경기도 파주시 광탄면 장지산로316번길 47-33,37.7601088,126.873219
박두진 시비,경기 안성시,031-677-1330,"['관광지', '문학', '산책하기좋은곳', '시문학', '시인', '역사공부', '역사를품은곳']",https://cdn.visitkorea.or.kr/img/call?cmd=VIEW&id=e18195c1-0d9b-4f26-a7e0-15b9f07d4644&thumb,경기도 안성시 보개면 종합운동장로 205,37.0147795,127.3230533
반구정과 황희선생유적지,경기 파주시,031-954-2170,"['경기도기념물', '경기도문화재자료', '관광지', '반구정', '수도권', '역사', '역사공부']",https://cdn.visitkorea.or.kr/img/call?cmd=VIEW&id=07a19688-684f-4f46-933f-9f0f1ca63533&thumb,경기도 파주시 문산읍 반구정로85번길 3,37.86791,126.7523616
반딧불이화장실,경기 수원시,031-228-2259,"['공중화장실', '관광지', '반딧불이화장실', '수도권', '수원시', '아름다운 화장실']",https://cdn.visitkorea.or.kr/img/call?cmd=VIEW&id=1f507b84-470c-4ff1-9368-de32fc5a6128&thumb,경기도 수원시 장안구 광교산로 166,37.301796,127.0323293
발랑저수지,경기 파주시,031-950-3260,"['관광지', '자연']",https://cdn.visitkorea.or.kr/img/call?cmd=VIEW&id=2268e653-f9f9-477c-bc02-1bd8132dfc5c&thumb,경기도 파주시 광탄면 발랑리,37.8129066,126.8976042
방아머리해수욕장,경기 안산시,1899-1720,"['관광지', '바다내음', '산책하기', '여름피서지', '해안길산책', '휴식여행', '휴식하기좋은곳']",https://cdn.visitkorea.or.kr/img/call?cmd=VIEW&id=ae15b916-c11f-4e46-bd7f-498b0ba4b308&thumb,경기 안산시 단원구 대부북동,37.258289,126.5731267
방화수류정(동북각루),경기 수원시,031-228-4676,"['관광지', '역사', '역사공부', '역사관광지', '역사를품은곳', '역사문화관광', '역사문화재']",https://cdn.visitkorea.or.kr/img/call?cmd=VIEW&id=74257679-5c5a-4cd6-87e0-8e51a1f729a1&thumb,경기도 수원시 팔달구 정조로 910,37.288893,127.0141523
배다골테마파크,경기 고양시,031-970-6330,"['가족여행', '관광지', '남녀노소', '당일치기여행', '동물농장', '동물체험', '배다골테마파크']",https://cdn.visitkorea.or.kr/img/call?cmd=VIEW&id=ad420967-a116-4c5f-ae6c-c6a987d0c2d1&thumb,경기도 고양시 덕양구 배다골길 131,37.6307754,126.847702
배혜정도가,경기 화성시,031-354-9376,"['가족여행', '관광지', '배혜정도가', '산업관광', '수도권', '이색체험', '전통산업']",https://cdn.visitkorea.or.kr/img/call?cmd=VIEW&id=d8aa2c2b-f196-4754-bf89-de5c350b3ec4&thumb,경기도 화성시 정남면 서봉로 835,37.1495498,126.9609396
백련사(가평),경기 가평군,031-585-3855,"['관광지', '불교', '불교문화', '사찰', '사찰여행', '역사', '자연좋은곳', '자연환경']",https://cdn.visitkorea.or.kr/img/call?cmd=VIEW&id=be637bfc-6ee8-4073-8ef1-c8409dd2bca5&thumb,경기도 가평군 상면 샘골길 159-50,37.783857,127.3494979
백련암(경기),경기 광주시,031-764-0080,"['관광지', '불교', '불교문화', '사찰', '사찰여행', '역사', '자연속으로', '자연환경']",https://cdn.visitkorea.or.kr/img/call?cmd=VIEW&id=null&thumb,경기도 광주시 오포읍 청석로 22-22,37.3896917,127.2604678
백련암(용인),경기 용인시,031-338-6639,"['관광지', '불교', '불교문화', '사찰', '사찰여행', '역사', '자연속으로', '자연환경']",https://cdn.visitkorea.or.kr/img/call?cmd=VIEW&id=c5d87334-2927-4b79-8b88-a97d8594ef72&thumb,경기도 용인시 처인구 포곡읍 에버랜드로456번길 290,37.3073366,127.1814358
백로주유원지,경기 포천시,031-538-4450,"['가족과함께', '경치좋은곳', '관광지', '산책길', '산책코스', '산책하기좋은곳']",https://cdn.visitkorea.or.kr/img/call?cmd=VIEW&id=e04a587c-04f4-4f20-8b3a-d7e2a9cbaebc&thumb,경기도 포천시 영중면 호국로 2671-22,37.9823583,127.2421576
백봉산,경기 남양주시,031-590-2344,"['관광지', '등산', '백봉산', '수도권', '자연', '트레킹']",https://cdn.visitkorea.or.kr/img/call?cmd=VIEW&id=ad6516e1-0831-4609-bea0-bb26b8599cf4&thumb,"경기도 남양주시 금곡동, 평내동, 와부읍, 화도읍",37.6578222,127.3007017
백운계곡 (한탄강 국가지질공원),경기 포천시,031-538-2312,"['가족여행', '관광지', '국가지질공원', '기차여행', '나들이', '당일치기여행', '데이트코스']",https://cdn.visitkorea.or.kr/img/call?cmd=VIEW&id=05761117-0646-45c2-8063-1df980dc74bc&thumb,경기도 포천시 이동면 도평리,38.0757063,127.4032977
백운사(의왕),경기 의왕시,031-452-8580,"['관광지', '불교', '불교문화', '사찰', '사찰여행', '수도권', '역사', '의왕백운사']",https://cdn.visitkorea.or.kr/img/call?cmd=VIEW&id=f2e6d90c-1a67-41fa-8206-56886912b6c8&thumb,경기도 의왕시 왕곡로 323,37.3497917,127.0080562
백운산(포천),경기 포천시,031-538-3341,"['관광지', '자연']",https://cdn.visitkorea.or.kr/img/call?cmd=VIEW&id=null&thumb,경기도 포천시 이동면 포화로 236-73,38.0713198,127.41056
백운호수,경기 의왕시,031-345-2533,"['관광지', '백운호수', '수도권', '자연', '호수', '휴양여행', '힐링']",https://cdn.visitkorea.or.kr/img/call?cmd=VIEW&id=78c37f5d-88ce-470e-b73e-dd731bedf26d&thumb,경기도 의왕시 백운로 485-4,37.3796579,126.9997488
백운호수 생태탐방로,경기 의왕시,031-345-3092,"['관광지', '산책하기좋은곳', '자연관광지', '자연좋은곳', '자연환경', '휴식여행']",https://cdn.visitkorea.or.kr/img/call?cmd=VIEW&id=1f67792f-6aca-4ff9-b6f1-554433795184&thumb,경기 의왕시 학의동,37.3757879,127.0129378
백운호수 음식마을,경기 의왕시,,"['건강식맛집', '관광지', '맛집', '맛집탐방', '매운탕', '매운탕맛집', '백운호수']",https://cdn.visitkorea.or.kr/img/call?cmd=VIEW&id=ee19d57f-ea7f-4a66-a167-9303a16c0849&thumb,경기도 의왕시 백운로 497-3,37.380718,126.9998047
백의리층 (한탄강 국가지질공원),경기 연천군,031-839-2289,"['경치좋은곳', '관광지', '국가지질공원', '자연', '자연관광지', '자연발생', '자연속으로']",https://cdn.visitkorea.or.kr/img/call?cmd=VIEW&id=42c45858-518a-465a-9ed9-036ea4572402&thumb,경기도 연천군 연천읍 고문리 212,38.0625053,127.1205512
백향꽃누르미갤러리,경기 광주시,031-764-5550,"['관광지', '문화공간', '문화예술활동', '복합문화공간', '열린문화공간', '예술공간']",https://cdn.visitkorea.or.kr/img/call?cmd=VIEW&id=d5117cc7-d8b5-49d5-912c-c53c164875d1&thumb,경기도 광주시 도척면 얼음골길19번길 33,37.3270914,127.307037
백화암(양주),경기 양주시,031-840-1582,"['관광지', '불교', '불교문화', '사찰', '사찰여행', '역사', '자연속으로', '자연환경']",https://cdn.visitkorea.or.kr/img/call?cmd=VIEW&id=620e6b73-def7-4ec7-91e9-02c7be5bbecc&thumb,경기도 양주시 백화암길 191,37.794747,127.0264861
버섯구지마을,경기 가평군,031-584-9614,"['가족과함께', '가족체험', '관광지', '농촌', '농촌체험', '농촌체험마을', '농촌체험여행']",https://cdn.visitkorea.or.kr/img/call?cmd=VIEW&id=6747ba26-8f84-4d5e-ba24-39f7a6d78195&thumb,경기도 가평군 조종면 대보간선로 173,37.8093235,127.3641837
범륜사,경기 파주시,031-959-4566,"['관광지', '불교', '불교사찰', '사찰', '사찰여행', '역사', '자연속으로', '자연좋은곳']",https://cdn.visitkorea.or.kr/img/call?cmd=VIEW&id=null&thumb,경기도 파주시 적성면 설마천로 222-146,37.9384052,126.951615
법륜사(용인 문수산),경기 용인시,031-332-5703,"['관광지', '문수산', '법륜사', '사찰&산사', '서울근교여행', '수도권', '역사', '주말추천여행지']",https://cdn.visitkorea.or.kr/img/call?cmd=VIEW&id=e5d006e9-aae7-4d4b-af99-cf206d93a97c&thumb,경기도 용인시 처인구 원삼면 농촌파크로 126,37.1690949,127.2970138
벽계구곡,경기 양평군,031-770-3161,"['관광지', '자연']",https://cdn.visitkorea.or.kr/img/call?cmd=VIEW&id=undefined&thumb,경기도 양평군 서종면 화서로,37.6270676,127.4248921
벽초지수목원,경기 파주시,031-957-2004,"['관광지', '데이트코스', '벽초지수목원', '봄나들이', '생태관광지', '수도권', '수목원']",https://cdn.visitkorea.or.kr/img/call?cmd=VIEW&id=aee87b54-b4d8-4b4e-ba3a-a335d2fb5598&thumb,경기도 파주시 광탄면 부흥로 242,37.801384,126.8740377
별망성지,경기 안산시,031-481-3436,"['관광지', '역사', '역사공부', '역사관광지', '역사를품은곳', '역사문화재', '역사속']",https://cdn.visitkorea.or.kr/img/call?cmd=VIEW&id=c3ac3c4c-57fb-4f5d-ae7f-7b7b1f51a9b5&thumb,경기도 안산시 단원구 초지동,37.3246446,126.8085765
별빛마을포토랜드,경기 안산시,031-484-5050,"['SNS감성사진', '가족과함께', '관광지', '사진찍기', '사진찍기좋은곳', '사진촬영']",https://cdn.visitkorea.or.kr/img/call?cmd=VIEW&id=f78d850b-9f3f-4925-8bad-e8615b3d84cf&thumb,경기도 안산시 상록구 수인로 1723,37.3394089,126.8634489
별빛정원우주,경기 이천시,031-645-0002,"['SNS감성사진', '경기도', '관광지', '별빛정원우주', '사진찍기', '사진촬영', '사진촬영명소']",https://cdn.visitkorea.or.kr/img/call?cmd=VIEW&id=f59f0a7a-7b19-4e39-9258-604833d6f54b&thumb,경기도 이천시 호법면 단천리,37.2270059,127.4038563
보가산성지(지장산),경기 포천시,031-538-2034,"['관광지', '역사', '역사공부', '역사관광지', '역사를품은곳', '역사문화재', '역사속']",https://cdn.visitkorea.or.kr/img/call?cmd=VIEW&id=null&thumb,경기도 포천시 관인면,38.1576945,127.2511679
보광사(과천),경기,02-502-2262,"['관광지', '불교', '불교문화', '불교사찰', '사찰', '사찰여행', '역사', '자연속으로']",https://cdn.visitkorea.or.kr/img/call?cmd=VIEW&id=null&thumb,경기도 과천시 교육원로 41,37.422617,126.9849537
보광사(남양주),경기 남양주시,031-594-1316,"['관광지', '불교', '불교문화', '사찰', '사찰여행', '역사', '자연속으로', '자연환경']",https://cdn.visitkorea.or.kr/img/call?cmd=VIEW&id=null&thumb,경기도 남양주시 화도읍 가곡로 198,37.6908589,127.2898602
보광사(파주),경기 파주시,031-948-7700,"['관광지', '불교', '불교문화', '불교사찰', '사찰', '사찰여행', '역사', '자연속으로']",https://cdn.visitkorea.or.kr/img/call?cmd=VIEW&id=ca4a3c06-be73-40c6-ad37-8295e8adfecd&thumb,경기도 파주시 광탄면 보광로474번길 87,37.7538129,126.9208146
보국사(평택),경기 평택시,031-666-8370,"['관광지', '불교', '불교문화', '사찰', '사찰여행', '역사', '자연속으로', '자연환경']",https://cdn.visitkorea.or.kr/img/call?cmd=VIEW&id=null&thumb,경기도 평택시 서탄면 장등안길 38,37.0751986,127.0214995
보적사(오산),경기 오산시,031-372-3433,"['관광지', '불교문화', '사찰', '사찰여행', '역사', '자연속으로', '자연좋은곳', '전통사찰']",https://cdn.visitkorea.or.kr/img/call?cmd=VIEW&id=undefined&thumb,경기도 오산시 독산성로269번길 144,37.1836171,127.0196904
보정동카페거리,경기 용인시,031-321-9393,"['관광지', '당일치기여행', '데이트코스', '보정동카페거리', '브런치카페', '서울근교여행']",https://cdn.visitkorea.or.kr/img/call?cmd=VIEW&id=eb082652-1137-4be4-ab19-870d76455cd4&thumb,경기도 용인시 기흥구 보정동,37.313179,127.112455
봉국사(성남),경기 성남시,031-755-0329,"['관광지', '불교', '불교문화', '불교사찰', '사찰', '사찰여행', '역사', '자연속으로']",https://cdn.visitkorea.or.kr/img/call?cmd=VIEW&id=6ddd885a-4770-42ee-a33b-e1d40f47a9a9&thumb,경기도 성남시 수정구 태평로 79,37.4506784,127.1352825
봉녕사(수원),경기 수원시,031-256-4127,"['관광지', '불교', '불교문화', '사찰', '사찰여행', '역사', '자연속으로', '자연환경']",https://cdn.visitkorea.or.kr/img/call?cmd=VIEW&id=50144e9d-97c2-4870-98df-e2499119659f&thumb,경기도 수원시 팔달구 창룡대로 236-54,37.2909209,127.0378572
봉림사(화성),경기 화성시,031-356-9117,"['관광지', '불교', '불교문화', '사찰', '사찰여행', '역사', '자연속으로', '자연환경']",https://cdn.visitkorea.or.kr/img/call?cmd=VIEW&id=71cc04d9-8700-4c8f-bf95-2a3ab0b0267a&thumb,경기도 화성시 남양읍 주석로80번길 139,37.2061116,126.8456386
봉서정,경기 여주시,031-883-2114,"['관광지', '역사', '역사공부', '역사관광지', '역사를품은곳', '역사문화재', '역사속']",https://cdn.visitkorea.or.kr/img/call?cmd=VIEW&id=544a12ad-4fde-42d0-af54-64fb48a3990a&thumb,경기도 여주시 금사면 수부촌길 35,37.3985315,127.5316873
봉선사(경기),경기 남양주시,031-527-1956,"['가족여행', '관광지', '교과서속여행', '당일치기여행', '봉선사(경기)', '사찰']",https://cdn.visitkorea.or.kr/img/call?cmd=VIEW&id=5c4a706e-0973-4b8e-9caf-ba4882de91c4&thumb,경기도 남양주시 진접읍 봉선사길 32,37.7462272,127.1832685
봉영사(남양주),경기 남양주시,031-571-0555,"['관광지', '봉영사', '불교', '불교문화', '사찰', '사찰여행', '수도권', '역사', '연중무휴']",https://cdn.visitkorea.or.kr/img/call?cmd=VIEW&id=ca224cbf-1ac8-4153-9388-9bdb1ca1c2b9&thumb,경기도 남양주시 진접읍 내각2로 84-77,37.7125776,127.1595637
봉인사(경기),경기 남양주시,031-574-5585,"['관광지', '봉인사', '불교', '불교문화', '사찰', '사찰여행', '수도권', '역사', '역사유적지']",https://cdn.visitkorea.or.kr/img/call?cmd=VIEW&id=ecf5ad73-8050-4e4b-9c37-1aa2efaa4df5&thumb,경기도 남양주시 진건읍 사릉로156번길 295,37.6620835,127.2178016
부천 동물테마파크 하이주,경기 부천시,070-7767-0815,"['관광지', '남녀노소', '동물원', '수도권', '실내놀이터', '아이가_좋아하는_여행']",https://cdn.visitkorea.or.kr/img/call?cmd=VIEW&id=a99654d3-90d7-4758-9a5f-37169fc9790f&thumb,경기도 부천시 원미구 길주로 105,37.5063502,126.7541323
부천 원미공원,경기 부천시,032-625-4863,"['걷기', '관광지', '데이트코스', '부천원미공원', '산책길', '산책하기', '산책하기좋은곳']",https://cdn.visitkorea.or.kr/img/call?cmd=VIEW&id=c4f8df1b-1938-46f3-a09a-0f38cfab9e63&thumb,경기도 부천시 원미구 소사로 456,37.4978187,126.7978214
부천 중앙공원,경기 부천시,032-625-4842,"['가족과함께', '걷기길', '관광지', '부천중앙공원', '수도권', '아이와함께', '연중무휴']",https://cdn.visitkorea.or.kr/img/call?cmd=VIEW&id=b04e7418-0396-48fa-b926-cba30d9e8709&thumb,경기도 부천시 소향로 162,37.5005875,126.7636793
부천시 자원순환센터,경기 부천시,032-673-5377,"['견학', '관광지', '부천시자원순환센터', '산업관광', '수도권', '아이와함께', '이색체험']",https://cdn.visitkorea.or.kr/img/call?cmd=VIEW&id=a4a42319-77fe-4bc4-bce8-a989d4e19028&thumb,경기도 부천시 벌말로 122,37.5421197,126.7662934
부천식물원,경기 부천시,032-625-4877,"['2019년4월_Tmap추천_여행예보', '가족여행', '관광지', '미세먼지_피하는_실내여행']",https://cdn.visitkorea.or.kr/img/call?cmd=VIEW&id=5a9ea35f-7152-4a0f-b3b8-9b4f168da2b1&thumb,경기도 부천시 길주로 660,37.504907,126.8161883
북변동 올드타운,경기 김포시,031-988-4129,"['관광지', '근현대사여행', '김포가볼만한곳', '남녀노소', '역사속으로', '역사이야기']",https://cdn.visitkorea.or.kr/img/call?cmd=VIEW&id=5eb92b3f-665f-46d4-a27e-39b665cdc9e4&thumb,경기도 김포시 북변중로65번길,37.6255193,126.710236
북한산성,경기 고양시,031-968-5325,"['관광지', '역사', '역사공부', '역사관광지', '역사를품은곳', '역사문화재', '역사속']",https://cdn.visitkorea.or.kr/img/call?cmd=VIEW&id=9bed2e6c-9266-4cda-8dd0-cb1a43ff0384&thumb,경기도 고양시 덕양구 대서문길 375,37.6451323,126.9747911
분당 어린이천문대,경기 용인시,031-322-3245,"['관광지', '자연']",https://cdn.visitkorea.or.kr/img/call?cmd=VIEW&id=643627e4-a5bd-4eb5-9ca1-b00bffdfce60&thumb,경기도 용인시 처인구 모현면 오산로 132-1,37.3231143,127.1551139
분당 정자동 카페거리,경기 성남시,,"['관광지', '데이트장소', '분당정자동카페거리', '산책', '수도권', '연인과함께']",https://cdn.visitkorea.or.kr/img/call?cmd=VIEW&id=1f71a964-aaba-40ec-9b70-547c0d36e77d&thumb,경기도 성남시 분당구 정자동,37.3638388,127.1163207
분당승무사업소(죽전역),경기 용인시,031-265-3906,"['견학', '관광지', '분당승무사업소', '산업관광', '수도권', '안전교육', '이색체험']",https://cdn.visitkorea.or.kr/img/call?cmd=VIEW&id=48bd5d1c-2486-405c-a75a-04748af502ed&thumb,경기도 용인시 기흥구 용구대로 2621,37.3180227,127.1074266
분원리 붕어찜마을,경기 광주시,062-233-9370,"['가족여행', '건강식', '건강식맛집', '관광지', '맛집', '맛집탐방', '분원리붕어찜마을']",https://cdn.visitkorea.or.kr/img/call?cmd=VIEW&id=a3b92f4b-4767-4fee-9799-9d0ed1e4196b&thumb,경기도 광주시 남종면 산수로 1680,37.4988179,127.3025524
불곡산,경기 양주시,031-845-3134,"['관광지', '등산', '불곡산', '수도권', '자연', '트레킹']",https://cdn.visitkorea.or.kr/img/call?cmd=VIEW&id=96b46ce4-20ca-4292-a4fc-eaa71a98f906&thumb,경기도 양주시 유양동,37.7898865,127.0267981
불암사(남양주),경기 남양주시,031-527-8345,"['관광지', '불교', '불교문화', '불암사', '사찰', '사찰여행', '수도권', '역사', '연중무휴']",https://cdn.visitkorea.or.kr/img/call?cmd=VIEW&id=ab06beff-1ed2-42df-93fe-847bf28d8f5e&thumb,경기도 남양주시 불암산로 190,37.6588354,127.1006422
브이알존큐브 일산웨돔점,경기 고양시,031-907-9077,"['VR체험', '관광지', '복합레저스포츠', '실내데이트', '실내레포츠', '실내체험']",https://cdn.visitkorea.or.kr/img/call?cmd=VIEW&id=34a7c03f-98f2-4465-9503-42cc5a7e9a64&thumb,경기도 고양시 일산동구 정발산로 24,37.6557011,126.7719572
블루메 미술관,경기 파주시,031-944-6324,"['관광지', '교육프로그램', '문화예술', '문화예술공간', '문화예술활동', '복합문화공간']",https://cdn.visitkorea.or.kr/img/call?cmd=VIEW&id=2725de99-eab5-491e-b483-a4deb2355e38&thumb,경기도 파주시 탄현면 헤이리마을길 59-30,37.7892689,126.6966048
비금계곡,경기 남양주시,031-590-2608,"['관광지', '자연']",https://cdn.visitkorea.or.kr/img/call?cmd=VIEW&id=79db619a-5373-4b14-b53d-30e6eafd4eeb&thumb,경기 남양주시 수동면 내방리,37.7589177,127.2877066
비둘기낭 폭포 (한탄강 국가지질공원),경기 포천시,031-538-2312,"['경치좋은곳', '관광지', '국가지질공원', '비둘기낭폭포', '자연관광', '자연관광지']",https://cdn.visitkorea.or.kr/img/call?cmd=VIEW&id=146fba29-2746-4567-81b2-24410a3af18e&thumb,경기도 포천시 영북면 대회산리,38.0727829,127.2317446
비봉산,경기 안성시,031-677-1330,"['관광지', '자연']",https://cdn.visitkorea.or.kr/img/call?cmd=VIEW&id=undefined&thumb,경기도 안성시 보개면 불현길,37.0268225,127.285023
쁘띠프랑스,경기 가평군,031-584-8200,"['감성사진', '관광지', '드라마촬영지', '쁘띠프랑스', '사진찍기', '사진찍기좋은곳']",https://cdn.visitkorea.or.kr/img/call?cmd=VIEW&id=cf580ad3-8404-436f-b593-bd84a5fc2582&thumb,경기도 가평군 청평면 호반로 1063,37.7148921,127.4903236
사나사 계곡,경기 양평군,031-770-3132,"['계곡', '관광지', '사나사계곡', '수도권', '자연', '피서']",https://cdn.visitkorea.or.kr/img/call?cmd=VIEW&id=2bef6054-135a-4a01-a243-b6060a0afb5c&thumb,경기도 양평군 옥천면 용천로 1082-12,37.5807606,127.5433501
사나사(양평),경기 양평군,031-772-5182,"['관광지', '나홀로여행', '불교', '불교문화', '불교사찰', '사나사(양평)', '사찰']",https://cdn.visitkorea.or.kr/img/call?cmd=VIEW&id=208b1f51-b228-4431-8472-7157a6d89b77&thumb,경기도 양평군 옥천면 사나사길 329,37.5382818,127.5062259
사세충렬문,경기 안산시,031-481-3436,"['관광지', '역사', '역사공부', '역사관광지', '역사를품은곳', '역사문화재', '역사속']",https://cdn.visitkorea.or.kr/img/call?cmd=VIEW&id=664e5c82-8a94-44fd-ae13-74a1dffdcf0e&thumb,경기도 안산시 단원구 와동공원로 151,37.3450167,126.8213249
사슴마을,경기 여주시,031-884-4705,"['관광지', '농촌체험', '농촌체험마을', '농촌체험여행', '농촌체험학습', '사슴마을']",https://cdn.visitkorea.or.kr/img/call?cmd=VIEW&id=2ae537be-e877-4e40-9357-925ee280b241&thumb,경기도 여주시 금사면 장흥로 94,37.3787904,127.4778836
사천서원,경기 양주시,031-8082-5672,"['관광지', '역사', '역사공부', '역사관광지', '역사를품은곳', '역사문화재', '역사속']",https://cdn.visitkorea.or.kr/img/call?cmd=VIEW&id=bfa0cbee-a6a1-496d-b007-b45dc8e6ab9a&thumb,경기도 양주시 은현면 은현로382번길 52,37.9011284,127.0137954
사충서원,경기 하남시,031-790-5632,"['관광지', '교과서속여행', '사충서원', '서원', '수도권', '역사', '역사공부', '역사관광지']",https://cdn.visitkorea.or.kr/img/call?cmd=VIEW&id=ec57a4eb-ee34-428c-b21b-3463038eff8e&thumb,경기도 하남시 하남대로232번길 89-8,37.4954651,127.2371101
산들소리수목원,경기 남양주시,031-574-3252,"['가족여행', '관광지', '기념품판매', '데이트코스', '브런치카페', '사계절', '산들소리수목원']",https://cdn.visitkorea.or.kr/img/call?cmd=VIEW&id=de3f7838-1187-4de5-b24e-5040cb71a2aa&thumb,경기도 남양주시 불암산로59번길 48-31,37.6510882,127.1014496
산장관광지,경기 가평군,031-8078-8057,"['가족과함께', '관광지', '산장관광지', '수도권', '아이와함께', '연중무휴', '자연관광지']",https://cdn.visitkorea.or.kr/img/call?cmd=VIEW&id=4491f05c-8754-4e78-b284-2eb78207f0f7&thumb,경기도 가평군 상면 덕현산장길 74,37.7543808,127.412394
산천잔치마을,경기 양평군,031-774-5427,"['가족체험학습', '관광지', '농촌', '농촌체험', '농촌체험마을', '농촌체험여행']",https://cdn.visitkorea.or.kr/img/call?cmd=VIEW&id=6c394162-5f4b-446f-b6e5-52d0061c4a24&thumb,경기도 양평군 강하면 강하1로 347,37.4582956,127.3925936
삼막사,경기 안양시,031-472-3101,"['관광지', '불교', '불교사찰', '사찰', '사찰여행', '역사', '자연속으로', '자연좋은곳']",https://cdn.visitkorea.or.kr/img/call?cmd=VIEW&id=77c05ac2-c61f-4863-9fc7-3b086a108abe&thumb,경기도 안양시 만안구 삼막로 478,37.4346105,126.9360351
삼막사 마애삼존불,경기 안양시,031-8045-2474,"['경기도유형문화재', '관광지', '삼막사마애삼존불', '수도권', '역사', '역사공부']",https://cdn.visitkorea.or.kr/img/call?cmd=VIEW&id=dbf559b3-c16f-41bb-bbb1-46e19b145eee&thumb,경기도 안양시 만안구 삼막로 478,37.4346105,126.9360351
삼막사남녀근석,경기 안양시,031-472-3101,"['관광지', '역사', '역사공부', '역사관광지', '역사를품은곳', '역사속', '역사속으로']",https://cdn.visitkorea.or.kr/img/call?cmd=VIEW&id=15fbd5cc-cd87-4f12-999b-d3a22c78da45&thumb,경기도 안양시 만안구 삼막로 478,37.4346105,126.9360351
삼봉리 한식마을,경기 남양주시,031-590-2237,"['가족과함께', '건강식맛집', '경치좋은곳', '관광지', '맛집', '맛집탐방', '삼봉리한식마을']",https://cdn.visitkorea.or.kr/img/call?cmd=VIEW&id=7cb8059f-7cf3-406c-85d9-e824409a8033&thumb,경기도 남양주시 조안면 삼봉리,37.5996764,127.3280106
삼성산,경기 안양시,031-8045-3511,"['관광지', '자연']",https://cdn.visitkorea.or.kr/img/call?cmd=VIEW&id=4b8c6529-815b-43f3-87d8-30eb8a3b975a&thumb,경기 안양시 만안구 석수동,37.4224747,126.9098163
삼성산산림욕장,경기 안양시,031-8045-7000,"['관광지', '산림욕장', '삼성산', '삼성산산림욕장', '수도권', '자연']",https://cdn.visitkorea.or.kr/img/call?cmd=VIEW&id=166d4f54-20c8-40e4-8b5d-e629eb21ebb2&thumb,경기도 안양시 만안구 예술공원로131번길 49,37.419865,126.922004
삼성화재 교통박물관,경기 용인시,031-320-9900,"['관광지', '교통박물관', '박물관', '삼성화재', '삼성화재교통박물관', '수도권']",https://cdn.visitkorea.or.kr/img/call?cmd=VIEW&id=fcd90743-60c3-40dc-84a6-d88245fc6973&thumb,경기도 용인시 처인구 포곡읍 에버랜드로376번길 171,37.2993534,127.2185665
상동호수공원,경기 부천시,032-625-4842,"['걷기길', '관광지', '나들이', '산책하기좋은곳', '상동호수공원', '수도권', '자연좋은곳']",https://cdn.visitkorea.or.kr/img/call?cmd=VIEW&id=4c944a7f-e407-4e3e-bb56-17c9846fcbc8&thumb,경기도 부천시 원미구 조마루로 15,37.5033089,126.7457616
상승OP(제1땅굴),경기 연천군,031-839-2063,"['DMZ여행', 'DMZ평화여행', '가족과함께', '관광지', '아이와함께', '역사', '역사관광지']",https://cdn.visitkorea.or.kr/img/call?cmd=VIEW&id=e0f7b94a-2d18-4480-95c8-f2b2676bebe2&thumb,경기도 연천군 백학면 백령리,38.0515431,126.8998706
상운사(경기),경기 고양시,02-387-4731,"['관광지', '불교', '불교문화', '사찰', '사찰여행', '역사', '자연속으로', '자연환경']",https://cdn.visitkorea.or.kr/img/call?cmd=VIEW&id=null&thumb,경기도 고양시 덕양구 대서문길 197-22,37.6565349,126.9695401
상원사(용문산),경기 양평군,031-773-4634,"['관광지', '역사']",https://cdn.visitkorea.or.kr/img/call?cmd=VIEW&id=b4a2aa14-e4e0-44c8-819f-dc318834093e&thumb,경기도 양평군 용문면 상원사길 292,37.5485545,127.5532092
새둥지마을,경기 연천군,031-835-7345,"['가족여행', '관광지', '나들이', '농촌', '농촌마을', '농촌여행', '농촌체험마을']",https://cdn.visitkorea.or.kr/img/call?cmd=VIEW&id=31c49052-499f-4ca4-a85c-3e313816e75e&thumb,경기도 연천군 백학면 노아로491번길 86,38.0060187,126.9601313
서경들마을,경기 이천시,031-634-1089,"['가족과함께', '관광지', '농촌', '농촌마을', '농촌여행', '농촌체험마을', '농촌체험여행']",https://cdn.visitkorea.or.kr/img/call?cmd=VIEW&id=2ecf4ca9-f6bb-4982-b950-3e71f907dcb3&thumb,경기도 이천시 모가면 진상미로1178번길 25,37.1618397,127.4816212
서계박세당 사랑채,경기 의정부시,031-828-4334,"['관광지', '역사', '역사공부', '역사관광지', '역사를품은곳', '역사문화재', '역사속']",https://cdn.visitkorea.or.kr/img/call?cmd=VIEW&id=21ecf9ea-1181-474e-8855-c86d120cb5c8&thumb,경기도 의정부시 동일로128번길 36,37.7001378,127.0574068
서운동산,경기 포천시,031-533-9000,"['가족과함께', '공원', '관광지', '농원', '산책길', '산책하기좋은곳', '아이와함께']",https://cdn.visitkorea.or.kr/img/call?cmd=VIEW&id=4386b49d-5474-4cf0-84f9-989eafb3e98f&thumb,경기도 포천시 내촌면 내진로9번길 237,37.7721073,127.2035586
서운산,경기 안성시,031-677-1330,"['관광지', '자연']",https://cdn.visitkorea.or.kr/img/call?cmd=VIEW&id=undefined&thumb,경기 안성시 서운면 청룡리,36.9115578,127.2891837
서운산성,경기 안성시,031-677-1330,"['관광지', '역사', '역사공부', '역사관광지', '역사를품은곳', '역사문화재', '역사속']",https://cdn.visitkorea.or.kr/img/call?cmd=VIEW&id=cbb11706-74e2-4315-88c3-3f3fdda29b34&thumb,경기도 안성시 서운면 산평리,36.9203612,127.2712905
서울근교 찾아가는 양조장 술샘,경기 용인시,070-4218-5225,"['관광지', '수제막걸리', '아이와함께', '양조장', '양조장여행', '이색체험', '전통발효']",https://cdn.visitkorea.or.kr/img/call?cmd=VIEW&id=3b9a9d14-c39a-4cbe-8247-177b12187a83&thumb,경기도 용인시 처인구 양지면 죽양대로 2298-1,37.2330557,127.2982269
서울대공원,경기,02-500-7335,"['19_20한국관광100선', '경기', '관광지', '나들이', '놀이공원', '데이트장소추천']",https://cdn.visitkorea.or.kr/img/call?cmd=VIEW&id=5ff1f1a6-ac3c-43de-bb86-f16531773c97&thumb,경기도 과천시 대공원광장로 102,37.4362233,127.0140581
서울랜드,경기,02-509-6000,"['17_18한국관광100선', '관광지', '남녀노소', '놀이기구', '놀이시설', '데이트장소추천']",https://cdn.visitkorea.or.kr/img/call?cmd=VIEW&id=11b67040-e8ff-46e4-9aeb-41f2d792e37d&thumb,경기도 과천시 광명로 181,37.4364611,127.024139
서울우유 안산공장,경기 안산시,031-491-3867,"['견학', '관광지', '교육여행', '산업관광', '서울우유', '서울우유안산공장', '수도권']",https://cdn.visitkorea.or.kr/img/call?cmd=VIEW&id=71649614-eb0b-4b45-bfd9-4698a5080021&thumb,경기도 안산시 단원구 성곡로 153,37.3222655,126.7574374
서천사(평택),경기 평택시,031-663-8250,"['관광지', '불교', '불교문화', '사찰', '사찰여행', '역사', '자연속으로', '자연환경']",https://cdn.visitkorea.or.kr/img/call?cmd=VIEW&id=b2921a16-ddf3-4940-89e9-bc842ba27138&thumb,경기도 평택시 고덕면 방축4길 22-49,37.0156792,127.0443108
서해대교,경기 평택시,031-8024-8992,"['경치좋은곳', '관광지', '남녀노소', '대교', '드라이브여행', '드라이브코스', '바다']",https://cdn.visitkorea.or.kr/img/call?cmd=VIEW&id=415f8141-118d-4227-a9a6-832a9a47f6c8&thumb,경기도 평택시 포승읍,36.982824,126.8852807
서해수호관,경기 평택시,031-685-4123,"['가족과함께', '관광지', '서해수호관', '아이와함께', '안보관광', '안보교육', '안보여행']",https://cdn.visitkorea.or.kr/img/call?cmd=VIEW&id=8075343d-c4d9-4bae-846d-d0352f0a9fb2&thumb,경기도 평택시 포승읍 2함대길 91,36.9923179,126.8257927
서현동 먹거리촌,경기 성남시,031-729-7762,"['가족과함께', '관광지', '남녀노소', '맛집탐방', '먹거리촌', '먹거리촌', '먹자골목']",https://cdn.visitkorea.or.kr/img/call?cmd=VIEW&id=53080110-251a-4d4b-bd9e-f6c177e5ebb1&thumb,경기도 성남시 분당구 새마을로 일대,37.3855315,127.1448049
서흥김씨삼강정문,경기 안성시,031-677-1330,"['관광지', '역사', '역사공부', '역사관광지', '역사를품은곳', '역사문화재', '역사속']",https://cdn.visitkorea.or.kr/img/call?cmd=VIEW&id=343bcdd9-1f0c-471a-ab0a-7edd81f96364&thumb,경기도 안성시 고삼면 고삼호수로 141-30,37.0873242,127.2693919
석남사(안성),경기 안성시,031-676-1444,"['관광지', '불교', '불교문화', '불교사찰', '사찰', '사찰여행', '역사', '역사관광지']",https://cdn.visitkorea.or.kr/img/call?cmd=VIEW&id=14f61356-1f1a-4fc9-b3e4-acfb237be2fb&thumb,경기도 안성시 금광면 상촌새말길 3-120,36.9397814,127.3069102
석룡산,경기 가평군,031-580-2481,"['경기권', '관광지', '등산', '서울근교여행', '석룡산', '연중무휴', '자연']",https://cdn.visitkorea.or.kr/img/call?cmd=VIEW&id=13e52207-945b-4f72-9d82-2607cab9059a&thumb,경기도 가평군 북면,37.8855879,127.5502287
석림사(경기),경기 의정부시,031-872-5110,"['관광지', '불교', '불교문화', '사찰여행', '석림사', '수도권', '역사', '역사유적지']",https://cdn.visitkorea.or.kr/img/call?cmd=VIEW&id=f210db5e-4abb-4a88-ad21-f1ced94716e3&thumb,경기도 의정부시 동일로122번길 177,37.7011119,127.0663678
석산계곡,경기 양평군,031-770-1001,"['관광지', '자연']",https://cdn.visitkorea.or.kr/img/call?cmd=VIEW&id=9a75ae95-f46d-43d0-b8f5-b3c3bdfb5f3b&thumb,경기도 양평군 단월면 석산로,37.6093364,127.6248911
석왕사(경기),경기 부천시,032-663-7771,"['관광지', '불교', '불교문화', '사찰', '사찰여행', '역사', '자연속으로', '자연환경']",https://cdn.visitkorea.or.kr/img/call?cmd=VIEW&id=null&thumb,경기도 부천시 소사로 367,37.48751,126.7949406
석천암(남양주),경기 남양주시,031-590-4924,"['관광지', '불교', '불교문화', '사찰', '사찰여행', '석천암', '수도권', '역사', '연중무휴']",https://cdn.visitkorea.or.kr/img/call?cmd=VIEW&id=79a6695f-a801-4a3a-82f4-ff4d57f4d572&thumb,경기도 남양주시 불암산로 175,37.6578244,127.0994474
선감어촌체험마을,경기 안산시,032-886-6133,"['관광지', '농어촌체험마을', '아이와함께', '어촌마을', '어촌체험', '자연여행']",https://cdn.visitkorea.or.kr/img/call?cmd=VIEW&id=414bb23e-feb8-41c9-a852-26e7ee728ea3&thumb,경기도 안산시 단원구 개건너길 78,37.2203507,126.6299006
선법사(하남),경기 하남시,031-792-2654,"['관광지', '불교', '불교문화', '사찰', '사찰여행', '역사', '자연속으로', '자연환경']",https://cdn.visitkorea.or.kr/img/call?cmd=VIEW&id=null&thumb,경기도 하남시 서하남로588번길 125,37.5179378,127.208795
선비마을,경기 안성시,031-672-6875,"['관광지', '농촌', '농촌마을', '농촌여행', '농촌체험', '농촌체험마을', '농촌체험여행']",https://cdn.visitkorea.or.kr/img/call?cmd=VIEW&id=c91c5a0c-a250-45cd-81c8-0479a22b223f&thumb,경기도 안성시 양성면 덕봉길 45,37.0446945,127.1872457
선유담계곡,경기 포천시,031-538-3363,"['가족여행', '계곡', '관광지', '선유담계곡', '수도권', '자연', '피서']",https://cdn.visitkorea.or.kr/img/call?cmd=VIEW&id=4a2daf71-2db3-46f0-a743-61d34ab5b102&thumb,경기도 포천시 이동면 포화로 123,38.0706818,127.3991589
선유동마애불사존불상,경기 안성시,031-678-2504,"['관광지', '역사', '역사공부', '역사관광지', '역사를품은곳', '역사문화재', '역사속']",https://cdn.visitkorea.or.kr/img/call?cmd=VIEW&id=6a7bf2b4-b863-4bbd-91aa-72e20e63598e&thumb,경기도 안성시 일죽면 선유동길,37.1246007,127.4658254
선유랑마을,경기 고양시,031-963-7635,"['관광지', '농촌', '농촌마을', '농촌여행', '농촌체험학습', '자연관광지', '자연마을']",https://cdn.visitkorea.or.kr/img/call?cmd=VIEW&id=decffabf-4f25-49b3-9086-b5cd38c357a3&thumb,경기도 고양시 덕양구 서리골길 130,37.694532,126.9117914
선인장다육식물연구소(구 선인장연구소),경기 고양시,031-229-6161,"['경기도', '관광지', '서울근교여행', '선인장다육식물연구소', '선인장연구소']",https://cdn.visitkorea.or.kr/img/call?cmd=VIEW&id=27b226cd-be38-40ff-80a4-6538c0dbea61&thumb,경기도 고양시 일산서구 송산로 464-52,37.6852995,126.7310541
설매재자연휴양림,경기 양평군,031-774-6959,"['관광지', '설매재자연휴양림', '수도권', '자연', '휴양여행', '힐링']",https://cdn.visitkorea.or.kr/img/call?cmd=VIEW&id=422e4ffe-9fa7-4d91-afbb-c9891ff0e0bb&thumb,경기도 양평군 옥천면 용천로 510,37.5567337,127.5094363
설봉공원,경기 이천시,031-634-6770 031-631-6501,"['가족여행', '걷기길', '걷기여행', '관광지', '사계절', '서울근교여행', '설봉공원']",https://cdn.visitkorea.or.kr/img/call?cmd=VIEW&id=d50d31d0-c8b1-49d4-8287-309c948c2161&thumb,경기도 이천시 경충대로2709번길 152,37.2799334,127.4274999
설봉산,경기 이천시,031-645-3839,"['관광지', '설봉산', '수도권', '자연', '트레킹']",https://cdn.visitkorea.or.kr/img/call?cmd=VIEW&id=2f1ae2c2-5483-434e-9565-98aef4af95ac&thumb,경기도 이천시 관고동,37.2806702,127.4265524
설봉서원,경기 이천시,031-645-3655,"['경기권', '관광지', '서울근교여행', '설봉서원', '역사', '역사공부', '역사관광지']",https://cdn.visitkorea.or.kr/img/call?cmd=VIEW&id=0bb2f754-b112-4627-9dc3-cacb24a54ffe&thumb,경기도 이천시 경충대로2709번길 276,37.2818638,127.4205864
설성산,경기 이천시,031-645-3836,"['관광지', '자연']",https://cdn.visitkorea.or.kr/img/call?cmd=VIEW&id=undefined&thumb,경기도 이천시 장호원읍 경충대로519번길,37.1430882,127.5712605
성남고령친화종합체험관,경기 성남시,1644-0891,"['가족이색체험', '관광지', '교육체험', '교육프로그램', '성남가볼만한곳', '성남고령친화종합체험관']",https://cdn.visitkorea.or.kr/img/call?cmd=VIEW&id=c0e6718b-b86e-4cc8-bc82-43d70d72a415&thumb,경기도 성남시 분당구 야탑로205번길 26,37.4098355,127.14259
성령대군묘,경기 고양시,031-8075-3396,"['고양시향토유적', '관광지', '성령대군묘', '수도권', '역사', '역사공부', '역사를품은곳']",https://cdn.visitkorea.or.kr/img/call?cmd=VIEW&id=2ffc571a-9947-4066-9339-2f5246a234b0&thumb,경기도 고양시 덕양구 대자동,37.6990362,126.88311
성호공원,경기 안산시,032-481-2629,"['걷기길', '관광지', '데이트코스', '산책길', '산책하기', '산책하기좋은곳', '성호공원']",https://cdn.visitkorea.or.kr/img/call?cmd=VIEW&id=be3d09cf-bd43-43b1-bc2a-3137c7fefb30&thumb,경기도 안산시 상록구 성호로 131,37.3142066,126.8604902
성혼선생묘,경기 파주시,031-940-5806,"['가족여행', '경기도', '관광지', '성혼선생묘', '역사', '역사공부', '역사관광지']",https://cdn.visitkorea.or.kr/img/call?cmd=VIEW&id=78051c9a-a848-4d8d-a2ec-5191434a2373&thumb,경기도 파주시 파주읍 향양리,37.8507336,126.818781
세미원,경기 양평군,031-775-1835,"['가족여행', '관광지', '꽃여행', '복합문화공간', '서울근교여행', '세미원', '수도권']",https://cdn.visitkorea.or.kr/img/call?cmd=VIEW&id=2eccdc46-dc53-4538-921a-2a31687bcb47&thumb,경기도 양평군 양서면 양수로 93,37.5407937,127.3240635
세종천문대,경기 여주시,031-886-2200,"['관광지', '자연']",https://cdn.visitkorea.or.kr/img/call?cmd=VIEW&id=988a7129-d83b-45b9-810c-0bc6013b765e&thumb,경기도 여주시 강천면 부평로 3,37.2572645,127.7537579
소구니산,경기 양평군,031-773-5101,"['관광지', '소구니산', '수도권', '자연', '트레킹', '풍경좋은곳']",https://cdn.visitkorea.or.kr/img/call?cmd=VIEW&id=2dd01f40-a2c2-425f-9ff1-755ad0f5d23a&thumb,경기도 양평군 옥천면 용천리,37.555427,127.5181436
소래산,경기 시흥시,031-310-2342,"['관광지', '소래산', '수도권', '자연', '트레킹', '힐링']",https://cdn.visitkorea.or.kr/img/call?cmd=VIEW&id=f50b7bf2-c26d-4b67-a5c3-7cb2514e680f&thumb,경기도 시흥시 신천동,37.4387291,126.7810609
소래산산림욕장,경기 시흥시,031-310-2342,"['가족여행', '관광지', '나들이', '데이트코스', '드라이브여행', '서울근교여행']",https://cdn.visitkorea.or.kr/img/call?cmd=VIEW&id=aa88d0e1-153d-4880-a0ea-5e4ba80962b3&thumb,경기 시흥시 신천동,37.4387291,126.7810609
소령원,경기 파주시,02-359-0090,"['관광지', '역사', '역사공부', '역사관광지', '역사를품은곳', '역사문화재', '역사속']",https://cdn.visitkorea.or.kr/img/call?cmd=VIEW&id=d4627a51-6d04-4a9e-9a3b-f562fafae26e&thumb,경기도 파주시 광탄면 소령원길 41-65,37.7780463,126.9016084
소산서원,경기 시흥시,031-310-3049,"['관광지', '역사', '역사공부', '역사관광지', '역사를품은곳', '역사문화재', '역사속']",https://cdn.visitkorea.or.kr/img/call?cmd=VIEW&id=081e9b95-f407-4c09-881d-a3d17ad59187&thumb,경기도 시흥시 소산서원길 20,37.4445708,126.7771547
소요산국민관광지,경기 동두천시,031-860-2416,"['걷기길', '관광지', '단풍여행', '산책하기좋은곳', '소요산국민관광지', '수도권']",https://cdn.visitkorea.or.kr/img/call?cmd=VIEW&id=5b455ec8-fcb4-4d26-8c15-56bb628c481d&thumb,경기도 동두천시 평화로2910번길 145,37.9464858,127.0693176
소요산탑유황온천,경기 동두천시,031-857-5890,"['가족과함께', '가족여행', '관광지', '뷰티&스파', '사계절', '소요산탑유황온천']",https://cdn.visitkorea.or.kr/img/call?cmd=VIEW&id=f8b8ea09-70a7-4ce7-bbd7-4bcd8d59546f&thumb,경기도 동두천시 장고갯로 161-35,37.9080171,127.0647567
소울원,경기 파주시,031-945-4261,"['가족과함께', '관광지', '남녀노소', '산책하기좋은곳', '연인과함께', '자연', '자연환경']",https://cdn.visitkorea.or.kr/img/call?cmd=VIEW&id=b0244e9b-2717-403d-be85-bb2d2639d10e&thumb,경기도 파주시 탄현면 검산로 424-12,37.8060114,126.7348292
솔밭공원,경기 안성시,031-678-2742,"['걷기여행', '관광지', '산책', '산책길', '산책하기', '산책하기좋은곳', '생태관광지']",https://cdn.visitkorea.or.kr/img/call?cmd=VIEW&id=f3e2770f-fd62-471a-856e-27642abdd332&thumb,경기도 안성시 안성맞춤대로 1143,37.0146555,127.2679957
송교리 횟타운,경기 화성시,1577-4200,"['가족과함께', '관광지', '남녀노소', '맛집', '매운탕맛집', '바다경치', '바다내음']",https://cdn.visitkorea.or.kr/img/call?cmd=VIEW&id=bf417199-d505-411a-b545-73d41b645163&thumb,경기도 화성시 서신면 송교큰말길87번길 15,37.1671942,126.6742318
송암스페이스센터,경기 양주시,031-894-6000,"['관광지', '사계절', '서울근교여행', '송암스페이스센터', '수도권', '아이와함께']",https://cdn.visitkorea.or.kr/img/call?cmd=VIEW&id=247d76fe-743a-4ea5-a1ed-e4a457c968ef&thumb,경기도 양주시 장흥면 권율로185번길 103,37.7353656,126.9423682
쇠꼴마을,경기 파주시,031-959-0123,"['가족과함께', '관광지', '농촌마을', '농촌여행', '농촌체험마을', '농촌체험여행']",https://cdn.visitkorea.or.kr/img/call?cmd=VIEW&id=0726a15f-9a09-423e-806c-dd517dc4cae6&thumb,경기도 파주시 법원읍 술이홀로1333번길,37.8851907,126.8756508
수곡서원,경기 양평군,031-770-2493,"['관광지', '역사', '역사공부', '역사관광지', '역사를품은곳', '역사문화재', '역사속으로']",https://cdn.visitkorea.or.kr/img/call?cmd=VIEW&id=undefined&thumb,경기도 양평군 지평면 수곡안말길 41-1,37.4392424,127.5974275
수길원,경기 파주시,02-359-0090,"['관광지', '역사', '역사공부', '역사관광지', '역사를품은곳', '역사문화재', '역사속']",https://cdn.visitkorea.or.kr/img/call?cmd=VIEW&id=a9fe7297-aecc-4858-94fd-e400eb37dd9f&thumb,경기도 파주시 광탄면 소령원길 41-38,37.7771202,126.9020058
수내동가옥(이택구가옥),경기 성남시,031-729-3012,"['관광지', '역사', '역사공부', '역사관광지', '역사를품은곳', '역사문화재', '역사속']",https://cdn.visitkorea.or.kr/img/call?cmd=VIEW&id=dab7bfd0-322e-4c1f-aeb4-e53c5f34fbc0&thumb,경기도 성남시 분당구 성남대로 550,37.3778859,127.1246764
수덕산,경기 가평군,031-582-8830,"['관광지', '자연']",https://cdn.visitkorea.or.kr/img/call?cmd=VIEW&id=700ce0d9-38a7-41c7-938e-323be208cd4e&thumb,경기 가평군 북면 도대리,37.9467242,127.4879054
수도권차량융합기술단 (행신역),경기 고양시,031-810-8211,"['견학', '관광지', '도심여행', '산업관광', '수도권', '수도권차량융합기술단', '안전교육']",https://cdn.visitkorea.or.kr/img/call?cmd=VIEW&id=ec2f3d51-8b03-4939-b5c0-49cbaf0b0136&thumb,경기도 고양시 덕양구 행주로 108-1,37.6095984,126.8271501
수도사(평택),경기 평택시,031-682-3169,"['관광지', '불교', '불교문화', '사찰', '사찰여행', '역사', '자연속으로', '자연여행']",https://cdn.visitkorea.or.kr/img/call?cmd=VIEW&id=null&thumb,경기도 평택시 포승읍 호암길 58,37.002512,126.8217789
수동국민관광지,경기 남양주시,031-590-2793,"['가족과함께', '계곡', '관광지', '몽골문화촌', '수도권', '수동국민관광지', '숲']",https://cdn.visitkorea.or.kr/img/call?cmd=VIEW&id=10a22553-1403-42a2-8407-2008559eb5b3&thumb,경기도 남양주시 수동면 비룡로 1635,37.7578348,127.27498
수리사(경기),경기 군포시,031-438-1823,"['관광지', '불교', '불교문화', '불교사찰', '사찰', '사찰여행', '역사', '자연속으로']",https://cdn.visitkorea.or.kr/img/call?cmd=VIEW&id=2ead6046-b7bf-4f11-a497-1a645f4a130b&thumb,경기도 군포시 속달로 347-181,37.3542027,126.8967777
수리산도립공원,경기 군포시,031-390-0435,"['경치좋은곳', '관광지', '등산로', '서울근교여행', '수도권', '수리산도립공원']",https://cdn.visitkorea.or.kr/img/call?cmd=VIEW&id=49ab40bc-22a1-4301-822b-8527fb8b737c&thumb,경기도 군포시 산본동,37.3594144,126.9207863
수미마을,경기 양평군,0505-505-1114,"['가족여행', '관광지', '농촌', '농촌마을', '농촌여행', '농촌체험', '농촌체험마을']",https://cdn.visitkorea.or.kr/img/call?cmd=VIEW&id=e5f76ec4-628f-4ba7-b802-15671cc1187e&thumb,경기도 양평군 단월면 수미길52번길 2-1,37.5153072,127.6482295
수어장대,경기 광주시,031-760-4821,"['경기도유형문화재', '관광지', '서울근교여행', '수도권', '수어장대', '역사', '역사공부']",https://cdn.visitkorea.or.kr/img/call?cmd=VIEW&id=029ca58a-a714-450e-a56e-f0f97597ce1a&thumb,경기도 광주시 남한산성면 남한산성로780번길 107-65,37.4789529,127.1813252
수우원,경기 파주시,031-958-9154,"['가족과함께', '관광지', '블루베리', '아이와함께', '이색체험', '체험프로그램']",https://cdn.visitkorea.or.kr/img/call?cmd=VIEW&id=a0f52a29-bdfd-439f-8bdd-ac416bdac508&thumb,경기도 파주시 적성면 양연로845번길 47,37.9789932,127.0082366
수원 공방거리,경기 수원시,031-267-7100,"['공방', '관광지', '데이트장소추천', '목공예공방', '연인과함께', '이색거리', '이색체험']",https://cdn.visitkorea.or.kr/img/call?cmd=VIEW&id=48d506c5-dc56-4866-9213-9fb2a27d2409&thumb,경기도 수원시 팔달구 남창동,37.2794939,127.0128685
수원 화령전,경기 수원시,031-251-4435,"['관광지', '교과서속여행', '수도권', '수원화령전', '아이와함께', '역사', '역사공부']",https://cdn.visitkorea.or.kr/img/call?cmd=VIEW&id=e34b5990-b3f2-4388-b51c-548e6916d8de&thumb,경기도 수원시 팔달구 신풍로23번길 15 (신풍동),37.2833516,127.0126706
수원 화성 [유네스코 세계문화유산],경기 수원시,031-290-3600,"['2012', '관광지', '문화관광자원 부문', '수도권', '수상내역', '수원화성', '역사']",https://cdn.visitkorea.or.kr/img/call?cmd=VIEW&id=6b63e7cd-ee58-46f3-9d73-300003bed932&thumb,경기도 수원시 장안구 수성로 320,37.2917748,127.0072699
수원사(수원),경기 수원시,031-245-9670,"['관광지', '불교', '불교문화', '사찰', '사찰여행', '수도권', '수원사', '역사', '자연속으로']",https://cdn.visitkorea.or.kr/img/call?cmd=VIEW&id=c0ca2915-9ae0-4952-be06-772c5c84976c&thumb,경기도 수원시 팔달구 수원천로 300,37.280507,127.0189696
수원온수골온천,경기 수원시,031-221-4277,"['가족과함께', '건강여행', '관광지', '아이와함께', '연인과함께', '온천', '온천']",https://cdn.visitkorea.or.kr/img/call?cmd=VIEW&id=undefined&thumb,경기도 수원시 권선구 동수원로 232,37.2502201,127.0346879
수원통닭거리,경기 수원시,031-228-4672,"['가족과함께', '관광지', '남녀노소', '맛집거리', '맛집탐방', '수원맛집', '수원맛집추천']",https://cdn.visitkorea.or.kr/img/call?cmd=VIEW&id=36589fbb-b05d-4c02-939c-82b9570e6c8b&thumb,경기도 수원시 팔달구 정조로800번길 16,37.2793976,127.0176353
수원향교,경기 수원시,031-228-4416,"['경기도문화재자료', '관광지', '수도권', '수원향교', '역사', '역사공부', '역사관광지']",https://cdn.visitkorea.or.kr/img/call?cmd=VIEW&id=940b1fda-e80e-40c7-a11a-aa5c24dff7a4&thumb,경기도 수원시 팔달구 향교로 107-9,37.2725377,127.0122255
수원화성 관광특구,경기 수원시,031-228-4672,"['가족여행', '관광지', '교과서속여행', '수원화성관광특구', '아이와함께', '역사공부']",https://cdn.visitkorea.or.kr/img/call?cmd=VIEW&id=0a0e7200-4030-4b4b-ba56-0c7165b7250a&thumb,경기도 수원시 팔달구 정조로 780,37.2775284,127.0167328
수종사,경기 남양주시,031-576-8411,"['가족여행', '경기권', '관광지', '불교', '불교문화', '서울근교여행', '수종사', '역사']",https://cdn.visitkorea.or.kr/img/call?cmd=VIEW&id=56eb05e6-e092-453c-9885-5573e2d93bfa&thumb,경기도 남양주시 조안면 북한강로433번길 186,37.5711404,127.3023586
수진사(경기),경기 남양주시,031-591-7710,"['관광지', '불교', '불교문화', '사찰', '사찰여행', '역사', '자연속으로', '자연환경']",https://cdn.visitkorea.or.kr/img/call?cmd=VIEW&id=bcf60076-e35c-4631-a4ff-1a094d8097da&thumb,경기도 남양주시 천마산로 115-13,37.6716125,127.250778
순교자 황사영 알렉시오 묘,경기 양주시,031-820-2120,"['관광지', '역사', '역사공부', '역사관광지', '역사를품은곳', '역사문화재', '역사속']",https://cdn.visitkorea.or.kr/img/call?cmd=VIEW&id=a983c817-908b-47d7-b2df-63967e988aa0&thumb,경기도 양주시 장흥면 부곡리,37.7363802,126.9768703
스토리 미니어처 뮤지엄,경기 파주시,031-947-0677,"['가족과함께', '관광지', '미세먼지_피하는_실내여행', '복합문화공간', '실내여행지']",https://cdn.visitkorea.or.kr/img/call?cmd=VIEW&id=94bb926f-c4d8-4bf0-8dcb-d59f6494d7f4&thumb,경기도 파주시 탄현면 헤이리마을길 93-75,37.7913603,126.6962207
스파라스파 (곤지암리조트),경기 광주시,1661-8787,"['곤지암리조트', '관광지', '당일치기여행', '뷰티&스파', '서울근교여행', '수도권']",https://cdn.visitkorea.or.kr/img/call?cmd=VIEW&id=68c1808f-f052-4fb5-99a5-1a7d6004d343&thumb,경기도 광주시 도척면 도척윗로 278,37.3372414,127.2953076
스파플러스,경기 이천시,031-639-5000,"['가족여행', '관광지', '수도권', '스파', '스파플러스', '아이와함께', '연인과함께']",https://cdn.visitkorea.or.kr/img/call?cmd=VIEW&id=578f387b-7386-46fd-b6e0-bb8e3d59995c&thumb,경기도 이천시 중리천로115번길 45,37.276221,127.4510213
스포츠몬스터 고양,경기 고양시,1668-4832,"['관광지', '레포츠체험', '미세먼지_피하는_실내여행', '복합레저스포츠', '복합레포츠']",https://cdn.visitkorea.or.kr/img/call?cmd=VIEW&id=0f87f41f-8289-439b-bdc8-05f4c2a537ab&thumb,경기도 고양시 덕양구 고양대로 1955,37.6467805,126.8948223
스포츠몬스터 하남,경기 하남시,1668-4832,"['관광지', '놀이동산&테마파크', '레포츠체험', '복합문화공간', '수도권', '스포츠몬스터']",https://cdn.visitkorea.or.kr/img/call?cmd=VIEW&id=801b5270-4a7d-4714-ac81-28b213817c71&thumb,경기도 하남시 미사대로 750,37.5434191,127.236611
승전OP,경기 연천군,031-839-2063,"['DMZ여행', 'DMZ평화여행', '관광지', '아이와함께', '역사공부', '역사를품은곳']",https://cdn.visitkorea.or.kr/img/call?cmd=VIEW&id=fe018ff2-7e5a-4927-aca0-f010937c0c97&thumb,경기도 연천군 장남면 고랑포리,37.9865809,126.8225953
시화나래 조력문화관,경기 안산시,032-885-7530,"['관광지', '바다풍경', '산업관광', '수도권', '시화나래조력문화관', '신재생에너지']",https://cdn.visitkorea.or.kr/img/call?cmd=VIEW&id=d35b4b7c-a45e-421c-9294-d4774f9b6c97&thumb,경기도 안산시 단원구 대부황금로 1927,37.3129812,126.6092392
시화호,경기 안산시,031-481-2105,"['관광지', '서울근교여행지', '수도권', '시화호', '자연']",https://cdn.visitkorea.or.kr/img/call?cmd=VIEW&id=e826b90f-a5e1-4c6a-a1f3-c4d9ef09ebb3&thumb,경기 안산시 단원구 대부남동,37.2300463,126.5802849
시화호,경기 안산시,,"['갈대습지공원', '관광지', '생태관광', '생태관광지', '수도권', '시화방조제', '시화호']",https://cdn.visitkorea.or.kr/img/call?cmd=VIEW&id=33d67aab-3d1f-4fe5-b7b6-ea6df771a42d&thumb,경기도 안산시 단원구 대부동동 2098-1,37.311273,126.6066019
시흥 갯골생태공원,경기 시흥시,031-488-6900,"['가족과함께', '걷기길', '관광지', '생태관광', '수도권', '시흥갯골생태공원', '아이와함께']",https://cdn.visitkorea.or.kr/img/call?cmd=VIEW&id=dc846ae2-87af-44e2-930c-0362b9c129c8&thumb,경기도 시흥시 동서로 287,37.3871749,126.8124991
시흥 오이도 유적,경기 시흥시,031-310-3052,"['관광지', '아이와함께', '역사', '역사공부', '역사관광지', '역사를품은곳', '역사문화재']",https://cdn.visitkorea.or.kr/img/call?cmd=VIEW&id=895f9871-eaea-4d28-b370-dd28897d2ba9&thumb,경기도 시흥시 서해안로 113-27,37.4092647,126.7555085
시흥 오이도마을,경기 시흥시,031-319-0205,"['갯벌', '관광지', '농어촌', '바다경치', '바다내음', '바다체험', '아이와함께', '어촌마을']",https://cdn.visitkorea.or.kr/img/call?cmd=VIEW&id=3fa2aba7-d96c-4f31-9a65-de370d3cc962&thumb,경기도 시흥시 오이도로135번길 39,37.3448298,126.6882704
시흥배곧한울공원 해수체험장,경기 시흥시,031-310-3458,"['감성사진', '관광지', '사진찍기', '사진찍기좋은곳', '사진촬영명소', '산책길']",https://cdn.visitkorea.or.kr/img/call?cmd=VIEW&id=e282e3cc-1f50-4ce0-81b5-7cad80de23a0&thumb,경기도 시흥시 해송십리로 61,37.3798877,126.8031025
시흥하이갯골 (관광두레 주민사업체),경기 시흥시,031-488-6900,"['관광두레', '관광두레_주민사업체', '관광지', '남녀노소', '습지공원', '아이들과함께']",https://cdn.visitkorea.or.kr/img/call?cmd=VIEW&id=bb741558-9558-4a2e-a16c-bdbae1f206b5&thumb,경기도 시흥시 동서로 287,37.3871749,126.8124991
신구대학교식물원,경기 성남시,031-724-1600 031-724-1602,"['관광지', '생태관광', '수도권', '신구대학교식물원', '자연', '자연좋은곳', '체험학습']",https://cdn.visitkorea.or.kr/img/call?cmd=VIEW&id=43d79cfd-450b-4105-bb1f-1fa190a6e24d&thumb,경기도 성남시 수정구 적푸리로 9,37.4339552,127.080805
신론리 외갓집체험마을,경기 양평군,031-772-3402,"['가족체험', '가족휴양', '가족힐링', '관광지', '농촌마을', '농촌체험', '농촌체험마을']",https://cdn.visitkorea.or.kr/img/call?cmd=VIEW&id=undefined&thumb,경기도 양평군 청운면 신론로 279,37.5648364,127.7655063
신륵사(여주),경기 여주시,031-885-2505,"['관광지', '불교', '불교문화', '사찰', '사찰여행', '수도권', '여주신륵사', '역사']",https://cdn.visitkorea.or.kr/img/call?cmd=VIEW&id=0a4fb1eb-6f4a-4d1b-8f42-1fddcd0f1aa9&thumb,경기도 여주시 신륵사길 73,37.2975365,127.6615306
신륵사관광지,경기 여주시,031-885-2505,"['가족여행', '관광지', '교과서속여행', '사찰&산사', '사찰&산사', '산책길', '산책하기']",https://cdn.visitkorea.or.kr/img/call?cmd=VIEW&id=15836300-66b1-448e-8507-3e23adecbb56&thumb,경기도 여주시 신륵사길 73,37.2975365,127.6615306
신북 오리촌,경기 포천시,031-538-4350,"['건강식', '건강식맛집', '관광지', '능이오리백숙', '보양식', '오리고기', '오리구이']",https://cdn.visitkorea.or.kr/img/call?cmd=VIEW&id=f63522c8-4a42-4b87-8ff3-88b52f0c518e&thumb,경기도 포천시 신북면 깊이울로 88,37.927526,127.1788284
신북리조트 스프링폴,경기 포천시,031-536-5025,"['가족여행', '관광지', '서울근교여행', '수도권', '신북리조트스프링폴', '아이와함께']",https://cdn.visitkorea.or.kr/img/call?cmd=VIEW&id=cb67b14c-646d-4736-a779-c642105a02b3&thumb,경기도 포천시 신북면 청신로 571,37.9553207,127.153516
신창리삼층석탑,경기 안성시,031-677-1330,"['관광지', '역사', '역사공부', '역사관광지', '역사문화재', '역사속', '역사속으로']",https://cdn.visitkorea.or.kr/img/call?cmd=VIEW&id=4df143a6-64c8-4813-a6fc-c60fcb60b918&thumb,경기도 안성시 고삼면 신창리,37.0829325,127.2415564
신탄리역,경기 연천군,1544-7788,"['관광지', '역사공부', '역사관광지', '역사를품은곳', '역사문화재', '역사속', '역사속으로']",https://cdn.visitkorea.or.kr/img/call?cmd=VIEW&id=49294be9-245c-48e8-ad36-3b4c6558479b&thumb,경기도 연천군 신서면 고대산길 4,38.2128517,127.1390971
신해철거리(성남),경기 성남시,031-729-8602,"['관광지', '문화공간', '복합문화공간', '산책하기', '성남가볼만한곳', '신해철거리']",https://cdn.visitkorea.or.kr/img/call?cmd=VIEW&id=04880f95-1681-4902-9113-7c4fb84390fe&thumb,경기도 성남시 수내동,37.3713177,127.1223533
신흥레저타운,경기 양주시,031-855-5029,"['가족여행', '관광지', '나들이', '당일치기여행', '데이트코스', '드라이브여행']",https://cdn.visitkorea.or.kr/img/call?cmd=VIEW&id=4a98ac1b-f75e-4def-b135-d3c0e3e352ca&thumb,경기도 양주시 장흥면 삼상리,37.6978278,126.9413775
신흥사(이천),경기 이천시,031-645-3655,"['관광지', '불교', '불교문화', '불교사찰', '사찰여행', '역사', '자연속으로', '자연환경']",https://cdn.visitkorea.or.kr/img/call?cmd=VIEW&id=undefined&thumb,경기도 이천시 장호원읍 경충대로519번길 246-314,37.1455055,127.5570983
신흥사(화성),경기 화성시,031-357-2695,"['관광지', '불교', '불교문화', '사찰', '사찰여행', '역사', '자연속으로', '자연환경']",https://cdn.visitkorea.or.kr/img/call?cmd=VIEW&id=6db1ffea-3394-41a4-b979-0690576702bf&thumb,경기도 화성시 서신면 신흥사길 17-34,37.1930342,126.7094968
실내바다낚시 휴,경기 화성시,031-223-3393,"['가족과함께', '관광지', '낚시체험', '남녀노소', '바다낚시', '실내관광지', '실내데이트']",https://cdn.visitkorea.or.kr/img/call?cmd=VIEW&id=8f3c54f1-af4c-421d-89f2-6cd2ab68cb11&thumb,경기도 화성시 기안길 55,37.2277291,126.9815499
심곡서원,경기 용인시,031-324-2147,"['관광지', '역사', '역사공부', '역사관광지', '역사를품은곳', '역사문화재', '역사속']",https://cdn.visitkorea.or.kr/img/call?cmd=VIEW&id=f713ad35-2e21-404b-9274-b7e4daec012c&thumb,경기도 용인시 수지구 심곡로 16-9,37.3058305,127.0766997
심복사(평택),경기 평택시,031-682-5588,"['가족여행', '경기권', '관광지', '불교', '불교문화', '사찰', '사찰여행', '서울근교여행']",https://cdn.visitkorea.or.kr/img/call?cmd=VIEW&id=null&thumb,경기도 평택시 현덕면 심복사길 22,36.9503059,126.9657765
심온선생묘,경기 수원시,031-228-4416,"['관광지', '역사', '역사공부', '역사관광지', '역사를품은곳', '역사문화재', '역사속']",https://cdn.visitkorea.or.kr/img/call?cmd=VIEW&id=db387ed4-47eb-489f-8a1d-9c960fe087fb&thumb,경기도 수원시 영통구 이의동 산13-10,37.2963097,127.0528742
