name,region,tel,keyword,photo,address,lat,lon
3·15 아트센터,경남 창원시,055-286-0315,"['3.15아트센터', '경상권', '데이트코스', '문화공간', '문화시설', '문화예술활동']",https://cdn.visitkorea.or.kr/img/call?cmd=VIEW&id=31d52479-955e-4783-a7d8-c939d301d142&thumb,경상남도 창원시 마산회원구 삼호로 135,35.22581853,128.5771062
CECO 창원컨벤션센터,경남 창원시,055-212-1000,"['CECO창원컨벤션센터', '가족과함께', '경상권', '문화시설', '복합문화공간']",https://cdn.visitkorea.or.kr/img/call?cmd=VIEW&id=975e9f21-192e-4e22-af86-c27424596051&thumb,경상남도 창원시 의창구 원이대로 362,35.23839932,128.656895
KBS 창원홀,경남 창원시,055-280-7181,"['kbs창원홀', '가족여행', '경상권', '공연장', '나들이', '데이트코스', '문화시설']",https://cdn.visitkorea.or.kr/img/call?cmd=VIEW&id=683f9a1f-c4e2-4fbb-9efc-2a818ecde619&thumb,경상남도 창원시 의창구 중앙대로 178,35.22916614,128.686041
LH 토지주택박물관,경남 진주시,055-922-5432,"['LH', 'LH토지주택박물관', '경상권', '관광지', '박물관', '산업관광', '아이와함께']",https://cdn.visitkorea.or.kr/img/call?cmd=VIEW&id=0b2126ec-d389-416d-b2fe-bff04d807fab&thumb,경상남도 진주시 충의로 19,35.1785185,128.14639820000002
[남해 바래길 1코스] 다랭이지겟길,경남 남해군,055-863-8778,"['남해 바래길', '다랭이지겟길', '레포츠', '산책코스', '아무것도_하지않을_자유_비움여행']",https://cdn.visitkorea.or.kr/img/call?cmd=VIEW&id=3ee06bd4-801d-4f8f-b187-7195c63def02&thumb,경상남도 남해군 남면 평산리,34.76176496,127.8533403
[남해 바래길 6코스] 말발굽길,경남 남해군,055-863-8778,"['남해 바래길', '레포츠', '말발굽길', '산책코스', '아무것도_하지않을_자유_비움여행']",https://cdn.visitkorea.or.kr/img/call?cmd=VIEW&id=44eb7641-24fd-44dc-9519-1e70c9b958d1&thumb,경상남도 남해군 삼동면 죽방로,34.816251799999996,127.9711251
[남해 바래길 7코스] 고사리밭길,경남 남해군,055-863-8778,"['고사리밭길', '남해 바래길', '레포츠', '산책코스', '아무것도_하지않을_자유_비움여행']",https://cdn.visitkorea.or.kr/img/call?cmd=VIEW&id=72e28237-7a80-4bcc-a4be-495bc92799cc&thumb,경상남도 남해군 창선면 진동리,34.84522826,128.050995
[지리산 둘레길 코스] 금계~동강,경남 함양군,055-964-8200,['레포츠'],https://cdn.visitkorea.or.kr/img/call?cmd=VIEW&id=4faac45e-2f5c-4daf-badd-2eac73f12932&thumb,경상남도 함양군 마천면 금계길 5,35.40379174,127.68499709999999
[지리산 둘레길 코스] 동강~수철,경남 함양군,055-964-8200,['레포츠'],https://cdn.visitkorea.or.kr/img/call?cmd=VIEW&id=8f755da5-9089-415c-93e0-3e63a119c214&thumb,경상남도 함양군 마천면 금계길 5,35.40379174,127.68499709999999
[하동 박경리 토지길 1코스] 섬진강 평사리공원~화개장터,경남 하동군,055-882-2675,['레포츠'],https://cdn.visitkorea.or.kr/img/call?cmd=VIEW&id=9ea2dda7-4826-4cff-b3d5-2180b1b3ac3b&thumb,경상남도 하동군 악양면,35.16232066,127.708932
[하동 박경리 토지길 2코스] 십리벚꽃길~국사암,경남 하동군,055-882-2675,['레포츠'],https://cdn.visitkorea.or.kr/img/call?cmd=VIEW&id=ae6c5860-878a-447e-b7c8-28f905d2d0e2&thumb,경상남도 하동군 화개면,35.18838207,127.62544779999999
가고파 꼬부랑길 벽화마을,경남 창원시,055-220-5690,"['가고파꼬부랑길벽화마을', '가족여행', '감성사진', '경상권', '관광지', '데이트장소추천']",https://cdn.visitkorea.or.kr/img/call?cmd=VIEW&id=5cb3ea2b-f6a1-4d74-ac3a-c20580da7048&thumb,경상남도 창원시 마산합포구 성호서7길 15-8,35.2077494,128.5696471
가라산,경남 거제시,055-639-4321,"['가라산', '경상권', '관광지', '자연', '전망좋은곳', '트레킹']",https://cdn.visitkorea.or.kr/img/call?cmd=VIEW&id=d212b500-35e2-4f3a-927c-fe20bd1d8940&thumb,경상남도 거제시 남부면 다대리,34.746850099999996,128.6297621
가뫼골마을,경남 진주시,055-746-2214,"['관광지', '농촌마을', '농촌여행', '농촌체험', '농촌체험여행', '아이와함께', '이색체험']",https://cdn.visitkorea.or.kr/img/call?cmd=VIEW&id=0c2716d6-a46d-49ac-8346-d4ce6cbb855a&thumb,경상남도 진주시 명석면 관덕길 174,35.2586428,128.0324095
가배량성,경남 거제시,055-639-3000,"['관광지', '역사', '역사공부', '역사관광지', '역사를품은곳', '역사문화재', '역사속']",https://cdn.visitkorea.or.kr/img/call?cmd=VIEW&id=7c0fefa2-35d6-4a58-8b82-a0df59541838&thumb,경상남도 거제시 동부면 가배리,34.772718,128.5596687
가선정,경남 거창군,055-940-3431,"['가선정', '경상권', '관광지', '역사', '역사공부', '역사관광지', '역사를품은곳']",https://cdn.visitkorea.or.kr/img/call?cmd=VIEW&id=d80d72b5-ea00-467a-bcf7-b8b02d7c82e5&thumb,경상남도 거창군 북상면 송계로 731-42,35.779031599999996,127.81591409999999
가섭암지 마애여래삼존입상,경남 거창군,055-940-3431,"['가섭암지마애여래삼존입상', '경상권', '관광지', '보물', '역사', '역사공부', '역사관광지']",https://cdn.visitkorea.or.kr/img/call?cmd=VIEW&id=9bf72221-ebb9-4b08-b678-d951143c6727&thumb,경상남도 거창군 위천면 상천리,35.7303489,127.7929043
가야산 소리길,경남 합천군,055-930-8000,"['관광지', '레포츠', '산책길', '산책코스', '산책하기', '산책하기좋은곳', '연인과함께']",https://cdn.visitkorea.or.kr/img/call?cmd=VIEW&id=5e4b4dc2-cb78-4cba-8587-5942f149f6d5&thumb,경상남도 합천군 가야면 가야산로 1783,35.791100799999995,128.09087549999998
가야산국립공원,경남 합천군,055-930-8000,"['가야산', '가야산국립공원', '경상권', '관광지', '농산정', '단풍여행', '봄꽃여행']",https://cdn.visitkorea.or.kr/img/call?cmd=VIEW&id=0d0f9b63-919e-4d80-8aab-7179c00e3e89&thumb,경상남도 합천군 가야면 가야산로 1200,35.7678166,128.1324164
"가야산국립공원(홍류동,청량동지구)",경남 합천군,055-930-8000,"['가야산국립공원', '가족여행', '경상권', '관광지', '등산', '생태관광', '연인과함께']",https://cdn.visitkorea.or.kr/img/call?cmd=VIEW&id=8ecd489d-89be-4aa4-9dee-0467e85b67b1&thumb,경상남도 합천군 가야면 가야산로 1200,35.7678166,128.1324164
가야의 거리,경남 김해시,055-338-1330,"['관광지', '금관가야', '대가야', '대가야국', '산책길', '산책하기', '산책하기좋은곳']",https://cdn.visitkorea.or.kr/img/call?cmd=VIEW&id=74d71ab1-7b93-4c78-a2af-696dfd66eb85&thumb,경상남도 김해시 봉황동,35.2287539,128.876911
가야진사,경남 양산시,055-392-2555,"['관광지', '역사', '역사공부', '역사관광지', '역사를품은곳', '역사문화재', '역사속']",https://cdn.visitkorea.or.kr/img/call?cmd=VIEW&id=ed3d1a1f-d8ad-4963-ba75-501d14bbc6bc&thumb,경상남도 양산시 원동면 용당들길 43-62,35.367728899999996,128.9023566
가야컨트리클럽,경남 김해시,055-337-0091,['레포츠'],https://cdn.visitkorea.or.kr/img/call?cmd=VIEW&id=3626f8a6-fb9a-4010-9a61-0a65222292b1&thumb,경상남도 김해시 인제로 502,35.28114514,128.89583829999998
가인리 바다낚시,경남 남해군,1588-3415,"['경남권', '낚시터', '레포츠', '바다낚시']",https://cdn.visitkorea.or.kr/img/call?cmd=VIEW&id=undefined&thumb,경상남도 남해군 창선면 흥선로,34.878915299999996,128.0466021
가조 백두산천지온천,경남 거창군,055-941-0721,"['가조백두산천지온천', '가족과함께', '경상권', '관광지', '목욕탕', '스파', '아이와함께']",https://cdn.visitkorea.or.kr/img/call?cmd=VIEW&id=b1bac009-62ea-4d4a-8ee5-3032b41093fa&thumb,경상남도 거창군 가조면 온천길 161,35.6984525,128.0229597
가지산도립공원(밀양),경남 밀양시,055-359-5357,"['가족여행', '가지산도립공원', '경상권', '경치좋은곳', '관광지', '명소', '자연']",https://cdn.visitkorea.or.kr/img/call?cmd=VIEW&id=9a62e397-f1cb-4b83-89fd-a3514e327bbd&thumb,경상남도 밀양시 산내면 삼양리,35.5962414,128.98114679999998
가천 다랭이마을,경남 남해군,010-4590-4642,"['15_16한국관광100선', '가족여행', '가천다랭이마을', '경남', '경상권', '경상권']",https://cdn.visitkorea.or.kr/img/call?cmd=VIEW&id=2f50ccea-ec3f-4784-a4e7-a6198c11cbf0&thumb,경남 남해군 남면 홍현리 남면로 679번길 21,34.7275136,127.89406840000001
가호서원,경남 진주시,055-749-8579,"['가호서원', '경상권', '관광지', '교과서속여행', '문화재', '서원', '역사', '역사공부']",https://cdn.visitkorea.or.kr/img/call?cmd=VIEW&id=efe36ad4-34a1-4225-b5bb-006ffb82d640&thumb,경상남도 진주시 이반성면 용암길 59-2,35.166727200000004,128.3325054
각사산촌행태체험마을,경남 합천군,055-930-4041,"['관광지', '농촌', '농촌체험', '농촌체험마을', '농촌체험여행', '자연마을', '자연좋은곳']",https://cdn.visitkorea.or.kr/img/call?cmd=VIEW&id=3abc4708-e0d9-4b5e-a785-9d042f0830fe&thumb,경상남도 합천군 가야면 야천로 101,35.7723585,128.1398093
각산,경남 사천시,055-831-3425,"['각산', '경상권', '경치좋은곳', '관광지', '등산객', '등산여행', '산책길', '산책하기']",https://cdn.visitkorea.or.kr/img/call?cmd=VIEW&id=ee18b7c1-1167-41c2-92a2-9993e4ffa9e8&thumb,경상남도 사천시 수도골안길 24,34.93951679999999,128.075028
갈계리삼층석탑,경남 거창군,055-940-3431,"['관광지', '역사', '역사공부', '역사관광지', '역사를품은곳', '역사문화재', '역사속']",https://cdn.visitkorea.or.kr/img/call?cmd=VIEW&id=5f34c9c9-4370-46d8-b762-4054adfa95e7&thumb,경상남도 거창군 북상면 갈계리,35.7935113,127.8149498
갈계숲,경남 거창군,055-940-3420,"['갈계숲', '거창군천연보호림', '경상권', '관광지', '숲여행', '자연']",https://cdn.visitkorea.or.kr/img/call?cmd=VIEW&id=58024074-6905-4ac0-b3e8-87b4c69e9f31&thumb,경상남도 거창군 북상면 묵계길 44-4,35.7817366,127.81832040000002
갈도,경남 통영시,055-650-0580,"['갈도바다낚시', '경남권', '레포츠', '바다낚시', '통영바다', '통영바다낚시']",https://cdn.visitkorea.or.kr/img/call?cmd=VIEW&id=undefined&thumb,경상남도 통영시 욕지면 갈도길,34.56229868,128.18359080000002
갈도 남쪽 홈통,경남 통영시,055-650-0580,"['경남권', '낚시터', '레포츠', '통영갈도']",https://cdn.visitkorea.or.kr/img/call?cmd=VIEW&id=2de8da40-4ad5-4fc1-8b90-2cec7b98455e&thumb,경상남도 통영시 욕지면 갈도길,34.56229868,128.18359080000002
갈모봉 산림욕장,경남 고성군,055-670-2671,"['가족과함께', '관광지', '아이와함께', '자연', '자연관광지', '자연발생', '자연좋은곳']",https://cdn.visitkorea.or.kr/img/call?cmd=VIEW&id=67237676-153f-4f58-9329-2ef24ee90adf&thumb,경상남도 고성군 고성읍 이당리,34.9781602,128.2727529
갈천서당,경남 거창군,055-940-3431,"['갈천서당', '경상권', '경상남도유형문화재', '관광지', '역사', '역사공부', '역사관광']",https://cdn.visitkorea.or.kr/img/call?cmd=VIEW&id=bb70bc9b-dc5b-4dc0-ab39-eab7efdeed37&thumb,경상남도 거창군 북상면 송계로 767-34,35.7807533,127.815992
갈천서원,경남 고성군,055-670-2224,"['관광지', '역사', '역사공부', '역사관광지', '역사를품은곳', '역사문화재', '역사속']",https://cdn.visitkorea.or.kr/img/call?cmd=VIEW&id=02a80b3c-8088-4df8-bc5c-b8fddb4d3242&thumb,경상남도 고성군 대가면 갈천로 620,35.047851,128.2509376
감악산(거창),경남 거창군,055-940-3420,"['감악산', '경상권', '관광지', '연수사', '자연']",https://cdn.visitkorea.or.kr/img/call?cmd=VIEW&id=5c091eae-5085-4ef9-a36e-df050989bb9f&thumb,경상남도 거창군 남상면 무촌리,35.633566200000004,127.9103388
감암산,경남 합천군,055-930-3114,"['관광지', '자연']",https://cdn.visitkorea.or.kr/img/call?cmd=VIEW&id=undefined&thumb,경상남도 합천군 가회면 대기2길,35.462849,127.9984328
강구안,경남 통영시,055-645-3805,"['강구안', '경상권', '관광지', '연중무휴', '자연', '항구']",https://cdn.visitkorea.or.kr/img/call?cmd=VIEW&id=ac2cbe47-6d5c-4bee-b43b-9ad16d4e2e8f&thumb,경상남도 통영시 중앙동,34.846581799999996,128.4269332
강양향교,경남 합천군,055-930-3178,"['강양향교', '경상권', '경상권', '경상남도문화재자료', '관광지', '역사', '역사공부']",https://cdn.visitkorea.or.kr/img/call?cmd=VIEW&id=fbadf6f7-7eaa-41c0-815e-2f5153504c61&thumb,경상남도 합천군 합천읍 충효로1길 5-14,35.563531,128.16130729999998
강주연못,경남 진주시,055-749-7449,"['강주연못', '경상권', '관광지', '연못', '자연', '힐링']",https://cdn.visitkorea.or.kr/img/call?cmd=VIEW&id=4eb81096-8551-4dc4-9572-0a4d397e67a3&thumb,경상남도 진주시 정촌면 예하리,35.1205292,128.1002615
개평한옥마을,경남 함양군,055-960-4537,"['개평한옥마을', '경상권', '고택', '관광지', '문화재', '역사', '역사공부', '역사관광지']",https://cdn.visitkorea.or.kr/img/call?cmd=VIEW&id=8e24b9ad-e6d9-4a3f-98e4-c28ea2d2789b&thumb,경상남도 함양군 지곡면 개평길 59,35.5656633,127.76732549999998
갤러리아 백화점 (진주점),경남 진주시,055-791-1000,"['백화점', '브랜드', '쇼핑', '유명브랜드', '진주백화점']",https://cdn.visitkorea.or.kr/img/call?cmd=VIEW&id=7040ffda-73d9-4a3b-8cd0-63c816de330f&thumb,경상남도 진주시 진주대로 1095,35.1967135,128.0823743
거가대교,경남 거제시,055-639-4178,"['SNS감성사진', '거가대교', '관광지', '데이트장소추천', '드라이브여행', '드라이브코스']",https://cdn.visitkorea.or.kr/img/call?cmd=VIEW&id=64780e29-137c-40af-b990-8f7f74dcf152&thumb,경상남도 거제시 장목면 유호리,35.023595,128.7130773
거류산&거류산성,경남 고성군,055-670-2234,['관광지'],https://cdn.visitkorea.or.kr/img/call?cmd=VIEW&id=8d77d243-8f97-43ab-9566-8ab043d5b12e&thumb,경상남도 고성군 거류면 거산리,35.010494200000004,128.3646395
거림계곡,경남 산청군,055-972-7771,"['관광지', '자연']",https://cdn.visitkorea.or.kr/img/call?cmd=VIEW&id=91060bad-5f8a-4ee6-ad67-6d089ca30349&thumb,경상남도 산청군 시천면 세석길,35.2843778,127.72587279999999
거열산성군립공원,경남 거창군,055-940-3420,"['관광지', '자연']",https://cdn.visitkorea.or.kr/img/call?cmd=VIEW&id=be340397-8035-43ef-97f9-88a96b2c4339&thumb,경상남도 거창군 거창읍 거안로 1173-47,35.692781599999996,127.87859350000001
거제 계도어촌체험마을,경남 거제시,055-632-2515,"['가족체험', '관광지', '아이와함께', '어촌', '어촌마을', '어촌체험', '자연마을']",https://cdn.visitkorea.or.kr/img/call?cmd=VIEW&id=3c213d9c-f0a4-4ef4-8bc5-55d7173a9897&thumb,경상남도 거제시 사등면 가조로 837,34.974863799999994,128.5175347
거제 관광모노레일,경남 거제시,055-639-0650,"['거제가볼만한곳', '거제여행코스', '경치여행', '경치좋은곳', '관광모노레일']",https://cdn.visitkorea.or.kr/img/call?cmd=VIEW&id=87cb3ee2-e211-447a-bc87-98bb98fa0de3&thumb,경상남도 거제시 계룡로 61,34.8765244,128.6244494
거제 구조라관광어촌마을,경남 거제시,055-681-2749,"['가족여행', '가족휴양', '거제구조라관광어촌마을', '경상권', '관광지', '아이와함께']",https://cdn.visitkorea.or.kr/img/call?cmd=VIEW&id=198d8240-fdb2-45f9-8787-66b33701a27e&thumb,경상남도 거제시 일운면 구조라로4길 3-1,34.8052923,128.6944706
거제 대우조선해양 옥포조선소,경남 거제시,055-735-2397,"['견학', '경상권', '관광지', '대우조선해양', '대우조선해양옥포조선소', '산업관광']",https://cdn.visitkorea.or.kr/img/call?cmd=VIEW&id=0cae40d1-47b1-437c-9762-4ca43751f3da&thumb,경상남도 거제시 거제대로 3370,34.87535689999999,128.6898688
거제 덕포랜드 씨라인,경남 거제시,055-688-2351,"['가족여행', '거제덕포랜드씨라인', '경상권', '남녀노소', '레포츠', '바다', '복합레저스포츠']",https://cdn.visitkorea.or.kr/img/call?cmd=VIEW&id=01b2d2b3-4c84-4d78-9c4a-565f1890d88c&thumb,경상남도 거제시 덕포5길 35-2,34.91213523,128.7109256
거제 둔덕기성.사등성지.오량성,경남 거제시,055-639-3402,"['관광지', '역사', '역사공부', '역사관광지', '역사를품은곳', '역사문화재', '역사속']",https://cdn.visitkorea.or.kr/img/call?cmd=VIEW&id=7d6fd0cf-e0cc-4364-a053-75318fa93dc3&thumb,경상남도 거제시 둔덕면 거림리,34.8606417,128.5050623
거제 명진리 느티나무,경남 거제시,055-639-4178,"['거제명진리느티나무', '경상권', '경상남도기념물', '관광지', '자연']",https://cdn.visitkorea.or.kr/img/call?cmd=VIEW&id=dcb4049e-fedb-401c-8099-9ac28dbf51e1&thumb,경상남도 거제시 거제면 명진리 220,34.84512,128.6115073
거제 쌍근어촌체험마을,경남 거제시,010-9719-4115,"['가족과함께', '가족체험', '관광지', '바다낚시', '바다내음', '바다전망', '바다체험']",https://cdn.visitkorea.or.kr/img/call?cmd=VIEW&id=3051e097-fb9d-4a62-af1c-4f52b41fc49e&thumb,경상남도 거제시 남부면 남부해안로 1094,34.7624057,128.58947450000002
거제 알로에테마파크,경남 거제시,055-632-9907,"['거제알로에테마파크', '경상권', '관광지', '기념품판매', '놀이동산&테마파크']",https://cdn.visitkorea.or.kr/img/call?cmd=VIEW&id=ef8ab564-ef13-4fea-a994-c4d4d8c2a442&thumb,경상남도 거제시 거제면 거제남서로 3937,34.8417241,128.56045859999998
거제 어구낚시마을,경남 거제시,055-634-0440,"['경상권', '관광지', '아이와함께', '어구낚시마을', '어촌', '어촌마을', '어촌체험']",https://cdn.visitkorea.or.kr/img/call?cmd=VIEW&id=44321358-e01a-4f1d-9b49-df41d05451d4&thumb,경상남도 거제시 둔덕면 어구길 2-3,34.8206153,128.5061036
거제 외간리 동백나무,경남 거제시,055-639-4178,"['거제외간리동백나무', '경상권', '경상남도기념물', '관광지', '자연']",https://cdn.visitkorea.or.kr/img/call?cmd=VIEW&id=be1de8f8-57ad-4189-9e67-946176faac84&thumb,경상남도 거제시 거제면 외간1길 52,34.860879,128.57308989999999
거제 학동리 동백나무 숲 및 팔색조 번식지,경남 거제시,055-639-4178,"['가족여행', '거제학동리동백나무숲', '경상권', '관광지', '자연', '자연관광지']",https://cdn.visitkorea.or.kr/img/call?cmd=VIEW&id=78ec4af8-4a0d-42e0-b8db-f276af9dc6da&thumb,경남 거제시 동부면 학동리,34.773122,128.6345503
거제대교,경남 거제시,055-639-4178,"['거제대교', '거제도가볼만한곳', '건축물', '경치좋은곳', '관광지', '대교', '드라이브여행']",https://cdn.visitkorea.or.kr/img/call?cmd=VIEW&id=null&thumb,경상남도 거제시 사등면 덕호리,34.88123289999999,128.4817992
거제도,경남 거제시,055-639-4178,"['관광지', '자연']",https://cdn.visitkorea.or.kr/img/call?cmd=VIEW&id=d12b5350-c33b-4b00-9c45-f9756f9bdad1&thumb,경상남도 거제시 거제면 거제도,34.8509916,128.5903982
거제도,경남 거제시,055-639-4178,"['거제도바다', '거제도바다낚시', '경남권', '레포츠', '바다낚시']",https://cdn.visitkorea.or.kr/img/call?cmd=VIEW&id=15855b70-3826-4cc0-8d64-b474ae9baff1&thumb,경상남도 거제시 거제면 거제도,34.85104371,128.5904279
거제도 포로수용소 유적공원,경남 거제시,055-639-0625,"['가족과함께', '거제도포로수용소유적공원', '관광지', '교과서속여행', '아이와함께']",https://cdn.visitkorea.or.kr/img/call?cmd=VIEW&id=2bc56c2d-f614-4aa9-ae9e-eaca28ce23bb&thumb,경상남도 거제시 계룡로 61,34.8765244,128.6244494
거제도 해금강,경남 거제시,055-639-4178,"['가족여행', '거제도해금강', '경상권', '관광지', '자연']",https://cdn.visitkorea.or.kr/img/call?cmd=VIEW&id=4bc0d09c-58ff-4ee2-8d42-bd636412887b&thumb,경상남도 거제시 남부면 갈곶리,34.747319299999994,128.64351770000002
거제도해수보양온천,경남 거제시,055-638-3000,"['가족과함께', '관광지', '연인과함께', '연인과함께', '온천', '온천물', '해수욕']",https://cdn.visitkorea.or.kr/img/call?cmd=VIEW&id=eb4bc626-45b7-4f8b-b70d-9354314dc8da&thumb,경상남도 거제시 수양로 507,34.8916555,128.63451650000002
거제맹종죽테마공원,경남 거제시,055-637-0067,"['가족여행', '거제맹종죽테마공원', '경상권', '관광지', '숲체험원', '아이와함께']",https://cdn.visitkorea.or.kr/img/call?cmd=VIEW&id=59576753-2de2-4c94-8936-b58cf745ba21&thumb,경상남도 거제시 하청면 거제북로 700,34.9656044,128.6547548
거제문화예술회관,경남 거제시,055-680-1000,"['가족과함께', '문화공간', '문화시설', '문화예술', '복합문화공간', '연인과함께']",https://cdn.visitkorea.or.kr/img/call?cmd=VIEW&id=02e2c288-fe2d-4398-9e97-9dabff42e773&thumb,경상남도 거제시 장승로 145,34.86717837,128.7233576
거제문화원,경남 거제시,055-681-2603,"['거제문화원', '거제시', '경상남도', '공공단체', '문화시설', '문화원', '문화체육관광부']",https://cdn.visitkorea.or.kr/img/call?cmd=VIEW&id=3ff3cc20-982f-4689-a234-8f3e7316c100&thumb,경상남도 거제시 능포로 7,34.8701972,128.7230926
거제민속박물관,경남 거제시,055-637-3722,"['가족과 함께', '거제민속박물관', '문화시설', '민속문화', '아이와 함께', '전통문화']",https://cdn.visitkorea.or.kr/img/call?cmd=VIEW&id=4fe1b8d8-8e2d-4493-b470-1f60f53d8363&thumb,경상남도 거제시 연초면 대금산로 339-7,34.95011436,128.677436
거제박물관,경남 거제시,055-687-6790,"['거제박물관', '문화시설', '박물관', '아이와 함께', '체험학습']",https://cdn.visitkorea.or.kr/img/call?cmd=VIEW&id=b50a55cf-d7ea-4dd5-9718-3178c4497ffc&thumb,경상남도 거제시 거제대로 3791,34.89403977,128.68621059999998
거제생태문화탐방로(천주교순례길)1,경남 거제시,055-639-4353,"['거제몽돌해안', '거제생태문화탐방로', '걷기길', '걷기여행', '공곶이', '관광지']",https://cdn.visitkorea.or.kr/img/call?cmd=VIEW&id=98f71565-c490-4ec7-86e9-02d46fa96c52&thumb,경상남도 거제시 일운면 와현리 예구선착장,34.8117936,128.70475990000003
거제생태탐방로(양지암등대길),경남 거제시,055-639-4353,"['거제생태탐방로', '걷기길', '걷기여행', '경상권', '관광지', '생태관광', '생태관광지']",https://cdn.visitkorea.or.kr/img/call?cmd=VIEW&id=cf851e37-f29e-4a28-abe1-bc59b49f258c&thumb,경상남도 거제시 일운면 와현리 예구선착장,34.8117936,128.70475990000003
거제시농업개발원,경남 거제시,055-639-6421,"['가족체험여행', '거재농업개발원', '경상권', '관광지', '교육체험', '교육프로그램']",https://cdn.visitkorea.or.kr/img/call?cmd=VIEW&id=80025b38-a1b9-4152-a874-1967d2d0b728&thumb,경상남도 거제시 거제면 거제남서로 3577,34.8564049,128.57921140000002
거제씨월드,경남 거제시,055-682-0330,"['가족여행', '가족체험', '거제씨월드', '경상권', '기념품판매', '동물원', '문화시설']",https://cdn.visitkorea.or.kr/img/call?cmd=VIEW&id=b73cb929-a970-4f96-b2f0-ddba7bdfab8d&thumb,경상남도 거제시 일운면 지세포해안로 15,34.83588245,128.70146200000002
거제어촌민속전시관,경남 거제시,055-639-8282,"['가족여행', '가족체험여행', '거제어촌민속전시관', '경상권', '교과서속여행']",https://cdn.visitkorea.or.kr/img/call?cmd=VIEW&id=aa3cd8ce-ca5f-49f8-a658-b67b3de653d6&thumb,경상남도 거제시 일운면 지세포해안로 41,34.83369365,128.7018853
거제자연예술랜드,경남 거제시,055-633-0002,"['가족여행', '거제자연예술랜드', '경상권', '관광지', '연중무휴', '예술', '자연']",https://cdn.visitkorea.or.kr/img/call?cmd=VIEW&id=8d5218f3-1098-48a5-ae3c-a8928c28a885&thumb,경남 거제시 동부면 구천리,34.808104799999995,128.6340293
거제자연휴양림,경남 거제시,055-639-8115,"['거제자연휴양림', '경상권', '관광지', '자연', '자연휴양림', '휴양여행', '힐링']",https://cdn.visitkorea.or.kr/img/call?cmd=VIEW&id=ac7a8cec-ea9d-429a-8aef-058104899fd4&thumb,경상남도 거제시 동부면 거제중앙로 325,34.7856971,128.625968
거제정글돔,경남 거제시,055-639-6991,"['가족과함께', '거제여행', '거제여행코스', '거제정글돔', '관광지', '아이와함께']",https://cdn.visitkorea.or.kr/img/call?cmd=VIEW&id=9ea513fe-4234-46c0-933d-9c5fd7133eca&thumb,경상남도 거제시 거제면 거제남서로 3595,34.857904100000006,128.5790021
거제향교,경남 거제시,055-639-3402,"['거제향교', '경상권', '경상남도유형문화재', '관광지', '역사', '역사공부', '역사관광지']",https://cdn.visitkorea.or.kr/img/call?cmd=VIEW&id=5e4ec07c-f20e-48d8-a26c-9d38084ebaab&thumb,경상남도 거제시 거제면 기성로7길 10,34.8524296,128.5898555
거제현 관아,경남 거제시,055-639-3399,"['관광지', '역사', '역사공부', '역사관광지', '역사를품은곳', '역사문화재', '역사속']",https://cdn.visitkorea.or.kr/img/call?cmd=VIEW&id=ebdd3f85-bfd3-4bfa-b58b-7be3e41dc2fa&thumb,경상남도 거제시 거제면 읍내로2길 22,34.8509189,128.5909437
거창 Y자형 출렁다리,경남 거창군,055-940-3420,"['Y자형', '가족과함께', '거창가볼만한곳', '경치여행', '경치좋은곳', '관광지', '아이와함께']",https://cdn.visitkorea.or.kr/img/call?cmd=VIEW&id=3123e5c0-8e88-4491-bfeb-1bea29a0c326&thumb,경상남도 거창군 가조면 의상봉길 830,35.736640799999996,128.0409598
거창 갈계리 임씨고가,경남 거창군,055-940-3431,"['갈계리임씨고가', '경상권', '경상남도민속문화재', '관광지', '역사', '역사공부']",https://cdn.visitkorea.or.kr/img/call?cmd=VIEW&id=ecb0e11f-410f-4c58-a36f-18c9350b2b85&thumb,경상남도 거창군 북상면 샘골길 6,35.7803329,127.8187274
거창 감악사지 부도,경남 거창군,055-940-3431,"['감악사지부도', '경상권', '경상남도유형문화재', '관광지', '역사', '역사공부']",https://cdn.visitkorea.or.kr/img/call?cmd=VIEW&id=c08fc9c0-f85b-47f4-9822-58bf8bc5c3f6&thumb,경상남도 거창군 신원면,35.567741,127.925164
거창 강남사지 석조여래입상,경남 거창군,055-940-3431,"['강남사지석조여래입상', '경상권', '경상남도유형문화재', '관광지', '역사', '역사공부']",https://cdn.visitkorea.or.kr/img/call?cmd=VIEW&id=0c2702a7-5190-463e-b89e-271dadb2ed97&thumb,경상남도 거창군 위천면 강남불1길 23-55,35.7405564,127.81571969999999
거창 거기리 성황단,경남 거창군,055-940-3431,"['거기리성황단', '경상권', '경상남도민속문화재', '관광지', '역사', '역사공부']",https://cdn.visitkorea.or.kr/img/call?cmd=VIEW&id=44ef438e-988c-414c-a23f-257faa0999bb&thumb,경상남도 거창군 주상면 거기리,35.74748820000001,127.9511203
거창 내오리 지석묘,경남 거창군,055-940-3431,"['경상권', '경상남도기념물', '관광지', '내오리지석묘', '역사', '역사공부', '역사관광지']",https://cdn.visitkorea.or.kr/img/call?cmd=VIEW&id=be70422f-3087-493f-9534-001ff2bff042&thumb,경상남도 거창군 주상면 내오리,35.780066,127.89324950000001
거창 농산리 석조여래입상,경남 거창군,055-940-3431,"['거창농산리석조여래입상', '경상권', '관광지', '보물', '역사', '역사공부', '역사관광지']",https://cdn.visitkorea.or.kr/img/call?cmd=VIEW&id=9fdd1492-1e14-44e4-b060-88c6aebb3202&thumb,경상남도 거창군 북상면 농산리,35.7732655,127.80721799999999
거창 당동당산,경남 거창군,055-940-3431,"['경상권', '경상남도민속문화재', '관광지', '당동당산', '역사', '역사공부', '역사관광지']",https://cdn.visitkorea.or.kr/img/call?cmd=VIEW&id=2ea562ed-77f0-4bcf-aca5-8d0b8c465fc9&thumb,경상남도 거창군 가조면 장군봉1길 439-42,35.7176648,128.012563
거창 동계 종택(정온선생고택),경남 거창군,055-940-3431,"['경상권', '관광지', '교과서속여행', '동계종택', '문화재', '역사', '역사공부', '역사관광지']",https://cdn.visitkorea.or.kr/img/call?cmd=VIEW&id=593ee836-9062-4053-824e-e71dbd2f6a10&thumb,경상남도 거창군 위천면 강동1길 13,35.755183,127.82880390000001
거창 동호리 이씨고가,경남 거창군,055-940-3431,"['경상권', '경상남도문화재자료', '관광지', '동호리이씨고가', '역사', '역사공부']",https://cdn.visitkorea.or.kr/img/call?cmd=VIEW&id=3a1db27a-a540-41a7-9c39-2f886cd75092&thumb,경상남도 거창군 웅양면 동호1길 217,35.7990586,127.92734340000001
거창 둔마리 벽화 고분,경남 거창군,055-940-3431,"['관광지', '역사', '역사공부', '역사관광지', '역사를품은곳', '역사문화재', '역사속']",https://cdn.visitkorea.or.kr/img/call?cmd=VIEW&id=c708d986-948c-481a-8e9a-ff3999403ad0&thumb,경상남도 거창군 남하면 대촌1길,35.7152181,127.9646676
거창 무릉리 정씨고가,경남 거창군,055-940-3431,"['경상권', '경상남도유형문화재', '고택', '관광지', '무릉리정씨고가', '역사', '역사공부']",https://cdn.visitkorea.or.kr/img/call?cmd=VIEW&id=3d64fd80-12b8-444f-b131-1d44e1cef4f1&thumb,경상남도 거창군 남하면 무릉3길 19-16,35.6641548,127.94596990000001
거창 서변마을,경남 거창군,055-940-3951,"['가족체험', '경상권', '관광지', '농촌', '농촌체험', '농촌체험학습', '서변마을']",https://cdn.visitkorea.or.kr/img/call?cmd=VIEW&id=2d3fde92-81a6-4e54-ac04-407f156a0f87&thumb,경상남도 거창군 거창읍 모곡2길 22,35.715132700000005,127.9170504
거창 솔향기돌담마을,경남 거창군,,"['가족과함께', '관광지', '농촌마을', '농촌여행', '농촌체험마을', '농촌체험여행']",https://cdn.visitkorea.or.kr/img/call?cmd=VIEW&id=0863b3c9-0be5-4671-a916-da32728abb59&thumb,경상남도 거창군 웅양면 동호3길 20,35.7986426,127.92509009999998
거창 수승대,경남 거창군,055-940-8530,"['가족여행', '거창수승대', '경상권', '관광지', '역사', '역사공부', '역사를품은곳']",https://cdn.visitkorea.or.kr/img/call?cmd=VIEW&id=5697f179-ccaa-4d93-8daa-42677ecc0eee&thumb,경상남도 거창군 위천면 은하리길 2,35.761068200000004,127.8335222
거창 요수정,경남 거창군,055-940-3431,"['경상권', '경상남도유형문화재', '관광지', '역사', '역사공부', '역사관광지', '역사를품은곳']",https://cdn.visitkorea.or.kr/img/call?cmd=VIEW&id=720413c7-7ad1-42c3-a2e4-e06729b37561&thumb,경상남도 거창군 위천면 은하리길 100,35.7627086,127.8309033
거창 황금원숭이마을,경남 거창군,055-943-5025,"['거창가볼만한곳', '관광지', '아이와함께', '이색체험', '자연마을', '자연여행']",https://cdn.visitkorea.or.kr/img/call?cmd=VIEW&id=f49203b8-4efd-4c60-ac37-6ead463e47ab&thumb,경상남도 거창군 위천면 상천길 50-159,35.747587599999996,127.81908359999998
거창 황산리 신씨고가,경남 거창군,055-940-3431,"['관광지', '역사', '역사공부', '역사관광지', '역사를품은곳', '역사문화재', '역사속']",https://cdn.visitkorea.or.kr/img/call?cmd=VIEW&id=483a92a5-5073-473a-8150-8d435bc1447b&thumb,경상남도 거창군 위천면 황산1길 109-5,35.7630354,127.8370912
거창 황산마을 옛 담장,경남 거창군,055-940-3431,"['경상권', '관광지', '등록문화재', '역사', '역사공부', '역사관광지', '역사를품은곳']",https://cdn.visitkorea.or.kr/img/call?cmd=VIEW&id=1ee1abde-676a-4e38-a2a1-5b1f919d4803&thumb,경상남도 거창군 위천면 황산1길 109-5,35.7630354,127.8370912
거창문화센터,경남 거창군,055-940-8460,"['가족과함께', '공연', '문화공간', '문화시설', '문화예술', '문화예술활동', '복합문화공간']",https://cdn.visitkorea.or.kr/img/call?cmd=VIEW&id=a2d61dee-014c-4429-8cdd-e4ba8c7014b3&thumb,경상남도 거창군 거창읍 수남로 2181,35.67430045,127.9103127
거창문화원,경남 거창군,055-942-6166,"['거창문화원', '문화강좌', '문화시설', '열린문화공간']",https://cdn.visitkorea.or.kr/img/call?cmd=VIEW&id=undefined&thumb,경상남도 거창군 거창읍 수남로 2193-40,35.67353077,127.9094196
거창박물관,경남 거창군,055-940-8740,"['거창박물관', '경상권', '기차여행', '문화시설', '박물관', '아이와함께', '전시관']",https://cdn.visitkorea.or.kr/img/call?cmd=VIEW&id=c1815990-1a87-4898-84ed-33a95c636ff6&thumb,경상남도 거창군 거창읍 수남로 2181,35.67430045,127.9103127
거창사건역사교육관,경남 거창군,055-940-8510,"['거창군', '경상남도', '무장애', '문화시설', '역사', '희생자']",https://cdn.visitkorea.or.kr/img/call?cmd=VIEW&id=ffbba783-156a-4957-883d-67ae5c72e4da&thumb,경상남도 거창군 신원면 신차로 2924,35.5555309,127.9260956
거창사건추모공원,경남 거창군,055-940-8510,"['거창사건추모공원', '걷기길', '경상권', '관광지', '교과서속으로', '근대문화유산']",https://cdn.visitkorea.or.kr/img/call?cmd=VIEW&id=6cebb721-2496-4b42-b90c-15bb1b641c29&thumb,경상남도 거창군 신원면 신차로 2924,35.5555309,127.9260956
거창사과테마파크,경남 거창군,055-940-8781,"['가족여행', '가족체험여행', '거창사과테마파크', '경상권', '농촌체험', '마을축제']",https://cdn.visitkorea.or.kr/img/call?cmd=VIEW&id=7ac40733-e28c-4edb-9a18-6e177d283e3e&thumb,경상남도 거창군 거창읍 거함대로 3372-60,35.67403799,127.9217451
거창스포츠파크,경남 거창군,055-945-8700,"['거창스포츠파크', '경상권', '레포츠', '복합레저스포츠']",https://cdn.visitkorea.or.kr/img/call?cmd=VIEW&id=8fb677cd-f777-4283-867d-82316670527f&thumb,경상남도 거창군 거창읍 심소정길 39-36,35.69513581,127.92635049999998
거창유기공방,경남 거창군,055-943-4949,"['쇼핑', '수제품', '전통유기', '전통유기제품']",https://cdn.visitkorea.or.kr/img/call?cmd=VIEW&id=undefined&thumb,경상남도 거창군 남하면 가조가야로 310,35.70058179999999,127.9467078
"거창장 (1, 6일)",경남 거창군,055-944-2581,"['가족여행', '거창장', '경상권', '기차여행', '나들이', '나홀로여행', '먹거리', '쇼핑']",https://cdn.visitkorea.or.kr/img/call?cmd=VIEW&id=fe5e0919-4e93-4b5d-b4d1-211e8b571c22&thumb,경상남도 거창군 거창읍 시장길 54,35.6861545,127.9137062
거창향교,경남 거창군,055-940-3431,"['거창향교', '경상권', '경상남도유형문화재', '관광지', '역사', '역사공부', '역사관광지']",https://cdn.visitkorea.or.kr/img/call?cmd=VIEW&id=41231548-6d10-4f5c-bad9-e2ffa476566f&thumb,경상남도 거창군 거창읍 성산길 34,35.692643100000005,127.9038345
건계정,경남 거창군,055-940-3431,"['건계정', '경상권', '경상남도문화재자료', '관광지', '역사', '역사공부', '역사관광지']",https://cdn.visitkorea.or.kr/img/call?cmd=VIEW&id=f8caed40-4fad-4910-aa77-723d93f38503&thumb,경상남도 거창군 거창읍 거안로 1173-21,35.6926306,127.8790446
경남 하동 악양 [슬로시티],경남 하동군,055-880-2370,"['가족과함께', '관광지', '슬로시티', '아이와함께', '역사', '자연마을', '자연환경']",https://cdn.visitkorea.or.kr/img/call?cmd=VIEW&id=2eebc89d-0097-4a0d-8d11-e731b13d3d52&thumb,경상남도 하동군 악양면 악양서로 357,35.1623104,127.7089189
경남 하동군 으뜸상품홍보관,경남 하동군,055-883-5852,"['경상권', '기념품판매', '쇼핑', '특산물', '하동군으뜸상품홍보관']",https://cdn.visitkorea.or.kr/img/call?cmd=VIEW&id=59f0025e-d1ab-4b34-84de-337086cab0c2&thumb,경상남도 하동군 하동읍 군청로 36,35.0653885,127.75249099999999
"경남관광기념품점 (구, 경남관광공예명품관)",경남 창원시,055-212-1340,"['가족여행', '경남관광공예명품관', '경남관광기념품점', '경상권', '기념품판매']",https://cdn.visitkorea.or.kr/img/call?cmd=VIEW&id=4bc67d23-82d9-4cc3-a377-2c7d3d4f37dc&thumb,경상남도 창원시 의창구 원이대로 362,35.2383807,128.6569279
경남대학교 박물관,경남 창원시,055-249-2922,"['경남대학교박물관', '경상권', '무료관람', '문화시설', '박물관', '실내여행지']",https://cdn.visitkorea.or.kr/img/call?cmd=VIEW&id=undefined&thumb,경상남도 창원시 마산합포구 경남대학로 7,35.18432093,128.55509640000002
경남도립미술관,경남 창원시,055-254-4600,"['경남도립미술관', '경상권', '데이트코스', '문화시설', '사계절', '상설공연', '실내여행지']",https://cdn.visitkorea.or.kr/img/call?cmd=VIEW&id=e47b732c-c26c-43c2-9d4a-c3ba90a6f7c5&thumb,경상남도 창원시 의창구 용지로 296,35.23946357,128.6908566
경백사,경남 사천시,055-831-2717,"['경백사', '경상권', '경상남도문화재자료', '관광지', '역사', '역사공부', '역사관광지']",https://cdn.visitkorea.or.kr/img/call?cmd=VIEW&id=b47c46d6-3638-44e1-8f6d-1e750a45f4b5&thumb,경상남도 사천시 용현면 온정2길 42,35.028336700000004,128.0578935
경상남도 수산자원연구소 민물고기전시관,경남 밀양시,055-254-3451,"['경남권', '문화시설', '민물고기전시관', '수산자원연구소', '아이와함께']",https://cdn.visitkorea.or.kr/img/call?cmd=VIEW&id=82151094-10e7-4fec-9768-dc86fbf5b366&thumb,경상남도 밀양시 산외면 산외남로 28-27,35.49739777,128.7974176
경상남도과학교육원,경남 진주시,055-760-8150,"['경상권', '경상남도과학교육원', '교과서속여행', '문화시설', '사계절', '아이와함께']",https://cdn.visitkorea.or.kr/img/call?cmd=VIEW&id=c3b7d55c-115a-4e00-95b3-ae4a5ad70426&thumb,경상남도 진주시 진성면 진의로 178-35,35.20149650000001,128.2260027
경상남도문화예술회관,경남 진주시,1544-6711,"['가족여행', '경상권', '경상남도문화예술회관', '단체관람', '문화시설', '연인과함께']",https://cdn.visitkorea.or.kr/img/call?cmd=VIEW&id=2dae2e6f-4e0c-44c5-97df-0d9e14ddc817&thumb,경상남도 진주시 강남로 215,35.18727372,128.091744
경상남도수목원,경남 진주시,055-254-3811,"['가족여행', '경상남도수목원', '관광지', '생태관광지', '수목원', '자연', '자연좋은곳']",https://cdn.visitkorea.or.kr/img/call?cmd=VIEW&id=59d0ee25-43d0-4d6c-bf46-c4bf042cd980&thumb,경상남도 진주시 이반성면 수목원로 386,35.159279999999995,128.2928355
경상남도청소년수련원,경남 고성군,055-834-6211,['레포츠'],https://cdn.visitkorea.or.kr/img/call?cmd=VIEW&id=undefined&thumb,경상남도 고성군 하이면 자란만로 646,34.90748353,128.1521501
경상남도환경교육원,경남 산청군,055-254-4011,"['경남권', '경상남도환경교육원', '교육프로그램', '레포츠']",https://cdn.visitkorea.or.kr/img/call?cmd=VIEW&id=undefined&thumb,경상남도 산청군 시천면 지리산대로 1,35.31829615,127.7570957
경충사(정기룡장군유허지),경남 하동군,055-882-3733,"['관광지', '불교', '불교사찰', '사찰', '사찰여행', '역사', '자연속으로', '자연좋은곳']",https://cdn.visitkorea.or.kr/img/call?cmd=VIEW&id=48f51240-660b-49db-ba76-7e19221d1bc8&thumb,경상남도 하동군 금남면 경충로 503-14,34.983715600000004,127.8954745
경호강,경남 산청군,055-970-7201,"['관광지', '자연']",https://cdn.visitkorea.or.kr/img/call?cmd=VIEW&id=9551d2c4-d05d-4ca6-aa19-412217298232&thumb,경상남도 산청군 산청읍 산청대로,35.4140121,127.88810420000001
경호강래프팅,경남 산청군,055-972-2002,"['경호강래프팅', '래프팅', '레포츠']",https://cdn.visitkorea.or.kr/img/call?cmd=VIEW&id=063d5313-ddeb-4c21-b5e8-3d839259d092&thumb,경상남도 산청군 금서면 친환경로 2619-2,35.4185696,127.8721435
경화역 벚꽃길,경남 창원시,055-289-8815,"['감성사진', '경상권', '경화역벚꽃길', '관광지', '데이트코스', '벚꽃명소', '사진찍기']",https://cdn.visitkorea.or.kr/img/call?cmd=VIEW&id=d1cc6d87-9bc9-4339-ac65-f52ee2fbbf7a&thumb,경상남도 창원시 진해구 진해대로 649,35.127979100000005,128.74492279999998
"경화장 (3, 8일)",경남 창원시,055-548-2043,"['가족여행', '경상권', '경화장', '기차여행', '나들이', '나홀로여행', '먹거리', '쇼핑']",https://cdn.visitkorea.or.kr/img/call?cmd=VIEW&id=e9a9e242-433b-4403-af67-0c836bdb2448&thumb,경상남도 창원시 진해구 경화시장로 37,35.1569955,128.6905413
계룡산,경남 거제시,055-639-4321,"['경상권', '계롱산', '관광지', '자연', '전망좋은곳', '트레킹']",https://cdn.visitkorea.or.kr/img/call?cmd=VIEW&id=08696be9-9e95-4d0c-bb9b-024b731a1d26&thumb,경상남도 거제시 신현읍,34.882409100000004,128.62310290000002
계룡산 온천,경남 거제시,055-638-0002,"['가족여행', '경상권', '계룡산온천', '관광지', '부모님과함께', '스파', '연중무휴']",https://cdn.visitkorea.or.kr/img/call?cmd=VIEW&id=null&thumb,경상남도 거제시 거제중앙로 1779-1,34.877621500000004,128.6282862
계승사(고성),경남 고성군,055-673-0281,"['관광지', '불교', '불교문화', '사찰', '사찰여행', '역사', '자연속으로', '자연환경']",https://cdn.visitkorea.or.kr/img/call?cmd=VIEW&id=undefined&thumb,경상남도 고성군 영현면 대법3길 236,35.0529506,128.2241778
계원사(양산),경남 양산시,055-385-4148,"['관광지', '불교', '불교문화', '사찰', '사찰여행', '역사', '자연속으로', '자연환경']",https://cdn.visitkorea.or.kr/img/call?cmd=VIEW&id=undefined&thumb,경상남도 양산시 중앙우회로 66-64,35.3409546,129.0442985
고견사(거창),경남 거창군,055-942-1333,"['관광지', '불교', '불교문화', '불교사찰', '사찰', '사찰여행', '역사', '자연속으로']",https://cdn.visitkorea.or.kr/img/call?cmd=VIEW&id=null&thumb,경상남도 거창군 가조면 의상봉길 1049,35.745606200000005,128.0393314
고려동유적지,경남 함안군,055-580-2573,"['경상권', '경상남도기념물', '고려동유적지', '관광지', '역사', '역사유적지']",https://cdn.visitkorea.or.kr/img/call?cmd=VIEW&id=74d286b8-1879-4a1b-b439-186543ba9244&thumb,경상남도 함안군 산인면 모곡2길 53,35.2763872,128.4599687
고성 덕명리 공룡과 새발자국 화석 산지,경남 고성군,1600-0064,"['관광지', '자연']",https://cdn.visitkorea.or.kr/img/call?cmd=VIEW&id=74cab541-4953-4a7a-ae7f-c733bf2a6d37&thumb,경상남도 고성군 하이면 덕명5길 65,34.9089933,128.1547574
고성 송학동 고분군,경남 고성군,055-670-2224,"['관광지', '역사', '역사공부', '역사관광지', '역사를품은곳', '역사문화재', '역사속']",https://cdn.visitkorea.or.kr/img/call?cmd=VIEW&id=80142e9c-782a-48db-ac02-753f579a1c1c&thumb,경상남도 고성군 고성읍 송학고분로,34.9802732,128.30798000000001
고성 자란만,경남 고성군,055-670-2114,"['관광지', '자연']",https://cdn.visitkorea.or.kr/img/call?cmd=VIEW&id=ef6df036-cea0-459f-b539-417fc219258d&thumb,경상남도 고성군 하일면 용태1길,34.9416179,128.2104312
고성 학동마을 옛 담장,경남 고성군,055-670-2224,"['경상권', '관광지', '등록문화재', '역사', '역사공부', '역사를품은곳', '역사문화재']",https://cdn.visitkorea.or.kr/img/call?cmd=VIEW&id=49035d95-2498-4a0c-88df-40348fff9c7e&thumb,경상남도 고성군 하일면 학동돌담길 11-5,34.9490073,128.19235849999998
고성공룡박물관,경남 고성군,055-670-4451,"['경상권', '고성공룡박물관', '공룡박물관', '문화시설', '박물관']",https://cdn.visitkorea.or.kr/img/call?cmd=VIEW&id=c9941730-37c5-4fae-b36d-3519db18adf1&thumb,경상남도 고성군 하이면 자란만로 618,34.90809856,128.1486504
고성문화원(경남),경남 고성군,055-672-3805,"['고성문화원', '문화시설', '복합문화공간', '열린문화공간']",https://cdn.visitkorea.or.kr/img/call?cmd=VIEW&id=a5c7fe6d-bca7-4ed0-ad22-a62b9ede53d3&thumb,경상남도 고성군 고성읍 성내로 54,34.97543943,128.3149137
고성박물관,경남 고성군,055-670-5822,"['가야', '가족과함께', '고성가볼만한곳', '기획전시', '남녀노소', '대가야국', '무더위_피해_실내여행']",https://cdn.visitkorea.or.kr/img/call?cmd=VIEW&id=0aded3aa-d38f-47fc-b043-de46154e32a9&thumb,경상남도 고성군 고성읍 송학로113번길 50,34.97937268,128.3210119
고성생태학습관,경남 고성군,055-670-4407,"['고성가볼만한곳', '고성생태학습관', '문화시설', '아이와함께', '자연과함께']",https://cdn.visitkorea.or.kr/img/call?cmd=VIEW&id=8d7699df-2663-46d3-bc12-c1c1542b73ae&thumb,경상남도 고성군 고성읍 송학리 134-1,34.98344803,128.3439866
고성오광대전수회관,경남 고성군,055-674-2582,"['경상남도', '경상남도', '고성군', '광대', '무형문화재', '문화시설', '오광대', '탈놀이']",https://cdn.visitkorea.or.kr/img/call?cmd=VIEW&id=9336c778-27d1-4ec0-ba68-4cf31e8f908c&thumb,경상남도 고성군 고성읍 남해안대로 2571,34.97363623,128.33410279999998
고성유람선,경남 고성군,055-672-1775,"['가족과함께', '경치좋은곳', '관광지', '자연관광지', '자연속으로', '자연여행']",https://cdn.visitkorea.or.kr/img/call?cmd=VIEW&id=null&thumb,경상남도 고성군 고성읍 공룡로 3083,34.9574403,128.32261029999998
고성자연사박물관,경남 고성군,055-670-4505,"['경남권', '고성자연사박물관', '교과서속여행', '문화시설', '박물관', '아이와함께']",https://cdn.visitkorea.or.kr/img/call?cmd=VIEW&id=bf104224-9560-40e3-abd3-9220a7436d3e&thumb,경상남도 고성군 회화면 당항만로 1116,35.05322563,128.39202609999998
"고성장 (1, 6일)",경남 고성군,055-674-6931,"['가족여행', '경상권', '고성장', '기차여행', '나들이', '나홀로여행', '먹거리', '쇼핑']",https://cdn.visitkorea.or.kr/img/call?cmd=VIEW&id=12bb095f-7898-4184-90c4-ce8474886960&thumb,경상남도 고성군 고성읍 중앙로25번길 57,34.977242700000005,128.323632
고성장산리허씨고가,경남 고성군,055-670-2224,"['관광지', '역사', '역사공부', '역사를품은곳', '역사문화재', '역사속', '역사속으로']",https://cdn.visitkorea.or.kr/img/call?cmd=VIEW&id=9f94ae9a-14ce-48ee-ab84-425752a5dfa3&thumb,경상남도 고성군 마암면 장산길 21,35.060177100000004,128.32410579999998
고성탈박물관,경남 고성군,055-672-8829,"['경상권', '고성탈박물관', '교과서속여행', '문화시설', '박물관', '실내여행지']",https://cdn.visitkorea.or.kr/img/call?cmd=VIEW&id=22dcc428-98d0-4abd-9ba4-54ac5a984552&thumb,경상남도 고성군 고성읍 율대2길 23,34.97104862,128.3338051
고성향교,경남 고성군,055-670-2224,"['경상권', '경상남도유형문화재', '고성향교', '관광지', '역사', '역사공부', '역사관광지']",https://cdn.visitkorea.or.kr/img/call?cmd=VIEW&id=e3b7b446-455a-4a98-be1b-349915a87adb&thumb,경상남도 고성군 고성읍 교사3길 41,34.9760374,128.3090928
고운동계곡,경남 산청군,055-970-7201,"['관광지', '자연']",https://cdn.visitkorea.or.kr/img/call?cmd=VIEW&id=d54d270d-d2c3-4983-9736-16c3b0933866&thumb,경상남도 산청군 시천면 반천로,35.237885299999995,127.79751170000002
고현리 공룡발자국화석,경남 창원시,055-225-3673,"['경치좋은곳', '공룡발자국', '공룡화석', '공룡화석지', '관광지', '남녀노소', '바다경치']",https://cdn.visitkorea.or.kr/img/call?cmd=VIEW&id=16f2b12d-2b6b-4dcc-b49f-1a35db729be9&thumb,경상남도 창원시 마산합포구 진동면 고현장터길 39,35.102770899999996,128.4790798
고현성,경남 거제시,055-639-3000,"['관광지', '역사', '역사공부', '역사관광지', '역사를품은곳', '역사문화재', '역사속']",https://cdn.visitkorea.or.kr/img/call?cmd=VIEW&id=b20c45da-82be-4944-9cc6-caf48e251471&thumb,경상남도 거제시 고현동,34.882409100000004,128.62310290000002
곤양향교,경남 사천시,055-831-2717,"['가족여행', '경상권', '경상남도유형문화재', '곤양향교', '관광지', '역사', '역사공부']",https://cdn.visitkorea.or.kr/img/call?cmd=VIEW&id=74bdfa52-a53e-499a-a0cb-03d0959526d2&thumb,경상남도 사천시 곤양면 향교길 43-31,35.061091,127.96895049999999
공곶이,경남 거제시,055-639-4178,"['가족과함께', '관광지', '산책길', '산책하기', '산책하기좋은곳', '자연관광', '자연관광지']",https://cdn.visitkorea.or.kr/img/call?cmd=VIEW&id=c4c7e61f-d535-4c00-8338-652bb3575d66&thumb,경상남도 거제시 일운면 와현로 257,34.7998652,128.71475420000002
관룡사,경남 창녕군,055-521-1747,"['가족여행', '경상권', '관광지', '관룡사', '불교', '불교사찰', '사찰', '사찰여행']",https://cdn.visitkorea.or.kr/img/call?cmd=VIEW&id=0c960e22-abae-44e5-82c8-5b33815a9fe1&thumb,경상남도 창녕군 창녕읍 화왕산관룡사길 171,35.5327205,128.5535308
관산서당,경남 창녕군,055-530-1473,"['경상권', '경상남도문화재자료', '관광지', '관산서당', '역사', '역사공부', '역사관광지']",https://cdn.visitkorea.or.kr/img/call?cmd=VIEW&id=0598b547-c55f-4faf-99fe-505156dd853d&thumb,경상남도 창녕군 고암면 월미상월길 115,35.570948200000004,128.522249
관음사(창녕),경남 창녕군,055-521-1874,"['관광지', '불교', '불교문화', '사찰', '사찰여행', '역사', '자연속으로', '자연환경']",https://cdn.visitkorea.or.kr/img/call?cmd=VIEW&id=7bb46c36-000e-456b-acf9-7f20557cbfc8&thumb,경상남도 창녕군 도천면 영산도천로 11-14,35.4054249,128.5063271
관음정사(김해),경남 김해시,055-345-4741,"['관광지', '불교', '불교문화', '사찰', '사찰여행', '역사', '자연속으로', '자연환경']",https://cdn.visitkorea.or.kr/img/call?cmd=VIEW&id=43cf365b-a3b2-46e7-94a9-1b31665bcbb9&thumb,경상남도 김해시 진례면 평지길 299,35.2216513,128.73103
관해정,경남 창원시,055-225-3673,"['경상권', '경상남도문화재자료', '관광지', '관해정', '역사', '역사공부', '역사관광지']",https://cdn.visitkorea.or.kr/img/call?cmd=VIEW&id=196f78cf-0bc9-4117-9a61-51c9b7354f28&thumb,경상남도 창원시 마산합포구 관해정길 17,35.2112578,128.56171640000002
광산서당,경남 창녕군,055-530-1473,"['경상권', '경상남도문화재자료', '관광지', '광산서당', '역사', '역사공부', '역사관광지']",https://cdn.visitkorea.or.kr/img/call?cmd=VIEW&id=16dbe4fa-d41f-414c-9f82-1b2c1ed11660&thumb,경상남도 창녕군 유어면 유어장마로 415,35.4894929,128.4400115
광심정,경남 함안군,055-580-2573,"['관광지', '역사', '역사공부', '역사관광지', '역사를품은곳', '역사문화재', '역사속']",https://cdn.visitkorea.or.kr/img/call?cmd=VIEW&id=865ff44a-6158-4ba1-8f3d-20284dd5bee4&thumb,경상남도 함안군 칠북면 봉촌2길 277,35.376562799999995,128.558597
광제서원,경남 진주시,055-749-8579,"['경상권', '경상남도문화재자료', '관광지', '광제서원', '역사', '역사공부', '역사관광지']",https://cdn.visitkorea.or.kr/img/call?cmd=VIEW&id=33b5f262-87b2-40aa-8f4c-7f6740ce9f74&thumb,경상남도 진주시 명석면 광제산로685번길 116,35.2753934,128.0310949
광천서원,경남 밀양시,055-359-5788,"['관광지', '역사', '역사공부', '역사관광지', '역사를품은곳', '역사문화재', '역사속']",https://cdn.visitkorea.or.kr/img/call?cmd=VIEW&id=6b25bcc2-1d93-4436-87a1-f86dd858ca17&thumb,경상남도 밀양시 부북면 사포중앙1안길 7,35.4730835,128.73555090000002
구계서원,경남 사천시,055-831-2717,"['경상권', '경상남도문화재자료', '관광지', '구계서원', '역사', '역사공부', '역사관광지']",https://cdn.visitkorea.or.kr/img/call?cmd=VIEW&id=cfb1531c-4dc8-4654-aad9-4cc0a2c6a22b&thumb,경상남도 사천시 사천읍 구암두문로 361-17,35.09096829999999,128.1253468
구곡산,경남 산청군,055-970-6911,"['관광지', '자연']",https://cdn.visitkorea.or.kr/img/call?cmd=VIEW&id=undefined&thumb,경상남도 산청군 시천면 지리산대로,35.2888009,127.7739882
구니서당,경남 창녕군,055-530-1473,"['경상권', '경상남도문화재자료', '관광지', '구니서당', '역사', '역사공부', '역사관광지']",https://cdn.visitkorea.or.kr/img/call?cmd=VIEW&id=eefae807-0e7d-4c9f-978e-99381c770abe&thumb,경상남도 창녕군 고암면 창밀로 506-30,35.5804886,128.5248784
구만계곡(밀양),경남 밀양시,055-359-5357,"['관광지', '자연']",https://cdn.visitkorea.or.kr/img/call?cmd=VIEW&id=cdc30596-c2d4-49f2-9b1d-37d00417a209&thumb,경남 밀양시 산내면 봉의2안길,35.5948592,128.8811444
구복마을,경남 창원시,055-225-3691,"['관광지', '자연']",https://cdn.visitkorea.or.kr/img/call?cmd=VIEW&id=e12c6df6-fe7f-4b71-aeb1-21d569a32bbd&thumb,경남 창원시 마산합포구 구산면 구복리,35.0637186,128.5535994
구암서원(창원),경남 창원시,055-225-3673,"['관광지', '역사', '역사공부', '역사관광지', '역사를품은곳', '역사문화재', '역사속']",https://cdn.visitkorea.or.kr/img/call?cmd=VIEW&id=f7720692-1821-420c-a975-eeaf2ba34e13&thumb,경상남도 창원시 마산회원구 구암북4길 7-10,35.251833500000004,128.59172320000002
구연서원,경남 거창군,055-940-3431,"['경상권', '경상남도유형문화재', '관광지', '구연서원', '역사', '역사공부', '역사관광지']",https://cdn.visitkorea.or.kr/img/call?cmd=VIEW&id=2f0ce67b-da73-46f3-a314-f05caef5e305&thumb,경상남도 거창군 위천면 은하리길 100,35.7627086,127.8309033
구영해수욕장,경남 거제시,055-1330,"['가족여행', '경상권', '관광지', '구영해수욕장', '여름여행', '자연', '피서여행']",https://cdn.visitkorea.or.kr/img/call?cmd=VIEW&id=9696cb49-93c2-47e6-a46d-618c690b002f&thumb,경남 거제시 장목면 거제북로,35.006994299999995,128.68872290000002
구을비도,경남 통영시,055-650-0580,"['경남권', '레포츠', '바다낚시', '통영바다', '통영바다낚시', '통영시']",https://cdn.visitkorea.or.kr/img/call?cmd=VIEW&id=undefined&thumb,경상남도 통영시 한산면 매죽리,34.73106961,128.5311723
구조라해수욕장,경남 거제시,055-639-4244,"['가족여행', '경상권', '관광지', '구조라해수욕장', '바다풍경', '여름방학가볼만한곳']",https://cdn.visitkorea.or.kr/img/call?cmd=VIEW&id=a49666d7-753b-434e-be60-3d38d7ffffcd&thumb,경상남도 거제시 일운면,34.8296765,128.7031452
구천댐(구천저수지),경남 거제시,055-639-4178,"['경상권', '경치좋은곳', '관광지', '구천댐', '구천저수지', '자연', '자연경관', '자연관광']",https://cdn.visitkorea.or.kr/img/call?cmd=VIEW&id=f0f350a9-afdd-4db4-af21-89648dcc42a7&thumb,경상남도 거제시 동부면 구천리,34.808104799999995,128.6340293
구천서원(김해),경남 김해시,055-338-1330,"['관광지', '역사', '역사공부', '역사관광지', '역사를품은곳', '역사문화재', '역사속']",https://cdn.visitkorea.or.kr/img/call?cmd=VIEW&id=071c53f9-9057-44ef-b6c8-53b55d84b485&thumb,경상남도 김해시 상동면 상동로 274-12,35.302628000000006,128.90078219999998
구천서원(함양),경남 함양군,055-960-4537,"['관광지', '역사', '역사공부', '역사관광지', '역사를품은곳', '역사문화재', '역사속']",https://cdn.visitkorea.or.kr/img/call?cmd=VIEW&id=a8810027-400e-4865-b39f-a1efcf9a05f7&thumb,경상남도 함양군 수동면 효리길 30-17,35.55477020000001,127.7868639
구천암(김해),경남 김해시,055-335-8633,"['관광지', '불교', '불교문화', '사찰', '사찰여행', '역사', '자연속으로', '자연환경']",https://cdn.visitkorea.or.kr/img/call?cmd=VIEW&id=null&thumb,경상남도 김해시 생림면 마사로229번길 58-175,35.3554187,128.83072990000002
국도,경남 통영시,055-650-3580,"['경남권', '레포츠', '바다낚시', '통영국도', '통영바다', '통영바다낚시', '통영시']",https://cdn.visitkorea.or.kr/img/call?cmd=VIEW&id=undefined&thumb,경상남도 통영시 욕지면 중촌길,34.63495682,128.2598332
국립 3·15 민주묘지,경남 창원시,055-253-9315,"['경상권', '관광지', '교과서속여행', '국립3·15민주묘지', '아이와함께', '역사']",https://cdn.visitkorea.or.kr/img/call?cmd=VIEW&id=d5a450d6-a907-4bce-8dc9-b0e19ad81863&thumb,경상남도 창원시 마산회원구 3·15성역로 75,35.252685799999995,128.5875481
국립 남해편백자연휴양림,경남 남해군,055-867-7881,"['가족과함께', '경상권', '관광지', '국립남해편백자연휴양림', '숲치유', '아이와함께']",https://cdn.visitkorea.or.kr/img/call?cmd=VIEW&id=f2a2b3c0-098b-428a-9c8c-ff82de93431a&thumb,경상남도 남해군 삼동면 금암로 658,34.7521356,128.02016070000002
국립 지리산자연휴양림,경남 함양군,055-963-8133,"['가족여행', '걷기길', '경상권', '관광지', '국립지리산자연휴양림', '나들이', '여름여행']",https://cdn.visitkorea.or.kr/img/call?cmd=VIEW&id=c0c62987-91ef-4cd1-8a69-bac0f0c64740&thumb,경상남도 함양군 마천면 음정길 152,35.347852,127.6431363
국립김해박물관,경남 김해시,055-320-6800,"['경상권', '교과서속여행', '국립김해박물관', '문화시설', '박물관', '아이와함께']",https://cdn.visitkorea.or.kr/img/call?cmd=VIEW&id=ab7daf4a-69cc-41a7-ba15-9f907ec8d248&thumb,경상남도 김해시 가야의길 190,35.24353009,128.8725848
국립밀양기상과학관,경남 밀양시,055-981-7370,"['국립밀양기상과학관', '기상과학관', '문화시설', '밀양가볼만한곳', '아이와함께']",https://cdn.visitkorea.or.kr/img/call?cmd=VIEW&id=9e2b5eed-558a-45a8-80a4-f8b4e0564442&thumb,경상남도 밀양시 밀양대공원로 84,35.50214408,128.76063349999998
국립진주박물관,경남 진주시,055-740-0698,"['경상권', '국립진주박물관', '기차여행', '문화시설', '미세먼지_피하는_실내여행']",https://cdn.visitkorea.or.kr/img/call?cmd=VIEW&id=b71afa0d-f273-4432-b125-7569c9656d4d&thumb,경상남도 진주시 남강로 626-35,35.18901371,128.0768441
국사봉(거제),경남 거제시,055-639-4321,"['관광지', '자연']",https://cdn.visitkorea.or.kr/img/call?cmd=VIEW&id=null&thumb,경상남도 거제시 수월동,34.887888000000004,128.6621174
국사봉(의령),경남 의령군,055-570-3730,"['관광지', '자연']",https://cdn.visitkorea.or.kr/img/call?cmd=VIEW&id=undefined&thumb,경상남도 의령군 부림면 여배로,35.5020701,128.3380651
국산서원,경남 고성군,055-670-2224,"['관광지', '역사', '역사공부', '역사관광지', '역사를품은곳', '역사문화재', '역사속']",https://cdn.visitkorea.or.kr/img/call?cmd=VIEW&id=7e584108-5b3c-4c8c-a161-5bf927dddc29&thumb,경상남도 고성군 동해면 외곡1길 151-44,35.0148578,128.40666470000002
군항마을 역사길,경남 창원시,055-225-3691,"['관광지', '군항마을', '근대건축물', '근대역사', '산책하기좋은곳', '아이와함께']",https://cdn.visitkorea.or.kr/img/call?cmd=VIEW&id=85ce92aa-8184-415c-aec8-6b2b4968ae11&thumb,경상남도 창원시 진해구 충장로 71,35.1534537,128.6601497
굿데이뮤지엄,경남 창원시,070-7576-2017,"['경상권', '관광지', '굿데이뮤지엄', '무학소주', '박물관', '복합문화공간', '산업관광']",https://cdn.visitkorea.or.kr/img/call?cmd=VIEW&id=bf2c052d-ab38-4605-a5cd-6e7111a729b2&thumb,경상남도 창원시 마산회원구 봉암공단2길 22,35.2185886,128.5975738
"궁류장 (1, 6일)",경남 의령군,055-570-2622,"['가족여행', '경상권', '궁류장', '기차여행', '나들이', '나홀로여행', '먹거리', '쇼핑']",https://cdn.visitkorea.or.kr/img/call?cmd=VIEW&id=undefined&thumb,경상남도 의령군 궁류면 궁류로1길 10,35.43781,128.2489432
궁임마을,경남 거제시,055-639-6009,"['관광지', '자연']",https://cdn.visitkorea.or.kr/img/call?cmd=VIEW&id=197aba79-70a1-4da0-a787-7009cc84ed49&thumb,경상남도 거제시 장목면 거제북로 2547,35.0083611,128.7039876
극단 벅수골 전용소극장,경남 통영시,055-645-6379,"['골목문화공간', '공연', '데이트', '문화시설', '복합문화공간', '소극장', '연극']",https://cdn.visitkorea.or.kr/img/call?cmd=VIEW&id=undefined&thumb,경상남도 통영시 중앙로 152,34.84516269,128.4239435
금대암(함양),경남 함양군,055-962-5500,"['관광지', '불교', '불교문화', '사찰', '사찰여행', '역사', '자연속으로', '자연환경']",https://cdn.visitkorea.or.kr/img/call?cmd=VIEW&id=null&thumb,경상남도 함양군 마천면 가흥리,35.399113799999995,127.66748
금봉암(거창),경남 거창군,055-944-7381,"['관광지', '불교', '불교문화', '사찰', '사찰여행', '역사', '자연속으로', '자연환경']",https://cdn.visitkorea.or.kr/img/call?cmd=VIEW&id=null&thumb,경상남도 거창군 고제면 용초길 310-428,35.8781081,127.8545237
금산 보리암(남해),경남 남해군,055-860-5800,"['가족여행', '관광지', '금산보리암', '불교', '불교문화', '사찰', '사찰&산사', '사찰여행']",https://cdn.visitkorea.or.kr/img/call?cmd=VIEW&id=019d2e36-ffdb-4390-aaa3-6d4a898794ca&thumb,경상남도 남해군 상주면 보리암로 665,34.7538571,127.98302509999999
금산(남해),경남 남해군,055-860-8601,"['경상권', '관광지', '금산', '자연', '전망좋은곳', '트레킹']",https://cdn.visitkorea.or.kr/img/call?cmd=VIEW&id=1b241476-18b9-4199-b216-074f417bb390&thumb,경상남도 남해군 이동면 보리암로 586,34.755231,127.9913524
금성냉장,경남 통영시,055-643-1551,"['가족여행', '경상권', '금성냉장', '기념품판매', '나들이', '나홀로여행', '쇼핑']",https://cdn.visitkorea.or.kr/img/call?cmd=VIEW&id=c686df78-2940-4a03-a930-c3bd3a5e2d4c&thumb,경상남도 통영시 남망길 106,34.8396714,128.427949
금성산(합천),경남 합천군,055-930-3114,"['관광지', '자연']",https://cdn.visitkorea.or.kr/img/call?cmd=VIEW&id=undefined&thumb,경상남도 합천군 대병면,35.52118,128.0142613
금왕사,경남 남해군,055-862-3794,"['관광지', '불교', '불교문화', '사찰', '사찰여행', '역사', '자연마을', '자연속으로']",https://cdn.visitkorea.or.kr/img/call?cmd=VIEW&id=58174a24-115a-418f-8a30-1d2133da37ab&thumb,경상남도 남해군 이동면 보리암로 65-23,34.7789078,127.9686392
금원산,경남 거창군,055-940-3390,"['가족과함께', '경상권', '관광지', '금원산', '자연', '트레킹', '풍경좋은곳']",https://cdn.visitkorea.or.kr/img/call?cmd=VIEW&id=cdb8b16d-ddf1-4b4f-98e0-a5d5866fd88c&thumb,경상남도 거창군 북상면 창성리,35.7568234,127.7742507
금원산자연휴양림,경남 거창군,055-254-3971,"['관광지', '자연', '자연관광지', '자연속으로', '자연여행', '자연좋은곳', '자연풍경']",https://cdn.visitkorea.or.kr/img/call?cmd=VIEW&id=46a6c08a-13fd-49d5-a8e8-d48d53537485&thumb,경상남도 거창군 위천면 금원산길 412,35.728896899999995,127.7895449
금호재,경남 창녕군,055-530-1473,"['관광지', '역사', '역사공부', '역사관광지', '역사를품은곳', '역사문화재', '역사속']",https://cdn.visitkorea.or.kr/img/call?cmd=VIEW&id=d7570225-33fb-4622-a0f5-fd167949532e&thumb,경상남도 창녕군 대합면 대동길 33,35.6112075,128.455386
금호지,경남 진주시,055-749-5321,"['경상권', '관광지', '금호지', '자연', '저수지']",https://cdn.visitkorea.or.kr/img/call?cmd=VIEW&id=c8aeabbe-fe5e-46f8-b2dc-46c9dd3f1d5e&thumb,경상남도 진주시 금산면 금산순환로587번길,35.2116655,128.1556277
기강서원,경남 의령군,055-570-2531,"['경상권', '관광지', '기강서원', '역사', '역사공부', '역사관광지', '역사를품은곳']",https://cdn.visitkorea.or.kr/img/call?cmd=VIEW&id=f1f55de7-4b18-42b6-9fa0-9a4bf41f098a&thumb,경상남도 의령군 지정면,35.3825245,128.3860659
기백산,경남 함양군,055-960-5756,"['관광지', '자연']",https://cdn.visitkorea.or.kr/img/call?cmd=VIEW&id=5cc4c266-75a4-4df5-9f09-6664764d9aa4&thumb,경상남도 함양군 안의면,35.62866629999999,127.81128090000001
기백산 용추계곡과 용추폭포,경남 함양군,055-960-5756,"['경상권', '관광지', '기백산', '용추계곡', '용추폭포', '자연']",https://cdn.visitkorea.or.kr/img/call?cmd=VIEW&id=b1c4af78-b6e1-4fe1-b283-a3bfa2f4ccb8&thumb,경상남도 함양군 안의면 상원리,35.6904382,127.75732190000001
기양서원,경남 함안군,055-580-2573,"['경상권', '관광지', '교과서속여행', '기양서원', '문화재', '서원', '역사', '역사공부']",https://cdn.visitkorea.or.kr/img/call?cmd=VIEW&id=fbdb94d6-0196-44ab-a6a3-cd8232f032db&thumb,경상남도 함안군 칠원읍 무기1길 33,35.2990028,128.5390218
기회송림,경남 밀양시,,"['경상권', '관광지', '기회송림', '산책길', '산책하기', '산책하기좋은곳', '야영객']",https://cdn.visitkorea.or.kr/img/call?cmd=VIEW&id=2d7d2e90-2cbb-443f-a5dd-218a33cb77f2&thumb,경상남도 밀양시 산외면 남기리,35.514061299999995,128.7913894
김달진 문학관,경남 창원시,055-547-2623,"['경상권', '기념관', '김달진문학관', '무장애', '문화시설', '아이와함께', '전시관']",https://cdn.visitkorea.or.kr/img/call?cmd=VIEW&id=1fe8a1bc-7cc1-4e92-a6a2-be3c208d909c&thumb,경상남도 창원시 진해구 소사로59번길 13,35.12876046,128.7766223
김상옥 생가,경남 통영시,055-650-4514,"['경상권', '관광지', '김상옥생가', '생가', '역사', '역사공부', '역사관광지', '역사를품은곳']",https://cdn.visitkorea.or.kr/img/call?cmd=VIEW&id=5e07c7b8-dac5-4a76-8834-7c011a39d035&thumb,경상남도 통영시 항남1번가길 13,34.843061999999996,128.42225439999999
김숙자사당,경남 거창군,055-940-3431,"['경상권', '경상남도문화재자료', '관광지', '김숙자사당', '역사', '역사공부', '역사관광지']",https://cdn.visitkorea.or.kr/img/call?cmd=VIEW&id=548a8021-b4e2-4b7a-a742-e249ef7163c7&thumb,경상남도 거창군 남상면 한산1길 132-7,35.6411541,127.93730740000001
김씨 박물관,경남 창원시,055-552-8608,"['경상권', '김씨박물관', '문화시설', '박물관', '아이와함께', '추억', '추억여행']",https://cdn.visitkorea.or.kr/img/call?cmd=VIEW&id=109de094-3500-4869-8d59-9fdcff2fa852&thumb,경상남도 창원시 진해구 소사로59번나길 4,35.12913212,128.776266
김영삼 전 대통령 생가,경남 거제시,055-639-3402,"['경상권', '관광지', '교과서속여행', '김영삼전대통령생가', '역사', '역사공부']",https://cdn.visitkorea.or.kr/img/call?cmd=VIEW&id=b64e8518-49ab-4f11-a99d-b97dbad4b269&thumb,경상남도 거제시 장목면 옥포대첩로 743-1,34.931467,128.7152676
김춘수 유품전시관,경남 통영시,055-650-2670,"['겨울방학가볼만한곳', '경상권', '교과서속여행', '김춘수유품전시관', '문화시설']",https://cdn.visitkorea.or.kr/img/call?cmd=VIEW&id=e1b5b287-3880-483f-b134-2b2d4702c6dc&thumb,경상남도 통영시 해평5길 142-16,34.83336721,128.4161579
김해 구지봉,경남 김해시,055-331-0086,"['경상권', '관광지', '구지봉', '사적', '역사', '역사공부', '역사관광지', '역사문화재']",https://cdn.visitkorea.or.kr/img/call?cmd=VIEW&id=617d9a9f-eeaa-405a-af3c-1035444c748e&thumb,경상남도 김해시 구산동,35.2532104,128.8708521
김해 대성동 고분군,경남 김해시,055-330-3934,"['경상권', '관광지', '대성동고분군', '사적', '역사', '역사공부', '역사관광지', '역사를품은곳']",https://cdn.visitkorea.or.kr/img/call?cmd=VIEW&id=a8b81699-9b59-4537-a6af-6067d9b12675&thumb,경상남도 김해시 가야의길 126,35.236059000000004,128.8730958
김해 롯데워터파크,경남 김해시,1661-2000,"['가족여행', '관광지', '김해롯데워터파크', '남녀노소', '당일치기여행', '여름여행']",https://cdn.visitkorea.or.kr/img/call?cmd=VIEW&id=80fe4fcc-5348-485e-ae7c-4490e1866b00&thumb,경상남도 김해시 장유로 555,35.2049606,128.8118572
김해 봉황동 유적,경남 김해시,055-330-3934,"['경상권', '관광지', '봉황동유적', '사적', '역사', '역사공부', '역사관광지', '역사를품은곳']",https://cdn.visitkorea.or.kr/img/call?cmd=VIEW&id=47cd86e8-fa52-4e23-8f75-a0f46acfaed2&thumb,경상남도 김해시 가락로63번길 50,35.2320872,128.876382
김해 부경동물원,경남 김해시,055-338-5250,"['경상권', '관광지', '김해부경동물원', '동물원', '아이가_좋아하는_여행', '아이와함께']",https://cdn.visitkorea.or.kr/img/call?cmd=VIEW&id=9bcc99a0-119d-44fb-942a-643c899a729c&thumb,경상남도 김해시 유하로226번길 70,35.220321899999995,128.81980990000002
김해 분산성,경남 김해시,055-330-3243,"['가족여행', '경상권', '관광지', '김해분산성', '만장대', '역사', '역사공부', '역사관광지']",https://cdn.visitkorea.or.kr/img/call?cmd=VIEW&id=a987a6f4-605d-44d7-8265-f5ebf8f0dfa3&thumb,경상남도 김해시 어방동,35.2426033,128.9010575
김해 분청도자박물관,경남 김해시,055-345-6037,"['가족과함께', '김해가볼만한곳', '도자기', '도자기만들기체험', '무더위_피해_실내여행']",https://cdn.visitkorea.or.kr/img/call?cmd=VIEW&id=42f8ed75-651b-44bd-8f63-147aa1dc1d55&thumb,경상남도 김해시 진례면 진례로 275-35,35.25149585,128.7458503
김해 수로왕비릉,경남 김해시,055-338-1330,"['걷기길', '경상권', '관광지', '김해수로왕비릉', '수로왕비릉', '아이와함께', '역사']",https://cdn.visitkorea.or.kr/img/call?cmd=VIEW&id=e47176f6-8e5d-4167-aa82-9a31fdb846aa&thumb,경상남도 김해시 가락로190번길 1,35.243185700000005,128.8779144
김해 양동리 고분군,경남 김해시,055-338-1330,"['관광지', '역사', '역사공부', '역사관광지', '역사를품은곳', '역사문화재', '역사속']",https://cdn.visitkorea.or.kr/img/call?cmd=VIEW&id=353692d8-a45f-4b53-8d3e-3f40c1b43183&thumb,경상남도 김해시 주촌면 서부로1341번길 22,35.2225155,128.8107619
김해 예안리 고분군,경남 김해시,055-330-3934,"['경상권', '관광지', '김해예안리고분군', '사적', '역사', '역사공부', '역사관광지']",https://cdn.visitkorea.or.kr/img/call?cmd=VIEW&id=c6603bb5-5845-44db-9017-f59daccda650&thumb,경상남도 김해시 대동면 예안리,35.2617888,128.9546369
김해가야테마파크,경남 김해시,055-340-7900,"['가족여행', '경상권', '관광지', '교과서속여행', '글램핑', '놀이동산', '아이와함께']",https://cdn.visitkorea.or.kr/img/call?cmd=VIEW&id=92b83078-2acb-45c8-b9db-56a8d694810f&thumb,경상남도 김해시 가야테마길 161,35.2571164,128.89233190000002
김해문화원,경남 김해시,055-326-2646,"['김해문화원', '문화강좌', '문화시설', '열린문화공간']",https://cdn.visitkorea.or.kr/img/call?cmd=VIEW&id=d80682c8-a063-4cd3-bb94-af0d7327e682&thumb,경상남도 김해시 분성로 225,35.23184079,128.87053490000002
김해문화의전당,경남 김해시,055-320-1234,"['경상권', '공연관람', '공연장', '김해문화의전당', '데이트코스', '문화시설', '문화예술']",https://cdn.visitkorea.or.kr/img/call?cmd=VIEW&id=d56724d3-8bf0-4beb-abf6-88ba2bf043ec&thumb,경상남도 김해시 김해대로 2060,35.24373381,128.8694108
김해민속박물관,경남 김해시,055-328-2646,"['가족여행', '경상권', '교과서속여행', '김해민속박물관', '문화시설', '민속문화재']",https://cdn.visitkorea.or.kr/img/call?cmd=VIEW&id=0a220f3c-e2a1-49e1-9c97-9edc68e67641&thumb,경상남도 김해시 분성로261번길 35,35.235053,128.8757902
김해생태체험학교 참빛,경남 김해시,055-337-4421,"['가족과함께', '경상권', '관광지', '김해생태체험학교참빛', '생태체험', '생태체험학교']",https://cdn.visitkorea.or.kr/img/call?cmd=VIEW&id=69ff3af2-c53a-4328-b2ad-78bd016f642d&thumb,경상남도 김해시 한림면 가동로103번길 44-16,35.331772799999996,128.7598787
김해시 수도박물관,경남 김해시,055-330-6710,"['문화시설', '수도박물관', '이색체험']",https://cdn.visitkorea.or.kr/img/call?cmd=VIEW&id=962edec5-848e-49a8-9020-1288c59e4bb7&thumb,경상남도 김해시 한림면 김해대로 1347,35.28477091,128.8226012
김해천문대,경남 김해시,055-337-3785,"['가족과함께', '경상권', '관광지', '교육여행', '김해가볼만한곳', '김해천문대']",https://cdn.visitkorea.or.kr/img/call?cmd=VIEW&id=5a0fdda3-4acf-4be3-b7cc-d32f6864961b&thumb,경상남도 김해시 가야테마길 254,35.2515188,128.889307
김해카라반르몽드,경남 김해시,1800-0947,"['가족여행', '김해시', '레포츠', '카라반', '힐링']",https://cdn.visitkorea.or.kr/img/call?cmd=VIEW&id=3902d8fd-c43a-4c3a-bd36-6f30f8d9bd74&thumb,경상남도 김해시 가야테마길 161,35.25163508,128.8937494
김해향교,경남 김해시,055-330-3934,"['경상권', '경상남도유형문화재', '관광지', '김해향교', '역사', '역사공부', '역사관광지']",https://cdn.visitkorea.or.kr/img/call?cmd=VIEW&id=fdd356be-466d-411b-b99a-25906099b3b5&thumb,경상남도 김해시 가락로150번길 21,35.2396997,128.881553
낙동강 레일파크,경남 김해시,1544-1555,"['경치여행', '경치좋은곳', '관광지', '낙동강레일파크', '연인과함께', '자연환경']",https://cdn.visitkorea.or.kr/img/call?cmd=VIEW&id=03e80e51-6ede-4393-9145-b91cd33bbd2a&thumb,경상남도 김해시 생림면 마사로473번길 41,35.3718421,128.8209123
남가람문화거리,경남 진주시,055-749-8586,"['경상권', '경치좋은곳', '관광지', '남가람문화거리', '복합문화공간', '역사', '연인과함께']",https://cdn.visitkorea.or.kr/img/call?cmd=VIEW&id=6e8c2c66-be86-4a79-98f8-50cfcab47899&thumb,"경상남도 진주시 망경동,칠암동 일대",35.18075820000001,128.0846784
남강댐 물 문화관,경남 진주시,055-760-1266,"['경상권', '관광지', '남강댐', '남강댐물문화관', '물문화관', '아이와함께', '이색체험']",https://cdn.visitkorea.or.kr/img/call?cmd=VIEW&id=ce060d63-13d6-4cfb-a045-462f64ac5ccb&thumb,경상남도 진주시 내동면 삼계로 455-46,35.1625336,128.030458
남강서원(양산),경남 양산시,055-392-2555,"['관광지', '역사']",https://cdn.visitkorea.or.kr/img/call?cmd=VIEW&id=a1858d49-36a0-4d51-8e92-54b156d94830&thumb,경상남도 양산시 용주로 300,35.4313037,129.1579739
남강서원(함안),경남 함안군,055-580-2573,"['관광지', '역사', '역사공부', '역사관광지', '역사를품은곳', '역사문화재', '역사속']",https://cdn.visitkorea.or.kr/img/call?cmd=VIEW&id=b4859476-f868-4594-a92e-d59b581985b1&thumb,경상남도 함안군 군북면 소포5길 82,35.2772485,128.34900430000002
남계서원,경남 밀양시,055-359-5637,"['관광지', '역사', '역사공부', '역사관광지', '역사를품은곳', '역사문화재', '역사속']",https://cdn.visitkorea.or.kr/img/call?cmd=VIEW&id=undefined&thumb,경상남도 밀양시 청도면 두곡3길 43-16,35.5539401,128.61677120000002
남계서원 [유네스코 세계문화유산],경남 함양군,055-960-4537,"['관광지', '역사', '역사공부', '역사관광지', '역사를품은곳', '역사문화재', '역사속']",https://cdn.visitkorea.or.kr/img/call?cmd=VIEW&id=85b1fb48-9cf7-4ab2-888f-445c3cf51d0a&thumb,경상남도 함양군 수동면 남계서원길 8-11,35.5484929,127.78325190000001
남망산 조각공원,경남 통영시,055-650-4681,"['걷기길', '경상권', '관광지', '남망산조각공원', '산책길', '산책하기', '산책하기좋은곳']",https://cdn.visitkorea.or.kr/img/call?cmd=VIEW&id=d5c0c61d-d49e-4e7d-9f89-a4ca31ad29da&thumb,경상남도 통영시 남망길 139,34.8393527,128.4296257
남부산림자원연구소,경남 진주시,055-759-8231,"['경상권', '기차여행', '남부산림자원연구소', '문화시설', '실내여행지', '아이와함께']",https://cdn.visitkorea.or.kr/img/call?cmd=VIEW&id=c50ed778-8482-4328-8024-8d16d4756e04&thumb,경상남도 진주시 진주대로 672,35.16693572,128.1064996
남사예담촌,경남 산청군,070-8199-7107,"['가족여행', '경상권', '관광지', '남사예담촌', '농촌전통테마마을', '역사', '역사공부']",https://cdn.visitkorea.or.kr/img/call?cmd=VIEW&id=952ec3ef-fb0f-4f91-ad76-a899b368e4f4&thumb,경상남도 산청군 단성면 지리산대로2897번길 10,35.2742367,127.93637460000001
남산공원(고성),경남 고성군,055-670-2663,"['가족여행', '경상권', '경치좋은곳', '관광지', '남산공원', '산책길', '산책코스']",https://cdn.visitkorea.or.kr/img/call?cmd=VIEW&id=a2f84180-832e-4bac-b8a8-91982e617db5&thumb,경상남도 고성군 고성읍 동외로47번길 70,34.9673136,128.3271586
남악서원,경남 진주시,055-749-8579,"['관광지', '역사', '역사공부', '역사관광지', '역사를품은곳', '역사문화재', '역사속']",https://cdn.visitkorea.or.kr/img/call?cmd=VIEW&id=24a02365-aed2-45d4-889d-8f3f8b38c545&thumb,경상남도 진주시 금곡면 죽곡길 102,35.076682,128.1781064
남일대해수욕장,경남 사천시,055-831-3137,"['가족여행', '관광지', '남일대해수욕장', '바다풍경', '아이와함께', '여름방학가볼만한곳']",https://cdn.visitkorea.or.kr/img/call?cmd=VIEW&id=89163250-acbf-493b-b2a0-d23d1230e984&thumb,경상남도 사천시 향촌동,34.9338156,128.09329509999998
남해 가인리 화석산지,경남 남해군,055-860-8631,"['관광지', '자연']",https://cdn.visitkorea.or.kr/img/call?cmd=VIEW&id=4f5a64ea-9ba0-4c20-ab61-4c0de41d9705&thumb,경상남도 남해군 창선면 가인리 산60-20,34.886031200000005,128.04888390000002
남해 가천 해변과 암수바위,경남 남해군,1588-3415,"['관광지', '자연']",https://cdn.visitkorea.or.kr/img/call?cmd=VIEW&id=75a41793-0e65-475e-8ef0-db8648aeee78&thumb,경상남도 남해군 남면 남면로679번길,34.727579399999996,127.8944558
남해 관음포 이충무공 유적,경남 남해군,055-860-8633,"['가족여행', '경상권', '관광지', '교과서속여행', '나들이', '남해관음포이충무공유적']",https://cdn.visitkorea.or.kr/img/call?cmd=VIEW&id=363c0a21-1c98-4b26-8647-7a09d66d8ae0&thumb,경상남도 남해군 고현면 남해대로 3829,34.9133657,127.85726820000001
남해 금산 봉수대,경남 남해군,055-860-8636,"['경상권', '경상남도기념물', '관광지', '금산봉수대', '역사', '역사공부', '역사관광지']",https://cdn.visitkorea.or.kr/img/call?cmd=VIEW&id=85fea068-e2e1-4e81-a5f0-6399d3477ff4&thumb,경상남도 남해군 상주면 보리암로 691,34.7514245,127.9805768
남해 냉천갯벌체험장,경남 남해군,055-867-5220,"['갯벌', '갯벌체험', '갯벌체험장', '경치좋은곳', '관광지', '바다경치', '아이와함께']",https://cdn.visitkorea.or.kr/img/call?cmd=VIEW&id=6ddef255-8444-412e-a51f-d1997b4ed086&thumb,경상남도 남해군 창선면 동부대로 2810-13,34.9021099,128.02526899999998
남해 다초지(장평지),경남 남해군,1588-3415,"['관광지', '자연']",https://cdn.visitkorea.or.kr/img/call?cmd=VIEW&id=cbd76e49-6134-4461-91ab-da8b3ab0891f&thumb,경상남도 남해군 이동면 초음리,34.823212,127.93246210000001
남해 문항어촌체험마을,경남 남해군,055-863-4787,"['가족여행', '경상권', '관광지', '낚시체험', '남해문항어촌체험마을', '아이와함께']",https://cdn.visitkorea.or.kr/img/call?cmd=VIEW&id=0a668551-0ed6-41e8-8d59-7c2af48ce177&thumb,경상남도 남해군 설천면 강진로206번길 54-19,34.9148516,127.92940379999999
남해 물건리 방조어부림,경남 남해군,055-860-8605,"['가족여행', '경상권', '경상남도여행', '경치좋은곳', '관광지', '남해물건리방조어부림']",https://cdn.visitkorea.or.kr/img/call?cmd=VIEW&id=0193bd92-488f-422e-b906-e2133abba154&thumb,경상남도 남해군 삼동면 물건리,34.775369399999995,128.03959640000002
남해 미조리 상록수림,경남 남해군,055-860-8635,"['경상권', '관광지', '미조리상록수림', '방풍림', '어부림', '자연', '천연기념물']",https://cdn.visitkorea.or.kr/img/call?cmd=VIEW&id=e67a75fc-2a2b-4a2d-a93d-760c25dbf8f4&thumb,경상남도 남해군 미조면 미송로12번길 14-7,34.7137191,128.04396770000002
남해 바래길,경남 남해군,055-860-88622,"['가천다랭이마을', '걷기길', '걷기여행', '경상권', '관광지', '남해바래길', '다랭이지겟길']",https://cdn.visitkorea.or.kr/img/call?cmd=VIEW&id=0fc61353-7121-4357-a7be-0d2c7c960e2c&thumb,경상남도 남해군 이동면 성남로 99,34.7788803,127.95106080000001
남해 양모리학교,경남 남해군,055-862-8933,"['가족여행', '걷기여행', '경상권', '관광지', '남해양모리학교', '농천체험여행']",https://cdn.visitkorea.or.kr/img/call?cmd=VIEW&id=467e4d74-b621-45b4-b66c-9ac9571648fd&thumb,경상남도 남해군 설천면 설천로775번길 256-17,34.9329242,127.89754429999999
남해 유포어촌체험마을,경남 남해군,055-862-0735,"['가족여행', '가족체험여행', '경상권', '관광지', '남해유포어촌체험마을', '마을축제']",https://cdn.visitkorea.or.kr/img/call?cmd=VIEW&id=c5a768d5-f641-4ebc-bd85-9157d7608fa9&thumb,경상남도 남해군 서면 남서대로2381번길 60,34.8619389,127.815017
남해 은점어촌체험마을,경남 남해군,055-867-7119,"['가족체험', '관광지', '농어촌체험마을', '아이와함께', '어촌체험', '어촌체험관광마을']",https://cdn.visitkorea.or.kr/img/call?cmd=VIEW&id=a610c807-b2a7-4c25-9bf2-a06d34df4247&thumb,경상남도 남해군 삼동면 동부대로942번길 34-9,34.7863847,128.0525828
남해 지족갯마을,경남 남해군,055-867-1277,"['관광지', '농어촌', '수산어촌체험마을', '아이와함께', '어촌', '어촌마을', '어촌체험']",https://cdn.visitkorea.or.kr/img/call?cmd=VIEW&id=b629298b-55f5-47dd-ba8a-ae1feae091c7&thumb,경상남도 남해군 삼동면 삼이로24번길 39,34.82884979999999,127.9934635
남해 창선도 왕후박나무,경남 남해군,055-860-8635,"['경상권', '관광지', '식물', '창선도왕후박나무', '천연기념물']",https://cdn.visitkorea.or.kr/img/call?cmd=VIEW&id=dd6d4d62-91a9-4402-9812-785655e59360&thumb,경상남도 남해군 창선면 대벽리,34.9125373,128.012383
남해 척화비,경남 남해군,055-860-8633,"['관광지', '역사', '역사공부', '역사관광지', '역사를품은곳', '역사문화재', '역사속']",https://cdn.visitkorea.or.kr/img/call?cmd=VIEW&id=c2ea3ac5-4754-464c-88de-be8f8b19bbd8&thumb,경상남도 남해군 설천면 노량로183번길 29,34.9413032,127.87613929999999
남해 특산물지족판매장,경남 남해군,055-867-2342,"['가족여행', '경상권', '기념품판매', '기차여행', '나들이', '나홀로여행', '남해특산물지족판매장']",https://cdn.visitkorea.or.kr/img/call?cmd=VIEW&id=ca532a02-e90b-4e7b-9571-ec8a6ecba55f&thumb,경상남도 남해군 삼동면 삼이로 47-4,34.8276094,127.9954773
남해 파독전시관,경남 남해군,055-860-3540,"['가족여행', '경상권', '남해군요트학교', '동대문역사문화공원역', '레포츠체험']",https://cdn.visitkorea.or.kr/img/call?cmd=VIEW&id=9e553538-d58b-476b-a8d9-715516840511&thumb,경상남도 남해군 삼동면 독일로 89-7,34.80007232,128.03854850000002
남해 항도어촌체험마을,경남 남해군,055-867-4348,"['가족과함께', '가족체험', '관광지', '아이와함께', '어촌마을', '어촌체험', '어촌체험마을']",https://cdn.visitkorea.or.kr/img/call?cmd=VIEW&id=a25c5faa-08ee-485e-a1ef-f6eca1d8f182&thumb,경상남도 남해군 미조면 동부대로310번길 32-8,34.741383899999995,128.0475972
남해 홍현마을,경남 남해군,055-863-5885,"['가족과함께', '경치여행', '경치좋은곳', '관광지', '바다경치', '바다내음', '아이와함께']",https://cdn.visitkorea.or.kr/img/call?cmd=VIEW&id=faff13f8-0c64-4cef-9aa4-a2ef54a17d6c&thumb,경상남도 남해군 남면 남면로353번길 9-7,34.7455673,127.90760230000001
남해국제탈공연예술촌,경남 남해군,055-864-7625,"['경상권', '남해국제탈공연예술촌', '문화시설', '아이와함께', '예술', '전시관']",https://cdn.visitkorea.or.kr/img/call?cmd=VIEW&id=d84110f7-4557-4827-902f-75e6fc50dad3&thumb,경상남도 남해군 이동면 남해대로 2412,34.81772907,127.9271589
남해군요트학교,경남 남해군,055-867-2977,"['경상권', '남해군요트학교', '레포츠', '요트체험']",https://cdn.visitkorea.or.kr/img/call?cmd=VIEW&id=f7d04bc5-7d8d-4dd4-be33-a54a5979023f&thumb,경상남도 남해군 삼동면 동부대로1030번길 42-26,34.7937446,128.0528142
남해나비생태공원,경남 남해군,055-860-3282,"['경상권', '관광지', '남해', '남해나비생태공원', '생태관광', '생태관광지', '전시관']",https://cdn.visitkorea.or.kr/img/call?cmd=VIEW&id=24e91f79-867b-4b50-b371-5ec0c46ece8a&thumb,경상남도 남해군 삼동면 금암로 562-23,34.7582939,128.0126328
남해대교,경남 남해군,1588-3415,"['건축물', '경치좋은곳', '관광지', '남해가볼만한곳', '남해대교', '대교', '드라이브여행']",https://cdn.visitkorea.or.kr/img/call?cmd=VIEW&id=360e2d87-4564-4578-8277-53436d4cce4e&thumb,경상남도 남해군 설천면 노량리,34.939592100000006,127.8771828
남해대교유람선,경남 남해군,055-862-9842,"['가족여행', '경상권', '관광지', '남해대교유람선', '바다풍경', '야경명소', '야경여행']",https://cdn.visitkorea.or.kr/img/call?cmd=VIEW&id=516597b6-d8dc-4373-bf6e-c9458d604596&thumb,경상남도 남해군 설천면 노량로 177,34.9413008,127.87291090000002
남해문화센터,경남 남해군,055-860-8627,"['가족여행', '나들이', '남해문화체육센터', '문화시설', '사계절', '아이와함께']",https://cdn.visitkorea.or.kr/img/call?cmd=VIEW&id=ee306391-b974-4200-ac0d-df54e703ca5a&thumb,경상남도 남해군 남해읍 선소로 12,34.84488792,127.8997675
남해문화원,경남 남해군,055-864-6969,"['남해문화원', '문화강좌', '문화시설', '복합문화공간', '열린문화공간']",https://cdn.visitkorea.or.kr/img/call?cmd=VIEW&id=181562da-51a8-4a54-baac-d7acb2468ae6&thumb,경상남도 남해군 남해읍 선소로 12,34.84488792,127.8997675
남해보물섬전망대,경남 남해군,,"['경치여행', '경치좋은곳', '관광지', '남해가볼만한곳', '바다경치', '보물섬전망대']",https://cdn.visitkorea.or.kr/img/call?cmd=VIEW&id=cd5cabcc-1d3d-47ab-b91e-41d275b3ee57&thumb,경상남도 남해군 삼동면 동부대로 720,34.803119099999996,128.0315718
남해스포츠파크,경남 남해군,055-860-8685,"['경상권', '남해스포츠파크', '레저스포츠', '레포츠', '스포츠센터']",https://cdn.visitkorea.or.kr/img/call?cmd=VIEW&id=a5893ded-7334-472d-8c39-997173bb5838&thumb,경상남도 남해군 서면 스포츠파크길 15,34.80636119,127.83857479999999
남해유배문학관,경남 남해군,055-860-8888,"['경상권', '교과서속여행', '남해유배문학관', '문화시설', '미세먼지_피하는_실내여행']",https://cdn.visitkorea.or.kr/img/call?cmd=VIEW&id=8ff22eca-d5c1-4b2a-9910-f5e012c2e23f&thumb,경상남도 남해군 남해읍 남해대로 2745,34.83196011,127.8991855
남해유스타운,경남 남해군,055-867-4848,"['레포츠', '숙박']",https://cdn.visitkorea.or.kr/img/call?cmd=VIEW&id=defd2bb0-9ca7-4969-a81d-c8bbbf0db688&thumb,경상남도 남해군 삼동면 동부대로 1542-12,34.83007741,128.0319476
"남해장 (2, 7일)",경남 남해군,055-864-3592,"['가족여행', '경상권', '기차여행', '나들이', '나홀로여행', '남해장', '먹거리', '쇼핑']",https://cdn.visitkorea.or.kr/img/call?cmd=VIEW&id=9cdc8b70-67ba-4362-b2d1-528b1cf0da19&thumb,경상남도 남해군 남해읍 화전로 110,34.8402725,127.89500120000001
남해청소년수련원,경남 남해군,055-867-4510,"['경상권', '남해숙소', '레포츠', '숙박', '청소년수련원']",https://cdn.visitkorea.or.kr/img/call?cmd=VIEW&id=17d8ecd5-3b61-4600-8951-736387e89254&thumb,경상남도 남해군 삼동면 동부대로 1542-35,34.82946726,128.0290996
남해향교,경남 남해군,055-860-8636,"['경상권', '경상남도유형문화재', '관광지', '남해향교', '역사', '역사공부', '역사관광지']",https://cdn.visitkorea.or.kr/img/call?cmd=VIEW&id=6b3fe3e7-99b7-41a5-a4e1-3d86854ea8b3&thumb,경상남도 남해군 남해읍 망운로10번길 47,34.8424242,127.8927645
내도(거제),경남 거제시,055-681-1624,"['2020_휴가철찾아가고싶은_33섬', '가족과함께', '관광지', '아이와함께', '자연']",https://cdn.visitkorea.or.kr/img/call?cmd=VIEW&id=9ca11aa8-b19d-4e49-8940-acd8fc569cb3&thumb,경상남도 거제시 일운면 내도길 1,34.7887612,128.714094
내산리 고분군,경남 고성군,055-670-2224,"['역사', '역사공부', '역사관광지', '역사를품은곳', '역사문화재', '역사속', '역사속으로']",https://cdn.visitkorea.or.kr/img/call?cmd=VIEW&id=988272ef-e660-4cab-90f8-840220258603&thumb,경상남도 고성군 동해면 내산리,35.054759600000004,128.4680268
내원사(산청),경남 산청군,055-973-6799,"['관광지', '역사']",https://cdn.visitkorea.or.kr/img/call?cmd=VIEW&id=null&thumb,경상남도 산청군 삼장면 대하내원로 256,35.300192100000004,127.81047140000001
내원사(양산),경남 양산시,055-374-6466,"['가족여행', '경상권', '관광지', '내원사(양산)', '불교', '불교문화', '사찰', '사찰&산사']",https://cdn.visitkorea.or.kr/img/call?cmd=VIEW&id=ef8c31f4-9621-449c-bd68-ac3de80cbd35&thumb,경상남도 양산시 하북면 내원로 207,35.4471826,129.11046969999998
내원사계곡,경남 양산시,055-380-4826,"['가족여행', '경상권', '경치좋은곳', '관광지', '내원사계곡', '여름가볼만한곳']",https://cdn.visitkorea.or.kr/img/call?cmd=VIEW&id=5556c057-5620-4295-be4c-d17442f82fcc&thumb,경상남도 양산시 하북면 내원로 207,35.4471826,129.11046969999998
내천못재,경남 합천군,055-930-3752,"['관광지', '자연']",https://cdn.visitkorea.or.kr/img/call?cmd=VIEW&id=a613664f-29ef-4ca4-9db7-371db95d1705&thumb,경상남도 합천군 율곡면 내천리,35.6094961,128.2367379
노대도,경남 통영시,055-650-0580,"['관광지', '자연']",https://cdn.visitkorea.or.kr/img/call?cmd=VIEW&id=undefined&thumb,경상남도 통영시 욕지면 노대도,34.67009960000001,128.2470102
노도(김만중 유허지),경남 남해군,1588-3415,"['관광지', '자연']",https://cdn.visitkorea.or.kr/img/call?cmd=VIEW&id=a9010d68-b84d-4ee5-8028-408cfc0441e3&thumb,경상남도 남해군 상주면 노도길 76-16,34.7273153,127.9406685
노산공원,경남 사천시,055-830-4579,"['가족여행', '경상권', '경치좋은곳', '관광지', '노산공원', '산책길', '산책로', '산책하기']",https://cdn.visitkorea.or.kr/img/call?cmd=VIEW&id=ce9059a0-2805-4d7e-9b5f-9104ec08d0c1&thumb,경상남도 사천시 등대길 103,34.9247078,128.0744301
노을이 물드는 언덕,경남 거제시,055-639-3499,"['경상권', '경치좋은곳', '관광지', '노을이물드는언덕', '데이트', '데이트코스']",https://cdn.visitkorea.or.kr/img/call?cmd=VIEW&id=d02b261b-d9cc-4c05-b916-4361ebf09d7e&thumb,경상남도 거제시 사등면 가조로 565,34.95503529999999,128.5247126
노자산,경남 거제시,055-639-4178,"['관광지', '자연']",https://cdn.visitkorea.or.kr/img/call?cmd=VIEW&id=undefined&thumb,경상남도 거제시 동부면 구천리,34.808104799999995,128.6340293
농가도,경남 통영시,055-650-0580,"['경남권', '레포츠', '바다낚시', '통영바다', '통영바다낚시', '통영시']",https://cdn.visitkorea.or.kr/img/call?cmd=VIEW&id=undefined&thumb,경상남도 통영시 사량면,34.84551361,128.2200718
농산정,경남 합천군,055-930-3178,"['경상권', '경상남도문화재자료', '관광지', '농산정', '역사', '역사공부', '역사관광지']",https://cdn.visitkorea.or.kr/img/call?cmd=VIEW&id=bd87615d-14ff-4a75-b5fe-770087167d99&thumb,경상남도 합천군 가야면 가야산로 1531,35.785318200000006,128.1098192
농소몽돌해변,경남 거제시,055-639-6743,"['가족여행', '관광지', '농소몽돌해변', '바다풍경', '아이와함께', '여름방학가볼만한곳']",https://cdn.visitkorea.or.kr/img/call?cmd=VIEW&id=fbb9de8e-7737-4615-9be5-152b054bed88&thumb,경상남도 거제시 장목면 거제북로,35.006994299999995,128.68872290000002
농월정 국민관광지,경남 함양군,055-960-5756,"['가족과함께', '경치좋은곳', '관광지', '남녀노소', '아이와함께', '여름피서지']",https://cdn.visitkorea.or.kr/img/call?cmd=VIEW&id=36a12bd7-1d02-44f6-aa1d-aab2fbbc8ab3&thumb,경상남도 함양군 안의면,35.62866629999999,127.81128090000001
늘푸른전당,경남 창원시,055-712-0372,['레포츠'],https://cdn.visitkorea.or.kr/img/call?cmd=VIEW&id=b3eaebd1-dee4-40e6-9e48-7304539b2f5e&thumb,경상남도 창원시 의창구 두대로 97,35.23006618,128.65454309999998
늘해랑누리길 (치유의숲),경남 거창군,055-940-3420,"['가족과함께', '관광지', '산림욕', '연인과함께', '자연', '자연관광지', '자연속으로']",https://cdn.visitkorea.or.kr/img/call?cmd=VIEW&id=a1255ae3-2562-4c26-b559-a6865b4d89f8&thumb,경상남도 거창군 가조면 의상봉길 830,35.736640799999996,128.0409598
다맥 어촌체험마을,경남 사천시,055-853-8555,"['가족체험', '가족체험학습', '관광지', '농어촌체험마을', '아이와함께', '어촌']",https://cdn.visitkorea.or.kr/img/call?cmd=VIEW&id=982c6886-e963-4251-94cf-3d0b776b2571&thumb,경상남도 사천시 서포면 다평로 2,34.979864899999995,127.9435175
다물민족학교 다물평생교육원,경남 산청군,055-973-1754,['레포츠'],https://cdn.visitkorea.or.kr/img/call?cmd=VIEW&id=undefined&thumb,경상남도 산청군 단성면 호암로619번길 50-29,35.31729122,127.8927291
다솔사(경남),경남 사천시,055-853-0283,"['가족여행', '경상권', '관광지', '다솔사', '불교', '불교문화', '사찰', '사찰여행']",https://cdn.visitkorea.or.kr/img/call?cmd=VIEW&id=973c1627-c5a9-4a78-956c-0a89856d5bf2&thumb,경상남도 사천시 곤명면 다솔사길 417,35.083474100000004,127.91977620000002
다슬기 초량마을,경남 사천시,055-831-5192,"['가족여행', '경상권', '관광지', '농촌', '농촌길', '농촌여행코스', '농촌체험', '농촌체험학습']",https://cdn.visitkorea.or.kr/img/call?cmd=VIEW&id=d3ba3d27-7bf8-4194-ac43-3cce5f4e3519&thumb,경상남도 사천시 곤명면 초량길 27-3,35.10604429999999,127.92357920000002
다자연 녹차단지,경남 사천시,055-853-5058,"['가족여행', '경상권', '관광지', '녹차재배', '다자연녹차단지', '이색체험', '자연속으로']",https://cdn.visitkorea.or.kr/img/call?cmd=VIEW&id=d2d0b819-2d79-4dde-bcc8-600075872115&thumb,경상남도 사천시 곤명면 금성들길 55,35.1412945,127.968548
다자연 영농조합법인,경남 사천시,055-853-5058,"['가족여행', '경상권', '기념품판매', '기차여행', '나들이', '나홀로여행', '다자연영농조합법인']",https://cdn.visitkorea.or.kr/img/call?cmd=VIEW&id=40d7955d-e6a3-4850-8041-6a22214c23e5&thumb,경상남도 사천시 곤명면 금성들길 55,35.1412945,127.968548
단성향교,경남 산청군,055-970-6413,"['관광지', '역사', '역사공부', '역사관광지', '역사를품은곳', '역사문화재', '역사속']",https://cdn.visitkorea.or.kr/img/call?cmd=VIEW&id=c18eff94-5f3b-4be2-b71a-493c42f1554c&thumb,경상남도 산청군 단성면 교동길 13-19,35.3090886,127.95505179999999
단속사 정당매,경남 산청군,055-970-6000,"['경상권', '관광지', '단속사정당매', '역사', '자연']",https://cdn.visitkorea.or.kr/img/call?cmd=VIEW&id=8b831bce-ac90-4fcb-b7a9-b1e315c4737b&thumb,경상남도 산청군 단성면 호암로673번길 12-1,35.3214155,127.899627
단장 이팝꽃 터널길,경남 밀양시,055-211-4633,"['경상남도여행', '경치여행', '경치좋은곳', '관광지', '남녀노소', '드라이브여행']",https://cdn.visitkorea.or.kr/img/call?cmd=VIEW&id=60c3df17-cd72-470b-8694-d255f1d804df&thumb,경상남도 밀양시 단장면,35.515233200000004,128.87598300000002
달빛고운월성마을,경남 거창군,010-8912-3205,"['가족과함께', '경상권', '관광지', '농촌마을', '농촌여행', '농촌체험', '달빛고운월성마을']",https://cdn.visitkorea.or.kr/img/call?cmd=VIEW&id=0ade2b9a-a676-4ab5-88b1-9aebd319dcc1&thumb,경상남도 거창군 북상면 덕유월성로 1433-7,35.7641532,127.7423328
달빛쌈지공원,경남 밀양시,055-359-5646,"['가족과함께', '경치좋은곳', '공원', '관광지', '밀양가볼만한곳', '산책길', '산책하기']",https://cdn.visitkorea.or.kr/img/call?cmd=VIEW&id=fa228084-1d08-49d2-928e-10f7525b7b7d&thumb,경상남도 밀양시 밀양대로 2047,35.5038466,128.7472291
달아공원,경남 통영시,055-650-4681,"['가족여행', '걷기여행', '겨울방학가볼만한곳', '관광지', '달아공원', '바다풍경']",https://cdn.visitkorea.or.kr/img/call?cmd=VIEW&id=9c061a81-9eb0-4855-b763-6bc45ae74eeb&thumb,경상남도 통영시 산양읍 산양일주로 1115,34.7698023,128.4011153
달천계곡(창원),경남 창원시,055-289-8815,"['경상권', '관광지', '달천계곡', '여름방학가볼만한곳', '여름피서지', '역사', '자연']",https://cdn.visitkorea.or.kr/img/call?cmd=VIEW&id=d079f5fa-8762-4739-ae77-76ae1d8b03aa&thumb,경상남도 창원시 의창구 북면 달천길 145,35.283458700000004,128.597895
당포성지,경남 통영시,055-650-4583,"['관광지', '역사', '역사관광지', '역사를품은곳', '역사문화재', '역사속', '역사속으로']",https://cdn.visitkorea.or.kr/img/call?cmd=VIEW&id=36efd5d8-dc72-489d-83fa-4be292f6dc40&thumb,경상남도 통영시 산양읍 삼덕리,34.7976314,128.3889314
당항포 요트앤스쿨,경남 고성군,055-673-5080,"['당항포', '레포츠', '요트체험', '이색체험']",https://cdn.visitkorea.or.kr/img/call?cmd=VIEW&id=0b2aafe1-dca9-4177-98c1-6f1dd855d88a&thumb,경상남도 고성군 회화면 당항만로 1116,35.05322563,128.39202609999998
당항포 요트체험,경남 고성군,055-670-4532,"['가족과함께', '당항포', '레포츠', '연인과함께', '요트체험', '이색체험', '친구와함께']",https://cdn.visitkorea.or.kr/img/call?cmd=VIEW&id=a109d03a-2577-447a-a407-72b0c91547c4&thumb,경상남도 고성군 회화면 당항만로 1116,35.05322563,128.39202609999998
당항포관광지,경남 고성군,055-670-4505,"['가족과함께', '경상권', '관광지', '남녀노소', '당항포', '당항포관광지', '아이와함께']",https://cdn.visitkorea.or.kr/img/call?cmd=VIEW&id=85940320-7b60-433b-8147-1e80e46d870b&thumb,경상남도 고성군 회화면 당항만로 1116,35.0552275,128.39737879999998
대각서원,경남 진주시,055-749-8579,"['경상권', '경상남도문화재자료', '관광지', '대각서원', '역사', '역사관광지', '역사를품은곳']",https://cdn.visitkorea.or.kr/img/call?cmd=VIEW&id=98345221-9979-4579-9053-741d857177a0&thumb,경상남도 진주시 수곡면 대각길 104-21,35.2235679,127.92297920000001
대광사(창원),경남 창원시,055-545-9595,"['관광지', '불교', '불교문화', '사찰', '사찰여행', '역사', '자연속으로', '자연환경']",https://cdn.visitkorea.or.kr/img/call?cmd=VIEW&id=f3929f2c-cde1-488e-af15-ca681d627cb0&thumb,경상남도 창원시 진해구 진해대로 303,35.127979100000005,128.74492279999998
대국산성,경남 남해군,055-860-8633,"['관광지', '역사', '역사공부', '역사관광지', '역사를품은곳', '역사문화재', '역사속']",https://cdn.visitkorea.or.kr/img/call?cmd=VIEW&id=2450c8d3-6e54-4aee-a966-3e2f0fee528d&thumb,경상남도 남해군 고현면 남치리,34.9101446,127.889178
대금산(거제),경남 거제시,055-639-4178,"['거제대금산', '경상권', '관광지', '등산', '자연', '트레킹']",https://cdn.visitkorea.or.kr/img/call?cmd=VIEW&id=b0c86348-03dc-4905-ae07-64e6c0eeb003&thumb,경상남도 거제시 장목면,34.9868751,128.6820325
대기 농촌체험휴양마을,경남 합천군,055-931-1313,"['가족체험', '가족체험여행', '관광지', '농촌체험', '농촌체험마을', '농촌체험여행']",https://cdn.visitkorea.or.kr/img/call?cmd=VIEW&id=43a2f42a-2ef8-46d8-9a93-eea2899705db&thumb,경상남도 합천군 가회면 대기2길 17-3,35.4621113,128.00189070000002
대끼리 상남시장,경남 창원시,055-262-1494,"['가족여행', '경상권', '기차여행', '나들이', '나홀로여행', '대끼리상남시장', '데이트코스']",https://cdn.visitkorea.or.kr/img/call?cmd=VIEW&id=5f4e646b-c916-44d4-ba8e-b31fcb6c981a&thumb,경상남도 창원시 성산구 마디미로 28,35.222209899999996,128.68340279999998
대도,경남 하동군,070-4208-8100,"['관광지', '자연']",https://cdn.visitkorea.or.kr/img/call?cmd=VIEW&id=caf47891-b38b-405c-a5f1-cc3da6027ada&thumb,경상남도 하동군 금남면 대도길 122,34.93196,127.8322743
대동면세점,경남 창원시,055-213-7700,"['면세점', '쇼핑', '인터내셔널호텔', '편의시설']",https://cdn.visitkorea.or.kr/img/call?cmd=VIEW&id=67e61619-0581-413c-8a7c-5920b8fa8216&thumb,경상남도 창원시 성산구 중앙대로 69 호텔인터내셔널 지하 1층,35.2218428,128.6771736
대동백화점,경남 창원시,055-212-8000,['쇼핑'],https://cdn.visitkorea.or.kr/img/call?cmd=VIEW&id=5f1d01e8-fccb-444e-96a8-5fec48c3ef6d&thumb,경상남도 창원시 성산구 동산로 115,35.2189019,128.6895637
대방마을,경남 사천시,055-831-3110,"['관광지', '자연']",https://cdn.visitkorea.or.kr/img/call?cmd=VIEW&id=31b10beb-be07-430a-8fb9-1078d6f4a42e&thumb,경남 사천시 동서동,34.9286218,128.0687425
대방진굴항,경남 사천시,055-831-2728,"['가족여행', '경치좋은곳', '관광지', '대방진굴항', '사천가볼만한곳', '아이와함께']",https://cdn.visitkorea.or.kr/img/call?cmd=VIEW&id=ac06227b-c4bf-400d-9865-550d5f24b277&thumb,경상남도 사천시 굴항길 99,34.9293312,128.0563856
대법사,경남 밀양시,055-356-0322,"['관광지', '불교', '불교문화', '사찰', '사찰여행', '역사', '자연속으로', '자연환경']",https://cdn.visitkorea.or.kr/img/call?cmd=VIEW&id=25f7f1dd-e365-44ce-97f7-515711212e38&thumb,경상남도 밀양시 무안면 무안서로 163-158,35.465946100000004,128.6063754
대산미술관,경남 창원시,055-291-5237,"['기차여행', '대산미술관', '문화시설', '미술관', '실내여행지', '아이와함께', '예술']",https://cdn.visitkorea.or.kr/img/call?cmd=VIEW&id=cf871de8-b7fe-42fa-aae2-060add9ad149&thumb,경상남도 창원시 의창구 대산면 유등로369번길 14-8,35.34513902,128.7440738
대성동고분박물관,경남 김해시,055-330-6881,"['경상권', '교과서속여행', '대성동고분박물관', '문화시설', '박물관', '아이와함께']",https://cdn.visitkorea.or.kr/img/call?cmd=VIEW&id=ea6f613d-f032-4ac3-9e84-99c63d1042b2&thumb,경상남도 김해시 가야의길 126,35.23606102,128.8730821
대운산자연휴양림 네트어드벤처,경남 양산시,055-379-8670,"['관광지', '대운산자연휴양림', '이색체험지']",https://cdn.visitkorea.or.kr/img/call?cmd=VIEW&id=af65559e-1ff6-45dd-85b7-730dd2c017e2&thumb,경상남도 양산시 탑골길 208-124,35.4172958,129.2119086
대원사(산청),경남 산청군,055-972-8068,"['관광지', '불교', '불교사찰', '사찰', '사찰여행', '역사', '자연속으로', '자연좋은곳']",https://cdn.visitkorea.or.kr/img/call?cmd=VIEW&id=31ba5993-c980-4e25-9a67-355692f89bc8&thumb,경상남도 산청군 삼장면 평촌유평로 453,35.3553053,127.80704840000001
대원사계곡,경남 산청군,055-970-6000,"['경상권', '계곡', '관광지', '대원사계곡', '자연', '피서']",https://cdn.visitkorea.or.kr/img/call?cmd=VIEW&id=undefined&thumb,경상남도 산청군 삼장면 유평리,35.3661378,127.77240790000002
대장경테마파크,경남 합천군,055-930-4801,"['가족여행', '가족체험여행', '경상권', '관광지', '대장경테마파크', '미세먼지_피하는_실내여행']",https://cdn.visitkorea.or.kr/img/call?cmd=VIEW&id=6e207f1e-68e6-468d-b142-fbcf74fa8ecc&thumb,경상남도 합천군 가야면 야천리 996,35.765062799999995,128.1357893
대포서원,경남 산청군,055-970-6413,"['가족여행', '경상권', '경상남도문화재자료', '관광지', '대포서원', '역사', '역사공부']",https://cdn.visitkorea.or.kr/img/call?cmd=VIEW&id=61621203-59f3-46ac-a974-d60a7522a7e2&thumb,경상남도 산청군 생초면 명지대포로236번길 183,35.4625227,127.8557936
대호누비,경남 통영시,055-645-8328,"['가족여행', '경상권', '기념품판매', '나들이', '나홀로여행', '대호누비', '쇼핑']",https://cdn.visitkorea.or.kr/img/call?cmd=VIEW&id=d8a1a6f0-8cdc-40b6-91c6-fcec4c83f141&thumb,경상남도 통영시 통영해안로 355,34.8448461,128.42610919999998
덕계 종합상설시장,경남 양산시,055-387-7414,"['가족여행', '경상권', '덕계종합상설시장', '사계절', '쇼핑', '시장맛집', '아이와함께']",https://cdn.visitkorea.or.kr/img/call?cmd=VIEW&id=d326830c-9ee6-4e77-9fbc-863d13c9ddbc&thumb,경상남도 양산시 덕계2길 7,35.369744,129.14718680000001
덕곡서원,경남 의령군,055-570-2531,"['경상권', '경상남도문화재자료', '관광지', '덕곡서원', '역사', '역사공부', '역사관광지']",https://cdn.visitkorea.or.kr/img/call?cmd=VIEW&id=07cc4162-4f1b-4aed-b505-c34d7481584d&thumb,경상남도 의령군 의령읍 벽화로 629-12,35.3130849,128.2535642
덕동해수욕장,경남 통영시,055-650-2570,"['관광지', '자연']",https://cdn.visitkorea.or.kr/img/call?cmd=VIEW&id=621757be-831c-4e2b-8af6-c7301cf6f02a&thumb,경상남도 통영시 욕지면 덕동길 39,34.6354977,128.23762720000002
덕산서원(고성),경남 고성군,055-670-2224,"['관광지', '역사', '역사공부', '역사관광지', '역사를품은곳', '역사문화재', '역사속']",https://cdn.visitkorea.or.kr/img/call?cmd=VIEW&id=d2c81520-6ed5-41e0-9c8a-48716b0557b0&thumb,경상남도 고성군 마암면 두호2길 76-13,35.0137113,128.34644129999998
덕연서원,경남 함안군,055-580-2573,"['경상권', '경상남도문화재자료', '관광지', '덕연서원', '역사', '역사공부', '역사관광지']",https://cdn.visitkorea.or.kr/img/call?cmd=VIEW&id=e5e2545e-bbe1-45d6-abef-b31f6a42f6ba&thumb,경상남도 함안군 칠원읍 예용3길 12-2,35.2970471,128.50977
덕원서원,경남 합천군,055-930-3178,"['경상권', '경상남도문화재자료', '관광지', '덕원서원', '역사', '역사공부', '역사관광지']",https://cdn.visitkorea.or.kr/img/call?cmd=VIEW&id=46a3f5ca-afce-4f37-8a84-12088ea1ff2f&thumb,경상남도 합천군 청덕면 성태길 81,35.58556289999999,128.319306
덕유산국립공원(남덕유분소),경남 거창군,055-943-3174,"['15_16한국관광100선', '경남/전북', '경상권', '관광지', '덕유산', '자연', '한국관광100선']",https://cdn.visitkorea.or.kr/img/call?cmd=VIEW&id=a1ba11bf-14eb-4b0b-a1b9-dd5e94889ffc&thumb,경남 거창군 북상면 소정리,35.8338264,127.80282890000001
덕천서원,경남 거창군,055-940-3431,"['관광지', '교과서속여행', '덕천서원', '서원', '역사', '역사공부', '역사관광지']",https://cdn.visitkorea.or.kr/img/call?cmd=VIEW&id=6511dccd-981a-40e1-883c-e0271fae8009&thumb,경상남도 거창군 거창읍 장팔길 594,35.66048970000001,127.8911219
덕천서원,경남 산청군,055-970-6413,"['관광지', '역사', '역사공부', '역사관광지', '역사를품은곳', '역사문화재', '역사속']",https://cdn.visitkorea.or.kr/img/call?cmd=VIEW&id=23eb1477-cfd4-4b4a-ba15-5e42f667001d&thumb,경상남도 거창군 거창읍 장팔길 594,35.66048970000001,127.8911219
덕천서원,경남 거창군,055-940-3431,"['가족여행', '거창덕천서원', '경상권', '관광지', '역사', '역사공부', '역사관광지']",https://cdn.visitkorea.or.kr/img/call?cmd=VIEW&id=3e478876-69a6-45e2-9327-65c17f0f64b5&thumb,경상남도 산청군 시천면 남명로 137,35.2745,127.8332233
덕포해수욕장,경남 거제시,055-1330,"['경상권', '관광지', '덕포해수욕장', '바다풍경', '연인과함께', '자연']",https://cdn.visitkorea.or.kr/img/call?cmd=VIEW&id=a0bb3851-4520-49a7-81ee-8f232eb324fd&thumb,경상남도 거제시 덕포5길,34.9125924,128.7119375
도계서원,경남 함안군,055-580-2573,"['관광지', '역사', '역사공부', '역사관광', '역사관광지', '역사를품은곳', '역사문화']",https://cdn.visitkorea.or.kr/img/call?cmd=VIEW&id=undefined&thumb,경상남도 함안군 함안면 파수북길 35-36,35.238729799999994,128.4024996
도곡서원,경남 함양군,055-960-4537,"['관광지', '역사', '역사공부', '역사관광지', '역사를품은곳', '역사문화재', '역사속']",https://cdn.visitkorea.or.kr/img/call?cmd=VIEW&id=4ed3f401-5e74-45df-84f9-e155a6e90558&thumb,경상남도 함양군 지곡면 병곡지곡로 859,35.566743200000005,127.7636311
도남관광지,경남 통영시,055-648-9133,"['관광지', '도남해수욕장', '산책길', '산책하기', '산책하기좋은곳', '스카이라인통영루지']",https://cdn.visitkorea.or.kr/img/call?cmd=VIEW&id=3a50696d-3c1a-4b58-a250-c3d54e5a4e3d&thumb,경상남도 통영시 큰발개1길 33,34.827698299999994,128.4400011
도남서원,경남 창원시,055-225-3673,"['관광지', '역사', '역사공부', '역사관광지', '역사를품은곳', '역사문화재', '역사속']",https://cdn.visitkorea.or.kr/img/call?cmd=VIEW&id=undefined&thumb,경상남도 창원시 의창구 동읍 동읍로401번길 68,35.298585100000004,128.65931080000001
도남항 동방파제 등대 (연필등대),경남 통영시,055-981-5261,"['관광지', '자연']",https://cdn.visitkorea.or.kr/img/call?cmd=VIEW&id=d8b797a5-ad46-44b7-a817-2c2e83ca2f08&thumb,경상남도 통영시 도남로 269-38,34.828660799999994,128.4337955
도봉서원,경남 창원시,055-225-3673,"['경상권', '관광지', '도봉서원', '역사', '역사공부', '역사관광지', '역사를품은곳']",https://cdn.visitkorea.or.kr/img/call?cmd=VIEW&id=36800403-4b82-4a03-9e35-c4ea45664cd1&thumb,경상남도 창원시 의창구 동읍 석산길16번길 5-11,35.314907899999994,128.6592584
도산서원(고성),경남 고성군,055-670-2224,"['관광지', '역사', '역사공부', '역사관광지', '역사를품은곳', '역사문화재', '역사속']",https://cdn.visitkorea.or.kr/img/call?cmd=VIEW&id=70df6945-f86a-4f12-8918-115f3b6c8aa8&thumb,경상남도 고성군 구만면 화림3길 88,35.103416100000004,128.3346196
도성암(창녕),경남 창녕군,055-530-1473,"['관광지', '불교', '불교문화', '사찰', '사찰여행', '역사', '자연속으로', '자연환경']",https://cdn.visitkorea.or.kr/img/call?cmd=VIEW&id=undefined&thumb,경상남도 창녕군 창녕읍 자하곡길 147,35.5435259,128.5201731
도심다원,경남 하동군,055-883-2252,"['가족체험', '경치좋은곳', '관광지', '녹차밭', '농촌체험', '사진찍기', '사진찍기좋은곳']",https://cdn.visitkorea.or.kr/img/call?cmd=VIEW&id=426b1788-9c3b-4e7a-907d-bb016a0e81c1&thumb,경상남도 하동군 화개면 신촌도심길 51-2,35.2180081,127.64758300000001
도연서원,경남 고성군,055-670-2224,"['관광지', '역사', '역사공부', '역사관광지', '역사를품은곳', '역사문화재', '역사속']",https://cdn.visitkorea.or.kr/img/call?cmd=VIEW&id=a97498d7-7488-485c-b5ac-ee227cf96b0d&thumb,경상남도 고성군 마암면 도전4길 152-41,35.062216299999996,128.3350007
도장포어촌체험마을,경남 거제시,055-638-2202,"['가족여행', '경상권', '관광지', '농어촌체험마을', '도장포어촌체험마을', '사진촬영명소']",https://cdn.visitkorea.or.kr/img/call?cmd=VIEW&id=efce0176-d568-442e-86bb-dab195976587&thumb,경상남도 거제시 남부면 도장포1길 76,34.743433200000005,128.6624301
도장포유람선,경남 거제시,055-632-8787,"['겨울바다', '관광지', '바다,섬', '바다여행', '바다풍경', '유람선', '유람선', '힐링&휴양']",https://cdn.visitkorea.or.kr/img/call?cmd=VIEW&id=68291d5f-5f5c-4143-8a0c-2f5bc863c827&thumb,경상남도 거제시 남부면 도장포1길 55,34.741971299999996,128.6626947
도천서원,경남 산청군,055-970-6413,"['관광지', '역사', '역사공부', '역사관광지', '역사를품은곳', '역사문화재', '역사속']",https://cdn.visitkorea.or.kr/img/call?cmd=VIEW&id=09f32951-b6b3-44f9-904b-3f035a805d3b&thumb,경상남도 산청군 신안면 문익점로 34-32,35.3271098,127.9530432
독일마을,경남 남해군,055-867-8897,"['19_20한국관광100선', '경상권', '관광지', '교과서속여행', '기차여행', '나들이']",https://cdn.visitkorea.or.kr/img/call?cmd=VIEW&id=6c0b1908-db4d-4b91-b1a2-74d94c037bfa&thumb,경상남도 남해군 삼동면 독일로 92,34.8008273,128.0385068
동림사(김해),경남 김해시,055-337-0001,"['경상권', '관광지', '동림사', '불교', '불교문화', '사찰', '역사', '자연', '자연좋은곳']",https://cdn.visitkorea.or.kr/img/call?cmd=VIEW&id=e1da8389-548e-4f56-9f61-96fc3833d53f&thumb,경상남도 김해시 신어산길 144,35.2636821,128.9148218
동부산컨트리클럽,경남 양산시,055-388-1315,['레포츠'],https://cdn.visitkorea.or.kr/img/call?cmd=VIEW&id=undefined&thumb,경상남도 양산시 매곡외산로 282,35.36370948,129.1832865
동산서당,경남 창녕군,055-530-1473,"['경상권', '경상남도문화재자료', '관광지', '동산서당', '역사', '역사공부', '역사관광지']",https://cdn.visitkorea.or.kr/img/call?cmd=VIEW&id=4fae451c-9e24-4036-88bc-d47cb9986629&thumb,경상남도 창녕군 이방면 이방로 565-5,35.57091,128.3851013
동피랑마을,경남 통영시,055-650-2570,"['감성사진', '걷기길', '경상권', '관광지', '데이트코스', '동피랑마을', '사진찍기좋은곳']",https://cdn.visitkorea.or.kr/img/call?cmd=VIEW&id=ba44d475-4f7c-4939-9875-f50e18d17659&thumb,경상남도 통영시 동피랑1길 6-18,34.8452973,128.4277594
동해 해안길,경남 고성군,055-211-4633,"['경상남도여행', '경치여행', '경치좋은곳', '관광지', '드라이브여행', '드라이브코스']",https://cdn.visitkorea.or.kr/img/call?cmd=VIEW&id=38f01e56-9bfe-4780-98db-b518feb28080&thumb,경상남도 고성군 동해면,35.0414357,128.4209977
동해면 작은 구학포 공룡 화석지,경남 고성군,055-670-4462,"['공룡', '역사', '역사공부', '역사관광지', '역사를품은곳', '역사속', '역사속으로']",https://cdn.visitkorea.or.kr/img/call?cmd=VIEW&id=e95cd7b2-9853-403a-8108-b071082ba202&thumb,경상남도 고성군 동해면 조선특구로 656-33,35.0247824,128.4628963
동호방파제,경남 통영시,055-650-0580,"['경남권', '레포츠', '바다낚시', '통영낚시터', '통영바다낚시']",https://cdn.visitkorea.or.kr/img/call?cmd=VIEW&id=be1c661d-4905-4a13-aaf6-1478bb95a5a9&thumb,경상남도 통영시 정량동,34.84794253,128.43576969999998
동화어촌체험마을,경남 고성군,010-4001-2115,"['관광지', '아이와함께', '어촌마을', '어촌체험마을', '이색체험', '자연마을', '자연좋은곳']",https://cdn.visitkorea.or.kr/img/call?cmd=VIEW&id=cf09366c-ff02-4c33-a06e-283fe8612351&thumb,경상남도 고성군 하일면 동화1길 203,34.9009795,128.19069270000003
돝섬(창원),경남 창원시,055-289-8815,"['가족과함께', '관광지', '자연', '자연관광지', '자연속으로', '자연여행', '자연좋은곳']",https://cdn.visitkorea.or.kr/img/call?cmd=VIEW&id=7233b983-d999-45f1-8ca3-870d6ac66c40&thumb,경상남도 창원시 마산합포구 돝섬2길 58,35.178936,128.5811386
"두곡, 월포해수욕장",경남 남해군,055-862-6148,"['가족여행', '경상권', '관광지', '두곡월표해수욕장', '두곡해수욕장', '바다풍경']",https://cdn.visitkorea.or.kr/img/call?cmd=VIEW&id=18febfb8-3cc3-4eee-8966-43fb48cd2b25&thumb,경상남도 남해군 남면 남면로111번길 77,34.76467529999999,127.9035653
두곡서원(창원),경남 창원시,055-225-3673,"['관광지', '역사', '역사공부', '역사관광지', '역사를품은곳', '역사문화재', '역사속']",https://cdn.visitkorea.or.kr/img/call?cmd=VIEW&id=ac844191-5b64-4f9e-9e38-99848c178c9d&thumb,경상남도 창원시 마산회원구 두곡길 54,35.2391476,128.5489481
두릉서원,경남 함안군,055-580-2301,"['관광지', '역사', '역사관광지', '역사를품은곳', '역사문화재', '역사속', '역사속으로']",https://cdn.visitkorea.or.kr/img/call?cmd=VIEW&id=fcfd58bf-8aff-4186-9d78-a48671e943a8&thumb,경상남도 함안군 여항면 두곡길 145,35.2062809,128.4552986
두모마을,경남 남해군,088-862-5865,"['가족과함께', '관광지', '농촌', '농촌마을', '농촌여행', '농촌체험마을', '농촌체험여행']",https://cdn.visitkorea.or.kr/img/call?cmd=VIEW&id=d64e94c6-515c-477c-88a6-e426a9640d1c&thumb,경상남도 남해군 상주면 양아로533번길 18,34.73379979999999,127.9553316
두무산(합천),경남 합천군,055-930-3114,"['관광지', '자연']",https://cdn.visitkorea.or.kr/img/call?cmd=VIEW&id=undefined&thumb,경상남도 합천군 가야면,35.7626841,128.1394795
두방사(두방암),경남 진주시,055-761-6351,"['관광지', '불교', '불교문화', '사찰', '사찰여행', '역사', '자연속으로', '자연환경']",https://cdn.visitkorea.or.kr/img/call?cmd=VIEW&id=673554c5-5250-4b2c-87b0-a49c21017444&thumb,경상남도 진주시 문산읍 동부로781번길 267,35.1881447,128.19146429999998
두부자공방,경남 거창군,055-943-7956,"['무형문화재', '방짜유기', '사물악기', '쇼핑']",https://cdn.visitkorea.or.kr/img/call?cmd=VIEW&id=undefined&thumb,경상남도 거창군 거창읍 밤티재로 1273-26,35.669462,127.9301054
둔철산,경남 산청군,055-970-6911,"['관광지', '자연']",https://cdn.visitkorea.or.kr/img/call?cmd=VIEW&id=undefined&thumb,경상남도 산청군 산청읍 범학길,35.388554600000006,127.91265159999999
라온레포츠,경남 합천군,051-582-5399,"['레포츠', '서바이벌', '양궁', '용주면', '체험']",https://cdn.visitkorea.or.kr/img/call?cmd=VIEW&id=84ffc97e-79c8-43c3-a3a3-f3faee9dba94&thumb,경상남도 합천군 용주면 합천호수로 828-5,35.5468275,128.0803508
롯데프리미엄아울렛 김해점,경남 김해시,055-900-2500,"['경상권', '롯데프리미엄아울렛', '쇼핑', '친구와함께']",https://cdn.visitkorea.or.kr/img/call?cmd=VIEW&id=76ae4d8a-e9e0-4b85-935d-f0429476b9e7&thumb,경상남도 김해시 장유로 469,35.1851191,128.8299232
루디아공예원,경남 사천시,010-2862-0524,"['공방', '도예', '도자기체험', '사천', '쇼핑']",https://cdn.visitkorea.or.kr/img/call?cmd=VIEW&id=d0cf3fd9-2f87-433e-b2d5-77d56e20efa1&thumb,경상남도 사천시 벌리5길 12-12,34.9388454,128.0843599
마금산,경남 창원시,055-225-4453,"['가족과함께', '경상권', '관광지', '마금산', '자연', '친구와함께', '트레킹']",https://cdn.visitkorea.or.kr/img/call?cmd=VIEW&id=31317666-591c-4d70-9a64-5f46d4cbe97d&thumb,경상남도 창원시 의창구 북면 신리길30번길,35.3487153,128.6058577
마금산원탕,경남 창원시,055-298-4400,"['가족과함께', '관광지', '마금산원탕', '목욕탕', '복면온천', '온천', '친구들과함께']",https://cdn.visitkorea.or.kr/img/call?cmd=VIEW&id=069a6640-b6db-4271-bb68-9cb783b092c3&thumb,경상남도 창원시 의창구 북면 천주로 1167,35.3546296,128.6094306
마산 오동동 아구찜거리,경남 창원시,,"['경상권', '관광지', '마산오동동아구찜거리', '소주한잔', '시장음식', '아구찜']",https://cdn.visitkorea.or.kr/img/call?cmd=VIEW&id=5ecf7c96-ad87-4e04-b035-4163932f1289&thumb,경상남도 창원시 마산합포구 아구찜길 20,35.2064262,128.5785669
마산로봇랜드,경남 창원시,055-214-6000,"['가족과함께', '관광지', '로봇랜드', '아이가_좋아하는_여행', '아이와함께', '이색체험']",https://cdn.visitkorea.or.kr/img/call?cmd=VIEW&id=9835e16c-ecef-4e1b-8976-de907ad9d2ac&thumb,경상남도 창원시 마산합포구 구산면 로봇랜드로 250,35.0697416,128.5805435
마산문화원,경남 창원시,055-293-1186,"['마산문화원', '문화시설', '복합문화공간', '열린문화공간']",https://cdn.visitkorea.or.kr/img/call?cmd=VIEW&id=undefined&thumb,경상남도 창원시 마산합포구 3·15대로 199,35.1959708,128.5667109
마산어시장,경남 창원시,055-221-0671,"['가족여행', '경상권', '기차여행', '나들이', '나홀로여행', '데이트코스', '마산수산시장']",https://cdn.visitkorea.or.kr/img/call?cmd=VIEW&id=765294a1-2aa6-4df3-8ce6-cc56fe0d5d1f&thumb,경상남도 창원시 마산합포구 어시장8길 8,35.2005311,128.5739829
마산역(철도체험학습장),경남 창원시,051-440-2818,"['견학', '경상권', '관광지', '마산역', '산업관광', '이색체험', '직업체험', '철도체험학습장']",https://cdn.visitkorea.or.kr/img/call?cmd=VIEW&id=79b04d20-c0a1-4090-b2bd-e26b78396809&thumb,경상남도 창원시 마산회원구 마산역광장로 18,35.237115700000004,128.57819579999997
마산해양레포츠센터,경남 창원시,055-712-0454,"['가족여행지', '레포츠', '요트', '체험관광', '해양']",https://cdn.visitkorea.or.kr/img/call?cmd=VIEW&id=fcb239bd-94a3-4d34-bdbb-c6b3606dbdc9&thumb,경상남도 창원시 마산합포구 돝섬1길 187,35.17976054,128.5798689
마산향교,경남 창원시,055-271-6300,"['관광지', '역사', '역사공부', '역사관광지', '역사를품은곳', '역사문화재', '역사속']",https://cdn.visitkorea.or.kr/img/call?cmd=VIEW&id=542576de-e3d6-4958-a048-02b53aaa96b8&thumb,경상남도 창원시 마산합포구 진동면 교동1길 86,35.1188425,128.4990018
마산현대미술관,경남 창원시,055-271-5150,"['가족과함께', '경남권', '마산현대미술관', '문화시설', '아이와함께', '예술체험']",https://cdn.visitkorea.or.kr/img/call?cmd=VIEW&id=d7c1ceb4-6dc7-4768-b918-b951e11610a2&thumb,경상남도 창원시 마산합포구 진전면 팔의사로 361,35.12695825,128.3840188
"마천장 (5, 10일)",경남 함양군,055-960-5421,"['가족여행', '경상권', '기차여행', '나들이', '나홀로여행', '마천장', '먹거리', '쇼핑']",https://cdn.visitkorea.or.kr/img/call?cmd=VIEW&id=d1fcd079-110b-45d1-83d3-984e9ca1bee5&thumb,경상남도 함양군 마천면 천왕봉로 1144-2,35.3957208,127.66255690000001
만골관광농원,경남 거제시,055-633-0700,"['가족과함께', '가족체험', '가족휴양', '관광농원', '관광지', '농원', '농촌마을']",https://cdn.visitkorea.or.kr/img/call?cmd=VIEW&id=undefined&thumb,경상남도 거제시 동부면 북병산로 89-22,34.813973600000004,128.6466707
만어사,경남 밀양시,055-356-2010,"['경상권', '관광지', '만어사', '불교', '불교문화', '사찰', '사찰여행', '역사', '역사유적지']",https://cdn.visitkorea.or.kr/img/call?cmd=VIEW&id=1f7d68af-1674-4272-922a-02d3de777709&thumb,경상남도 밀양시 삼랑진읍 만어로 776,35.454829499999995,128.8462291
만월당,경남 거창군,055-940-3431,"['거창만월당', '경상권', '경상남도유형문화재', '관광지', '역사', '역사공부', '역사관광지']",https://cdn.visitkorea.or.kr/img/call?cmd=VIEW&id=178692d9-790a-48c1-87e6-c4631f93284b&thumb,경상남도 거창군 북상면 덕유월성로 2279-10,35.777215500000004,127.8148078
만지도,경남 통영시,055-643-3433,"['2020_휴가철찾아가고싶은_33섬', '가족과함께', '경상권', '경치여행', '경치좋은곳']",https://cdn.visitkorea.or.kr/img/call?cmd=VIEW&id=c37dc1ae-4848-4338-addd-04bc0b05042d&thumb,경상남도 통영시 산양읍 만지길 3,34.7399362,128.389075
만화방초,경남 고성군,010-3870-1041,"['관광지', '자연']",https://cdn.visitkorea.or.kr/img/call?cmd=VIEW&id=45378289-d45e-413c-bc97-a6bdb51b027b&thumb,경상남도 고성군 거류면 은황길 82-91,34.9603597,128.38552909999999
망산공원,경남 사천시,055-831-3400,"['걷기좋은길', '걷기좋은길', '관광지', '망상공원', '산책길', '산책코스', '산책하기']",https://cdn.visitkorea.or.kr/img/call?cmd=VIEW&id=e97bb7cd-d513-484d-ac29-9400397331da&thumb,경상남도 사천시 망산동1길 41-15,34.9331908,128.0726381
망산도·유주암·유주비각,경남 창원시,055-225-3673,"['경상권', '경상남도기념물', '관광지', '망산도', '역사', '역사공부', '역사관광지']",https://cdn.visitkorea.or.kr/img/call?cmd=VIEW&id=3f72a6f4-ae74-420a-8e55-181e535f54b8&thumb,경상남도 창원시 진해구 용원동,35.1091336,128.817681
망운산,경남 남해군,055-860-8601,"['관광지', '자연']",https://cdn.visitkorea.or.kr/img/call?cmd=VIEW&id=null&thumb,경상남도 남해군 서면 남서대로2240번길 412-18,34.8459053,127.84617659999998
망운암(남해),경남 남해군,055-863-3095,"['관광지', '불교', '불교문화', '사찰', '사찰여행', '역사', '자연속으로', '자연환경']",https://cdn.visitkorea.or.kr/img/call?cmd=VIEW&id=null&thumb,경상남도 남해군 남해읍 남서대로2240번길 708,34.8514549,127.85808929999999
망진산 봉수대,경남 진주시,055-749-8579,"['관광지', '역사', '역사공부', '역사관광지', '역사를품은곳', '역사문화재', '역사속']",https://cdn.visitkorea.or.kr/img/call?cmd=VIEW&id=722591c4-568a-4c92-819a-01a5b5d1eca4&thumb,경상남도 진주시 망경동,35.18075820000001,128.0846784
매물도,경남 통영시,055-650-4681,"['관광지', '자연']",https://cdn.visitkorea.or.kr/img/call?cmd=VIEW&id=a78daad9-7b01-47f6-a19b-13841ac9d5e9&thumb,경상남도 통영시 한산면 매물도대항길,34.6397415,128.5698573
매미성,경남 거제시,055-639-4178,"['경상권', '관광지', '매미성', '바다', '자연']",https://cdn.visitkorea.or.kr/img/call?cmd=VIEW&id=0b09c40f-2588-4c12-bfb7-d29295f96aab&thumb,경상남도 거제시 장목면 복항길,34.967310100000006,128.7043829
매암차문화박물관,경남 하동군,055-883-3500,"['경상권', '다도', '매암차문화박물관', '문화시설', '박물관', '차문화체험']",https://cdn.visitkorea.or.kr/img/call?cmd=VIEW&id=46ae7f08-0323-43c6-b9d8-2d945130b820&thumb,경상남도 하동군 악양면 악양서로 346-1,35.16110665,127.7093641
매화산(합천),경남 합천군,055-930-8000,"['경상권', '관광지', '단풍여행', '등산', '자연', '트레킹', '합천매화산']",https://cdn.visitkorea.or.kr/img/call?cmd=VIEW&id=dc026833-205c-4a34-a30a-1557e219fdd3&thumb,경상남도 합천군 가야면 해인사길,35.7984088,128.0939279
명사마을,경남 거제시,055-639-6003,"['경상권', '관광지', '명사마을', '자연', '힐링']",https://cdn.visitkorea.or.kr/img/call?cmd=VIEW&id=dd87d271-1653-4a52-85c0-a0646d4b8731&thumb,경상남도 거제시 남부면 명사1길 12-1,34.7255282,128.60210220000002
명사해수욕장,경남 거제시,055-639-6551,"['가족여행', '관광지', '명사해수욕장', '바다풍경', '아이와함께', '여름방학가볼만한곳']",https://cdn.visitkorea.or.kr/img/call?cmd=VIEW&id=8499bc1e-ad47-4b48-b209-876f929620a7&thumb,경상남도 거제시 남부면 명사해수욕장길,34.72766179999999,128.6048804
명성다원,경남 하동군,055-883-5852,"['가족여행', '경상권', '기념품판매', '기차여행', '나들이', '나홀로여행', '명성다원']",https://cdn.visitkorea.or.kr/img/call?cmd=VIEW&id=f0d5a60f-b6d6-401f-b7a6-e290c0ba2772&thumb,경상남도 하동군 악양면 섬진강대로 3068-4,35.130438700000006,127.6962371
모리재,경남 거창군,055-940-3431,"['경상권', '경상남도유형문화재', '관광지', '모리재', '역사', '역사공부', '역사관광지']",https://cdn.visitkorea.or.kr/img/call?cmd=VIEW&id=5d02c55a-ca32-401b-8821-3b65953ac71e&thumb,경상남도 거창군 북상면 강선대길 96-326,35.7653088,127.79748899999998
모상개해수욕장,경남 남해군,1588-3415,"['관광지', '자연']",https://cdn.visitkorea.or.kr/img/call?cmd=VIEW&id=5d18f9ab-2a9a-494c-bdd3-12647cfec325&thumb,경상남도 남해군 창선면 진동리,34.847136400000004,128.05322859999998
모아레벤트,경남 합천군,055-931-5419,"['래프팅', '레포츠', '수상레포츠', '합천황강래프팅']",https://cdn.visitkorea.or.kr/img/call?cmd=VIEW&id=df28bbfb-f9a3-4192-96a8-361f519b2101&thumb,경상남도 합천군 용주면 합천호수로 828-5,35.54686969,128.08036040000002
모은암,경남 김해시,055-335-9200,"['관광지', '불교', '불교문화', '사찰', '사찰여행', '역사', '자연속으로', '자연환경']",https://cdn.visitkorea.or.kr/img/call?cmd=VIEW&id=undefined&thumb,경상남도 김해시 생림면 마사로 36-228,35.3468346,128.8611536
목계서원,경남 산청군,055-970-6413,"['경상권', '관광지', '교과서속여행', '목계서원', '서원', '역사', '역사공부', '역사관광지']",https://cdn.visitkorea.or.kr/img/call?cmd=VIEW&id=85ab3d5a-1848-4e61-9a55-02858b88c3ad&thumb,경상남도 산청군 단성면 석대로525번길 40-13,35.3252864,127.93573629999999
목면시배유지,경남 산청군,055-973-2445,"['가족여행', '경상권', '목면시배유지', '문익점', '문화시설', '체험학습']",https://cdn.visitkorea.or.kr/img/call?cmd=VIEW&id=9cf0fac9-25f3-4820-bfb1-f8906dbc1578&thumb,경상남도 산청군 단성면 목화로 887,35.29061291,127.9580563
몽고정,경남 창원시,055-225-3673,"['경상권', '경상남도문화재자료', '관광지', '몽고정', '역사', '역사공부', '역사관광지']",https://cdn.visitkorea.or.kr/img/call?cmd=VIEW&id=a2f6eaa2-2727-402f-a78d-a8df5719110f&thumb,경상남도 창원시 마산합포구 자산동,35.2055979,128.5654666
무민사(남해),경남 남해군,055-860-8636,"['경상권', '관광지', '남해무민사', '역사', '역사공부', '역사관광지', '역사를품은곳']",https://cdn.visitkorea.or.kr/img/call?cmd=VIEW&id=3b087643-dc07-4603-8e2b-6c9fbb3a9698&thumb,경상남도 남해군 미조면 남해대로 14-11,34.7173953,128.0415797
무봉사,경남 밀양시,055-354-3296,"['관광지', '불교', '불교문화', '사찰', '사찰여행', '역사', '자연속으로', '자연환경']",https://cdn.visitkorea.or.kr/img/call?cmd=VIEW&id=54561e0a-9b1a-49fa-9f98-74bf7ac553f3&thumb,경상남도 밀양시 영남루1길 16-11,35.4917461,128.7564311
무산사,경남 함안군,055-580-2573,"['경상권', '경상남도유형문화재', '관광지', '무산사', '역사', '역사공부', '역사관광']",https://cdn.visitkorea.or.kr/img/call?cmd=VIEW&id=d60fc51b-a5d7-4556-bf1d-2f73657968c9&thumb,경상남도 함안군 칠서면 무릉길 75,35.323814,128.515578
"무안장 (1, 6일)",경남 밀양시,055-359-5052,"['가족여행', '경상권', '기차여행', '나들이', '나홀로여행', '먹거리', '무안장', '쇼핑']",https://cdn.visitkorea.or.kr/img/call?cmd=VIEW&id=5932fe21-6648-47bc-99ab-b567e10f1550&thumb,경상남도 밀양시 무안면 사명로 510-7,35.47013,128.6522601
무지갯빛 해안도로,경남 사천시,055-831-2780,"['관광지', '남녀노소', '바다경치', '바다내음', '사천가볼만한곳', '산책코스', '산책하기좋은곳']",https://cdn.visitkorea.or.kr/img/call?cmd=VIEW&id=1122e856-afae-4693-9dbb-d599c7977d1b&thumb,경상남도 사천시 용현면,35.0134571,128.0613209
무지돌이마을,경남 고성군,055-674-0152,"['가족체험', '가족체험여행', '가족체험학습', '가족힐링', '관광지', '녹색농촌체험마을']",https://cdn.visitkorea.or.kr/img/call?cmd=VIEW&id=1a642443-ca78-4889-9214-b3437ebfa574&thumb,경상남도 고성군 개천면 나선길 81-9,35.1221612,128.3159283
무진정(함안),경남 함안군,055-580-2573,"['관광지', '역사', '역사공부', '역사관광지', '역사를품은곳', '역사문화재', '역사속']",https://cdn.visitkorea.or.kr/img/call?cmd=VIEW&id=7c762fa7-8a96-41e4-a601-cfca930c5c77&thumb,경상남도 함안군 함안면 괴산4길 25,35.25540720000001,128.42278059999998
무척산,경남 김해시,055-330-4431,"['관광지', '자연']",https://cdn.visitkorea.or.kr/img/call?cmd=VIEW&id=undefined&thumb,경상남도 김해시 생림면,35.3281565,128.8492455
무학산,경남 창원시,055-225-4453,"['경상권', '관광지', '등산', '무학산', '자연', '전망좋은곳', '트레킹']",https://cdn.visitkorea.or.kr/img/call?cmd=VIEW&id=59286206-f763-44a0-99ac-8ff6701edb5b&thumb,경상남도 창원시 마산합포구 교방동7길 3,35.2135726,128.5673274
문수암 (산청),경남 산청군,055-973-5820,"['경상권', '관광지', '문수암', '사찰', '역사', '역사공부', '역사관광지', '역사를품은곳']",https://cdn.visitkorea.or.kr/img/call?cmd=VIEW&id=6275d541-2f92-46d9-967d-8eb92847bcf6&thumb,경상남도 산청군 시천면 마근담길 173-17,35.2883102,127.8538362
문수암(고성),경남 고성군,055-672-8078,"['경상권', '관광지', '문수암', '불교', '불교문화', '불교사찰', '사찰', '사찰여행']",https://cdn.visitkorea.or.kr/img/call?cmd=VIEW&id=124a11d5-f119-4c82-a18f-1e72af0fe8e2&thumb,경상남도 고성군 상리면 무선2길 808,34.9789195,128.21149
물계서원,경남 창녕군,055-530-1473,"['경상권', '경상남도문화재자료', '관광지', '물계서원', '역사', '역사공부', '역사관광지']",https://cdn.visitkorea.or.kr/img/call?cmd=VIEW&id=28a16bc4-3fac-486e-9a80-9eb2a017a535&thumb,경상남도 창녕군 대지면 모산1길 109-36,35.5655015,128.4686741
물계서원원정비,경남 창녕군,055-530-1473,"['경상권', '경상남도문화재자료', '관광지', '물계서원원정비', '역사', '역사공부']",https://cdn.visitkorea.or.kr/img/call?cmd=VIEW&id=9f45621a-4461-40db-9409-b3ad090a7c36&thumb,경상남도 창녕군 대지면 모산1길 109-36,35.5655015,128.4686741
물사랑교육농장,경남 진주시,055-758-1062,"['가족과함께', '관광지', '농사체험', '농장체험', '생태체험', '아이와함께', '이색체험']",https://cdn.visitkorea.or.kr/img/call?cmd=VIEW&id=e9729184-ef72-4896-91dc-5a7e00f37dff&thumb,경상남도 진주시 대평면 호반로 414-11,35.161500399999994,127.9905588
물안해수욕장,경남 거제시,055-639-6712,"['가족여행', '경상권', '관광지', '물안해수욕장', '바다풍경', '여름여행', '자연']",https://cdn.visitkorea.or.kr/img/call?cmd=VIEW&id=e3f36d8f-7239-4375-ad96-19ba8f04a895&thumb,경상남도 거제시 하청면 칠천로,34.9896781,128.6368115
미녀산(미녀봉),경남 거창군,055-9740-3420,"['경상권', '관광지', '미녀봉', '미녀산', '자연']",https://cdn.visitkorea.or.kr/img/call?cmd=VIEW&id=f9266a0c-4d6a-4dee-897e-88aa94f4e892&thumb,경남 거창군 가조면 기리2길,35.68194129999999,128.0251385
미래사(통영),경남 통영시,055-645-5324,"['경상권', '관광지', '미래사', '미륵산', '사찰', '산사', '역사', '역사유적지', '연중무휴']",https://cdn.visitkorea.or.kr/img/call?cmd=VIEW&id=675deee6-fb3a-4698-a9e5-7e7fab8a8474&thumb,경상남도 통영시 산양읍 미륵산길 192,34.804339500000005,128.42075630000002
미륵도,경남 통영시,055-650-4681,"['걷기길', '경상권', '관광지', '등산로', '미륵도', '바다풍경', '사찰', '산사', '섬여행']",https://cdn.visitkorea.or.kr/img/call?cmd=VIEW&id=d930100d-35b0-4fd4-beab-54382828dd94&thumb,경상남도 통영시 산양읍 원항1길 274,34.7948067,128.3725089
미륵도 관광특구,경남 통영시,055-648-9133,"['가족여행', '가족체험여행', '겨울방학가볼만한곳', '관광지', '미륵도관광특구']",https://cdn.visitkorea.or.kr/img/call?cmd=VIEW&id=d1bcdd5e-f999-4568-9e71-211cdfb56667&thumb,경상남도 통영시 도남동,34.826693299999995,128.4269384
미륵산(통영),경남 통영시,055-650-2570,"['경상권', '관광지', '남녀노소', '등산', '등산객', '등산로', '등산여행', '등산코스']",https://cdn.visitkorea.or.kr/img/call?cmd=VIEW&id=df66472c-418c-4618-987d-2af65226cfdb&thumb,경상남도 통영시 봉수돌샘길 115,34.821990500000005,128.41551909999998
미리미동국 (진장 문화예술 플랫폼),경남 밀양시,055-359-5788,"['가족과함께', '관광지', '남녀노소', '문화예술', '문화예술활동', '복합문화공간']",https://cdn.visitkorea.or.kr/img/call?cmd=VIEW&id=e3875728-e750-432c-baab-c3d4b2c96644&thumb,경상남도 밀양시 남천강변로3길 3-4,35.4908317,128.7494241
미리벌민속박물관,경남 밀양시,055-391-2882,"['경상남도', '문화시설', '미리벌민속박물관', '밀양', '전시관', '전통문화']",https://cdn.visitkorea.or.kr/img/call?cmd=VIEW&id=c188cd65-fde4-4774-afa8-10ce96830ed8&thumb,경상남도 밀양시 초동면 초동중앙로 439,35.41891126,128.6738986
미숭산관광지,경남 합천군,055-930-4666,"['가족과함께', '관광지', '산책', '산책길', '산책로', '산책코스', '산책하기', '산책하기좋은곳']",https://cdn.visitkorea.or.kr/img/call?cmd=VIEW&id=d454b964-dab1-49d2-a4dc-a8ba99ffd24e&thumb,경상남도 합천군 야로면 미숭산로 343,35.726020500000004,128.1916739
미양서원,경남 김해시,055-338-1330,"['관광지', '역사', '역사공부', '역사관광지', '역사를품은곳', '역사문화재', '역사속']",https://cdn.visitkorea.or.kr/img/call?cmd=VIEW&id=null&thumb,경상남도 김해시 진영읍 진영로 430-16,35.2970773,128.7580282
미연서원,경남 의령군,055-570-2531,"['관광지', '역사']",https://cdn.visitkorea.or.kr/img/call?cmd=VIEW&id=undefined&thumb,경상남도 의령군 대의면 모의로 323,35.384125899999994,128.1482837
미조항,경남 남해군,1588-3415,"['관광지', '자연']",https://cdn.visitkorea.or.kr/img/call?cmd=VIEW&id=1242e9d8-3c1f-4a27-858c-b66dadeaa6ba&thumb,경상남도 남해군 미조면 미조리,34.7120127,128.0417335
미타암(양산),경남 양산시,055-365-4184,"['가족여행', '경상권', '관광지', '미타암', '불교', '불교문화', '사찰', '사찰여행']",https://cdn.visitkorea.or.kr/img/call?cmd=VIEW&id=null&thumb,경상남도 양산시 주진로 379-61,35.4061288,129.1282147
밀양 꽃새미마을,경남 밀양시,055-391-1518,"['가족과함께', '가족여행', '경상권', '관광지', '농촌전통테마마을', '밀양꽃새미마을']",https://cdn.visitkorea.or.kr/img/call?cmd=VIEW&id=808a0393-c765-4dd1-83eb-7ecbf0eda736&thumb,경상남도 밀양시 초동면 방동안길 22,35.4531671,128.7059171
밀양 얼음골,경남 밀양시,055-356-5640,"['가족여행', '경상권', '계곡', '관광지', '교육여행', '밀양얼음골', '아이와함께']",https://cdn.visitkorea.or.kr/img/call?cmd=VIEW&id=f82df448-b01d-45e0-8e91-68bd1220678b&thumb,경상남도 밀양시 산내면 산내로 1647,35.588945,128.9116521
밀양 영남루,경남 밀양시,055-356-1355,"['가족여행', '경상권', '관광지', '밀양영남루', '보물', '역사', '역사를품은곳', '역사속으로']",https://cdn.visitkorea.or.kr/img/call?cmd=VIEW&id=fa385655-e792-4c0d-8ad5-17242db9238d&thumb,경상남도 밀양시 중앙로 324,35.4919122,128.7552413
밀양 평리산대추정보화 마을,경남 밀양시,055-353-5244,"['가족여행', '경상권', '관광지', '밀양평리산대추마을', '체험']",https://cdn.visitkorea.or.kr/img/call?cmd=VIEW&id=7cb996f7-dd76-489c-8f07-3e65e443f144&thumb,경상남도 밀양시 단장면 고례4길 7-3,35.4995825,128.9268807
밀양 한천박물관,경남 밀양시,1577-6526,"['가족과함께', '문화시설', '밀양한천박물관', '아이와함께']",https://cdn.visitkorea.or.kr/img/call?cmd=VIEW&id=95d8ef2a-7ac5-4158-9170-d56e7b602594&thumb,경상남도 밀양시 산내면 봉의로 58-31,35.59115519,128.8798334
밀양댐 물 문화관,경남 밀양시,055-359-3213,"['경상권', '관광지', '물문화관', '밀양댐', '밀양댐물문화관', '산업관광', '신재생에너지']",https://cdn.visitkorea.or.kr/img/call?cmd=VIEW&id=ac6bfa2d-6c5e-4f81-988b-5a8de0d18939&thumb,경상남도 밀양시 단장면 고례2길 79-10,35.4852079,128.9302598
밀양문화원,경남 밀양시,055-354-3009,"['경상남도', '무장애', '문화공간', '문화시설', '밀양시', '박물관', '전시']",https://cdn.visitkorea.or.kr/img/call?cmd=VIEW&id=2fbf5f52-049d-4b72-8124-e90203dee938&thumb,경상남도 밀양시 중앙로 265,35.4867908,128.7548535
밀양시립박물관,경남 밀양시,055-359-5589,"['경상권', '기차여행', '문화시설', '밀양시립박물관', '박물관', '아이와함께', '전시관']",https://cdn.visitkorea.or.kr/img/call?cmd=VIEW&id=2da88c6d-cf6c-4c87-91ec-833ca5dc40cf&thumb,경상남도 밀양시 밀양대공원로 100,35.50296509,128.7593643
밀양아리랑 우주천문대,경남 밀양시,055-359-5855,"['가족과함께', '관광지', '교육프로그램', '남녀노소', '밀양가볼만한곳', '밀양아리랑']",https://cdn.visitkorea.or.kr/img/call?cmd=VIEW&id=49b28e18-9917-452a-becf-f637465cb06c&thumb,경상남도 밀양시 밀양대공원로 86,35.5023792,128.7605454
밀양아리랑아트센터,경남 밀양시,055-359-4500,"['공연장', '문화시설', '밀양문화재단', '밀양아리랑아트센터']",https://cdn.visitkorea.or.kr/img/call?cmd=VIEW&id=77c49573-1bd6-4dec-b83b-897f2abc8fb4&thumb,경상남도 밀양시 밀양대공원로 112,35.50442565,128.75851550000002
밀양의열기념관,경남 밀양시,055-351-0815,"['문화시설', '밀양의열기념관', '역사체험', '항일민족독립운동']",https://cdn.visitkorea.or.kr/img/call?cmd=VIEW&id=ae8945d6-4c82-4028-8ca9-4b9c4a35d55e&thumb,경상남도 밀양시 노상하1길 25-12,35.49360903,128.7509368
"밀양장 (2, 7일)",경남 밀양시,055-354-2659,"['가족여행', '경상권', '나들이', '나홀로여행', '먹거리', '밀양장', '쇼핑', '시장맛집']",https://cdn.visitkorea.or.kr/img/call?cmd=VIEW&id=abd5290a-09c8-480c-bff0-1d8e5fdb6f5d&thumb,경상남도 밀양시 상설시장1길 11,35.49304779999999,128.7525241
밀양한천 테마파크,경남 밀양시,1577-6526,"['가족과함께', '가족체험', '관광지', '교육여행', '교육체험', '남녀노소', '밀양가볼만한곳']",https://cdn.visitkorea.or.kr/img/call?cmd=VIEW&id=3ff33f2d-9e69-45fe-839e-20c00bfd4ab0&thumb,경상남도 밀양시 산내면 봉의로 58-31,35.5916954,128.8809339
밀양향교,경남 밀양시,055-359-5788,"['관광지', '역사', '역사공부', '역사관광지', '역사를품은곳', '역사문화', '역사속']",https://cdn.visitkorea.or.kr/img/call?cmd=VIEW&id=4a3ea3ba-3a10-4675-9f6a-1c329420b063&thumb,경상남도 밀양시 밀양향교3길 19,35.5063131,128.7546937
바람의 언덕,경남 거제시,055-639-4178,"['17_18한국관광100선', '19_20한국관광100선', '거제바람의언덕', '경남']",https://cdn.visitkorea.or.kr/img/call?cmd=VIEW&id=3536738e-f36a-48f2-b6fd-4f9bd7ecf119&thumb,경상남도 거제시 남부면 도장포마을,34.740654299999996,128.6623308
바람흔적미술관,경남 남해군,010-7542-3034,"['가족여행', '경상권', '기차여행', '문화시설', '미술관', '바람흔적미술관', '실내여행지']",https://cdn.visitkorea.or.kr/img/call?cmd=VIEW&id=5f55a807-bfc2-454e-b3fd-89f138e06803&thumb,경상남도 남해군 삼동면 금암로 519-4,34.76232785,128.0121821
