name,region,tel,keyword,photo,address,lat,lon
3.1동산,전북 임실군,063-640-2114,"['3·1운동', '3·1운동_100주년_여행지추천', '관광지', '독립운동', '만세운동']",https://cdn.visitkorea.or.kr/img/call?cmd=VIEW&id=95726bc6-b612-484a-8ba1-05b91cf8db46&thumb,전라북도 임실군 임실읍 이도리,35.617628,127.2857628
[고창 고인돌 질마재길 1코스] 고인돌길,전북 고창군,063-560-2456,"['고인돌', '레포츠', '생태연못', '생태탐방길', '유적지']",https://cdn.visitkorea.or.kr/img/call?cmd=VIEW&id=e2a34aab-2db3-486f-bd0b-b420b00934b8&thumb,전라북도 고창군 고창읍 고인돌공원길,35.442285399999996,126.6509793
[고창 고인돌 질마재길 2코스] 복분자 풍천장어길,전북 고창군,063-560-2466,"['고인돌', '레포츠', '산책코스', '생태탐방길', '풍천']",https://cdn.visitkorea.or.kr/img/call?cmd=VIEW&id=9e1ecfdc-36d8-4b44-a8ee-e9c0e800023f&thumb,전라북도 고창군 고창읍 고인돌공원길,35.442285399999996,126.6509793
[고창 고인돌 질마재길 3코스] 질마재길,전북 고창군,063-560-2456,"['국화', '레포츠', '산책코스', '소금', '소요사']",https://cdn.visitkorea.or.kr/img/call?cmd=VIEW&id=b2d6f061-de16-4d23-a574-2ae1e69d435b&thumb,전라북도 고창군 고창읍 고인돌공원길,35.442285399999996,126.6509793
[고창 고인돌 질마재길 4코스] 보은길,전북 고창군,063-560-2456,"['고인돌', '레포츠', '보은', '생가', '생태탐방길', '진채선']",https://cdn.visitkorea.or.kr/img/call?cmd=VIEW&id=c9f1cfbe-234b-435b-870c-5462667b33a9&thumb,전라북도 고창군 고창읍 고인돌공원길,35.442285399999996,126.6509793
[군산 구불길] 구불1길 비단강길,전북 군산시,063-454-3303,"['구불길', '군산', '군산여행', '레포츠', '산책길']",https://cdn.visitkorea.or.kr/img/call?cmd=VIEW&id=0df56fe4-7f9f-4c64-9171-86468e2cc4ac&thumb,전라북도 군산시 금강변 일원,35.96767720000001,126.7366293
[군산 구불길] 구불2길 햇빛길,전북 군산시,063-454-3303,['레포츠'],https://cdn.visitkorea.or.kr/img/call?cmd=VIEW&id=bb926bf1-1ffc-44c0-9153-68d204cc8c5a&thumb,전라북도 군산시 나포면 나포리,36.0491186,126.86009009999998
[군산 구불길] 구불3길 큰들길,전북 군산시,063-454-3303,['레포츠'],https://cdn.visitkorea.or.kr/img/call?cmd=VIEW&id=undefined&thumb,전라북도 군산시 성산면 깐치멀1길 27-1,35.977922,126.82278740000001
[군산 구불길] 구불4길 구슬뫼길,전북 군산시,063-454-3303,['레포츠'],https://cdn.visitkorea.or.kr/img/call?cmd=VIEW&id=6e422ead-6d3e-449b-9f34-417a4211e8f2&thumb,전라북도 군산시 옥산면 남내리,35.9373896,126.76446200000001
[변산 마실길 1코스] 조개미 패총길,전북 부안군,063-580-4522,"['걷기길', '걷기여행길', '걷기좋은길', '걷기코스', '레포츠', '변산마실길', '변산마실길']",https://cdn.visitkorea.or.kr/img/call?cmd=VIEW&id=8d831b23-c063-46b2-98a0-2f2c1692f0d7&thumb,전라북도 부안군 변산면,35.6634849,126.5284868
[변산 마실길 2코스] 노루목 상사화길,전북 부안군,063-580-4522,"['걷기여행길', '걷기여행데이트코스', '걷기좋은곳', '걷기좋은길', '걷기코스']",https://cdn.visitkorea.or.kr/img/call?cmd=VIEW&id=2031abf0-b419-432b-9772-bd1340715af5&thumb,전라북도 부안군 변산면,35.6634849,126.5284868
[변산 마실길 3코스] 적벽강 노을길,전북 부안군,063-580-4522,"['걷기길', '걷기여행', '걷기여행길', '걷기여행데이트코스', '걷기좋은곳', '레포츠']",https://cdn.visitkorea.or.kr/img/call?cmd=VIEW&id=73aca8e6-8122-4239-9a07-0363e3d3a595&thumb,전라북도 부안군 변산면,35.6634849,126.5284868
[익산 둘레길] 함라산길,전북 익산시,063-859-5438,['레포츠'],https://cdn.visitkorea.or.kr/img/call?cmd=VIEW&id=98899e6a-e095-4ef6-83ee-3e0988cd2fae&thumb,전라북도 익산시 함라면 수동길 8,36.0612814,126.9105952
[지리산 둘레길 코스] 운봉~인월,전북 남원시,063-635-0850,['레포츠'],https://cdn.visitkorea.or.kr/img/call?cmd=VIEW&id=7819499d-0429-4b27-bbf6-eb6fd5a3ff6a&thumb,전라북도 남원시 인월면 인월2길 95,35.45907879999999,127.6060085
[지리산 둘레길 코스] 인월~금계,전북 남원시,063-635-0850,"['걷기길', '레포츠', '전라권', '지리산둘레길코스']",https://cdn.visitkorea.or.kr/img/call?cmd=VIEW&id=56bcf2d0-bb8b-4603-9846-9cf9df51910b&thumb,전라북도 남원시 인월면 인월2길 95,35.45907879999999,127.6060085
[지리산 둘레길 코스] 주천~운봉,전북 남원시,063-625-8952,['레포츠'],https://cdn.visitkorea.or.kr/img/call?cmd=VIEW&id=5b365835-65e6-4a69-9d1c-c648b83b0179&thumb,전라북도 남원시 주천면 정령치로,35.3864691,127.4773485
k2스키클럽,전북 무주군,2 063-322-3966,"['k2스키클럽', '겨울스포츠', '레포츠', '복합레저스포츠', '스키', '스키대여', '스키렌탈']",https://cdn.visitkorea.or.kr/img/call?cmd=VIEW&id=ef02c064-5195-47d2-8b0c-c25d93f213fd&thumb,전라북도 무주군 설천면 만선로 63,35.90749779999999,127.75570320000001
ok스키샵,전북 무주군,063-322-2218,"['ok스키샵', '겨울스포츠', '레포츠', '복합레저스포츠', '스키', '스키대여', '스키렌탈']",https://cdn.visitkorea.or.kr/img/call?cmd=VIEW&id=95d48fb0-6021-46be-80a8-f4b456a3bbc3&thumb,전라북도 무주군 설천면 내배방길 6,35.91151160000001,127.75802639999999
가마소계곡,전북 부안군,063-580-3702,"['관광지', '자연']",https://cdn.visitkorea.or.kr/img/call?cmd=VIEW&id=74d1a680-a2fe-4357-b13d-0bdf64e19933&thumb,전라북도 부안군 상서면 청림리,35.6565133,126.6209965
가인 김병로 생가터,전북 순창군,063-650-1623,"['관광지', '역사', '역사관광지', '역사를품은곳', '역사문화재', '역사속', '역사속으로']",https://cdn.visitkorea.or.kr/img/call?cmd=VIEW&id=01d9d975-aa95-4c7e-a981-20ccfb643493&thumb,전라북도 순창군 복흥면 하리길 160,35.450595,126.97736210000001
간재선생유지,전북 부안군,063-580-4711,"['관광지', '역사', '역사공부', '역사관광지', '역사를품은곳', '역사문화재', '역사속']",https://cdn.visitkorea.or.kr/img/call?cmd=VIEW&id=9617c8b7-9d43-4dc2-98cc-dcdeec49147e&thumb,전라북도 부안군 계화면 양지길 12,35.7941363,126.6371601
갈거계곡,전북 진안군,063-430-2651,"['갈거계곡', '계곡', '관광지', '단풍여행', '자연', '전라권']",https://cdn.visitkorea.or.kr/img/call?cmd=VIEW&id=b9010ebb-c04b-44e8-95c3-5d18726a5341&thumb,전라북도 진안군 정천면 휴양림길 77,35.8947554,127.42575409999999
갑오동학혁명 100주년 기념탑,전북 정읍시,063-539-5773,"['관광지', '역사공부', '역사관광지', '역사를품은곳', '역사문화재', '역사속', '역사속으로']",https://cdn.visitkorea.or.kr/img/call?cmd=VIEW&id=6270bc25-99f1-4855-9477-2966797a1cb6&thumb,전라북도 정읍시 내장호반로 214,35.49964620000001,126.9170929
강산에스키샵,전북 무주군,063-322-9877,"['겨울스포츠', '레포츠', '복합레저스포츠', '스키대여', '스키렌탈', '스키샵', '익스트림스포츠']",https://cdn.visitkorea.or.kr/img/call?cmd=VIEW&id=c45ae5d8-7821-4471-bb9f-7892507124a7&thumb,전라북도 무주군 설천면 구천동로 1077,35.9089428,127.7593515
강암서예관,전북 전주시,063-285-7442,"['강암서예관', '문화시설', '전라권', '전시관']",https://cdn.visitkorea.or.kr/img/call?cmd=VIEW&id=f0447908-5b57-4fd9-ad23-9b566e16a611&thumb,전라북도 전주시 완산구 전주천동로 74,35.81128084,127.1524752
강증산 탄생지,전북 정읍시,063-539-5184,"['관광지', '역사', '역사공부', '역사관광지', '역사를품은곳', '역사문화재', '역사속']",https://cdn.visitkorea.or.kr/img/call?cmd=VIEW&id=32406678-ba5c-40b5-bcf8-40ea50a7d23c&thumb,전라북도 정읍시 덕천면 신송길 34-2,35.630694,126.84134009999998
강천사 모과나무,전북 순창군,063-652-5420,"['강천사모과나무', '관광지', '자연', '전라권', '전라북도기념물']",https://cdn.visitkorea.or.kr/img/call?cmd=VIEW&id=aa7e7365-4ac1-4c0e-b7a7-64ddd61007fb&thumb,전라북도 순창군 팔덕면 강천산길 270,35.398638,127.05569709999999
강천사(순창),전북 순창군,063-652-5420,"['가족여행', '강천사', '관광지', '교과서속여행', '불교', '불교사찰', '사찰', '사찰&산사']",https://cdn.visitkorea.or.kr/img/call?cmd=VIEW&id=4ad298ea-588c-4aeb-8b25-759043427b96&thumb,전라북도 순창군 팔덕면 강천산길 270,35.398638,127.05569709999999
강천사계곡,전북 순창군,063-650-1672,"['가족과함께', '강천사', '관광지', '순창가볼만한곳', '아이와함께', '여름피서지']",https://cdn.visitkorea.or.kr/img/call?cmd=VIEW&id=c56cd279-cfbf-4c98-adb4-556804d086b8&thumb,전북 순창군 팔덕면,35.391576,127.0971321
강천산 군립공원,전북 순창군,063-650-1672,"['가족여행', '강천산군립공원', '관광지', '꽃여행', '등산', '등산로', '아이와함께']",https://cdn.visitkorea.or.kr/img/call?cmd=VIEW&id=a2fa91a8-0913-43d7-9f80-2d7dcdbae6b3&thumb,전라북도 순창군 팔덕면 강천산길 97,35.4087639,127.06752469999999
강천산계곡,전북 순창군,063-650-1533,"['강천산계곡', '계곡', '관광지', '자연', '전라권', '피서']",https://cdn.visitkorea.or.kr/img/call?cmd=VIEW&id=4599c616-7399-44ab-897a-a799a344bcf7&thumb,전북 순창군 팔덕면 청계리,35.4071696,127.0687011
강천산휴양농원,전북 순창군,063-652-2552,"['가족여행', '강천산휴양농원', '관광지', '자연여행', '자연좋은곳', '자연풍경']",https://cdn.visitkorea.or.kr/img/call?cmd=VIEW&id=17ce28af-fafc-417c-84c8-1d0e610f9c3f&thumb,전라북도 순창군 구림면 강천로 854-23,35.4276018,127.06280249999999
개령암지 마애불상군,전북 남원시,063-620-6172,"['개령암지마애불상군', '관광지', '보물', '불상', '역사', '역사공부', '역사관광지']",https://cdn.visitkorea.or.kr/img/call?cmd=VIEW&id=ef4c1550-d4aa-4202-b475-b9aef9456416&thumb,전라북도 남원시 산내면 정령치로 1523,35.36385739999999,127.5220679
개암사,전북 부안군,063-583-3871,"['관광지', '불교문화', '불교사찰', '사찰', '사찰여행', '역사', '역사공부', '역사관광']",https://cdn.visitkorea.or.kr/img/call?cmd=VIEW&id=37722be7-4c74-4ce2-a400-4310eeef2398&thumb,전라북도 부안군 상서면 개암로 248,35.662564,126.64969609999999
격포마을,전북 부안군,063-582-8747,"['관광지', '자연']",https://cdn.visitkorea.or.kr/img/call?cmd=VIEW&id=a95b1552-7f0f-4402-92fe-fd8f2b018d11&thumb,전북 부안군 변산면 격포리,35.6126119,126.46991820000001
격포방파제낚시,전북 부안군,063-580-4434,"['레포츠', '바다낚시', '부안낚시', '부안바다낚시', '전북권']",https://cdn.visitkorea.or.kr/img/call?cmd=VIEW&id=f2047095-3f3e-4bf9-910f-9fc4a4022233&thumb,전라북도 부안군 변산면 방파제길,35.6251571,126.47071709999999
격포항,전북 부안군,063-580-4434,"['격포항', '관광지', '자연', '전라권', '풍경좋은곳']",https://cdn.visitkorea.or.kr/img/call?cmd=VIEW&id=df94d3a0-afae-4cef-afaa-de43fe54ba6c&thumb,전북 부안군 변산면 격포리,35.6126119,126.46991820000001
격포항 수산시장,전북 부안군,063-581-0877,"['가족여행', '격포항수산시장', '기차여행', '나들이', '나홀로여행', '데이트코스']",https://cdn.visitkorea.or.kr/img/call?cmd=VIEW&id=b93819c6-0582-4a9d-b3cc-37abfba37263&thumb,전라북도 부안군 변산면 격포중앙길 28-4,35.62216049,126.4703538
격포해변,전북 부안군,063-580-4739,"['가족여행', '격포해변', '관광지', '바다풍경', '아이와함께', '여름방학가볼만한곳']",https://cdn.visitkorea.or.kr/img/call?cmd=VIEW&id=56ddfb0f-41b8-4971-9db2-b9a0f75f07de&thumb,전라북도 부안군 변산면 변산해변로 29-14,35.629870600000004,126.4701193
견두산,전북 남원시,063-632-1330,"['견두산', '경치좋은곳', '관광지', '등산', '등산로', '봄꽃여행', '자연', '자연좋은곳']",https://cdn.visitkorea.or.kr/img/call?cmd=VIEW&id=2f07d825-2235-4895-b92c-dd6440e2b79a&thumb,전라북도 남원시 수지면 고평리,35.3473662,127.40045819999999
경각산,전북 완주군,063-290-3930,"['관광지', '자연']",https://cdn.visitkorea.or.kr/img/call?cmd=VIEW&id=undefined&thumb,전라북도 완주군 구이면 광곡리,35.7437151,127.1721739
경기전,전북 전주시,063-281-2790,"['가족여행', '가족체험여행', '경기전', '관광지', '사계절', '아이와함께', '역사']",https://cdn.visitkorea.or.kr/img/call?cmd=VIEW&id=5839426b-45a9-44e9-aa19-840024d9c427&thumb,전라북도 전주시 완산구 태조로 44,35.8153146,127.14975690000001
경암동 철길마을,전북 군산시,063-453-4986,"['가족과함께', '감성사진', '경암동철길마을', '관광지', '남녀노소', '부모님과함께']",https://cdn.visitkorea.or.kr/img/call?cmd=VIEW&id=dc206849-634d-4d7e-9a33-62526e3286c8&thumb,전라북도 군산시 경촌4길 14,35.981279799999996,126.73637590000001
경옥봉,전북 완주군,063-290-3935,"['관광지', '자연']",https://cdn.visitkorea.or.kr/img/call?cmd=VIEW&id=null&thumb,전라북도 완주군 동상면 대아수목로,35.9876651,127.31506
계산서원,전북 고창군,063-560-2943,"['계산서원', '관광지', '교과서속여행', '서원', '역사', '역사공부', '역사관광지']",https://cdn.visitkorea.or.kr/img/call?cmd=VIEW&id=a2717122-0eb3-4001-a287-108bb4b2ee25&thumb,전라북도 고창군 상하면 상라길 117,35.4561091,126.5043511
계양서원,전북 부안군,063-580-4711,"['관광지', '역사', '역사공부', '역사관광지', '역사를품은곳', '역사문화재', '역사속']",https://cdn.visitkorea.or.kr/img/call?cmd=VIEW&id=undefined&thumb,전라북도 부안군 계화면 양지길 12,35.7941363,126.6371601
계화도,전북 부안군,063-580-4434,"['관광지', '부안여행', '자연', '자연여행', '자연좋은곳', '자연풍경', '자연환경']",https://cdn.visitkorea.or.kr/img/call?cmd=VIEW&id=219244d4-e743-440f-8c92-754e27783972&thumb,전라북도 부안군 계화면,35.761668,126.69809690000001
고군산군도,전북 군산시,063 -465-5186,"['고군산군도', '낚시체험', '낚시터', '레포츠', '전북권']",https://cdn.visitkorea.or.kr/img/call?cmd=VIEW&id=a45bdd7a-9d27-47ed-9754-791db893795e&thumb,전라북도 군산시 옥도면,35.67096220000001,126.49654109999999
고리봉,전북 남원시,055-972-7771,"['관광지', '자연']",https://cdn.visitkorea.or.kr/img/call?cmd=VIEW&id=null&thumb,전라북도 남원시 대강면 강석리,35.3624175,127.22937569999999
고림사,전북 진안군,063-432-0159,"['관광지', '불교', '불교문화', '사찰', '사찰여행', '역사', '자연속으로', '자연환경']",https://cdn.visitkorea.or.kr/img/call?cmd=VIEW&id=0c0512e2-bf38-4a75-beae-8b549cb070fe&thumb,전라북도 진안군 진안읍 상역로 174-96,35.807233200000006,127.40419299999999
고부구읍성,전북 정읍시,063-539-5181,"['관광지', '역사', '역사공부', '역사관광지', '역사를품은곳', '역사문화재', '역사속']",https://cdn.visitkorea.or.kr/img/call?cmd=VIEW&id=65338a31-dc61-4663-a793-222cda60d084&thumb,전라북도 정읍시 고부면 고부리,35.6174244,126.7708889
고부향교,전북 정읍시,063-539-5184,"['고부향교', '관광지', '문화재', '역사', '역사공부', '역사관광지', '역사를품은곳']",https://cdn.visitkorea.or.kr/img/call?cmd=VIEW&id=57b6a0b0-4ed4-4dd8-b788-d75588e54399&thumb,전라북도 정읍시 고부면 교동4길 18,35.621598299999995,126.7710659
고사포해수욕장,전북 부안군,063-580-4413,"['가족과함께', '고사포해수욕장', '관광지', '바다풍경', '여름피서지', '자연', '자연속으로']",https://cdn.visitkorea.or.kr/img/call?cmd=VIEW&id=5d6c8c4b-b98f-4697-bdf1-a17754634061&thumb,전라북도 부안군 변산면 노루목길 8-8,35.66389229999999,126.5104403
고산,전북 고창군,063-560-2603,"['가족여행', '고산', '관광지', '남녀노소', '산', '산책하기좋은곳', '자연', '자연속으로']",https://cdn.visitkorea.or.kr/img/call?cmd=VIEW&id=ddd72553-8daf-4eb3-9b0e-942bc3c0987d&thumb,전라북도 고창군 대산면,35.34103629999999,126.603426
"고산미소시장/고산시장 (4, 9일)",전북 완주군,063-262-0119,"['가족여행', '고산정기시장', '나들이', '나홀로여행', '먹거리', '쇼핑', '시장맛집']",https://cdn.visitkorea.or.kr/img/call?cmd=VIEW&id=539107ee-ab7b-44d9-b504-cab8b445b663&thumb,전라북도 완주군 고산면 남봉로 134,35.97407542,127.20541229999999
고산자연휴양림,전북 완주군,063-263-8680,"['가족여행', '고산자연휴양림', '관광지', '숲치유', '아이와함께', '연인과함께']",https://cdn.visitkorea.or.kr/img/call?cmd=VIEW&id=d77544f8-02a1-4285-882c-4cbc12af7957&thumb,전라북도 완주군 고산면 고산휴양림로 246,35.959666600000006,127.2355162
고산향교,전북 완주군,063-290-2605,"['고산향교', '고산향교대성전', '관광지', '역사', '역사공부', '역사관광지', '역사를품은곳']",https://cdn.visitkorea.or.kr/img/call?cmd=VIEW&id=683a1823-005d-4923-9894-fe5ae07fa3f9&thumb,전라북도 완주군 고산면 고산로 147-27,35.976068100000006,127.2138547
고산향교대성전,전북 완주군,063-290-2605,"['관광지', '역사', '역사공부', '역사관광지', '역사를품은곳', '역사문화재', '역사속']",https://cdn.visitkorea.or.kr/img/call?cmd=VIEW&id=d8080e26-651f-436d-9713-951d2e0b3315&thumb,전라북도 완주군 고산면 고산로 147-23,35.976068100000006,127.2138547
고스락,전북 익산시,063-861-2288,"['가족과함께', '가족체험', '관광지', '교육여행', '교육프로그램', '아이와함께']",https://cdn.visitkorea.or.kr/img/call?cmd=VIEW&id=abcd8d65-3764-4462-b25c-a41fae18805d&thumb,전라북도 익산시 함열읍 익산대로 1424-14,36.046271000000004,126.9596013
고암서원,전북 정읍시,063-539-5184,"['관광지', '역사', '역사공부', '역사관광지', '역사를품은곳', '역사문화재', '역사속']",https://cdn.visitkorea.or.kr/img/call?cmd=VIEW&id=9e641f22-2ba7-4d2f-a3a2-5743a19688fe&thumb,전라북도 정읍시 모촌길 48-17,35.5710954,126.8231769
고창 고색창연마을 [농촌전통테마],전북 고창군,063-560-8481,"['관광지', '농촌마을', '농촌여행', '농촌체험', '자연여행', '자연좋은곳', '자연환경']",https://cdn.visitkorea.or.kr/img/call?cmd=VIEW&id=da97feb0-c54f-4572-b8c5-d78777fbb59e&thumb,전라북도 고창군 신림면 가평1길 65,35.4779383,126.74169270000002
고창 고인돌 유적 [유네스코 세계문화유산],전북 고창군,063-560-8666,"['가족여행', '고창가볼만한곳', '고창고인돌유적', '관광지', '교과서속여행', '아이와함께']",https://cdn.visitkorea.or.kr/img/call?cmd=VIEW&id=93dc7d20-29ef-4fbf-882f-5dda6f7a330b&thumb,전라북도 고창군 고창읍 고인돌공원길 74,35.441720399999994,126.6514473
고창 무장 동학농민혁명 기포지,전북 고창군,063-560-8055,"['관광지', '교과서속여행', '동학농민혁명기포지', '아이와함께', '역사', '역사공부']",https://cdn.visitkorea.or.kr/img/call?cmd=VIEW&id=9c63bf73-dbad-4880-a3ba-cb736f3cdecd&thumb,전라북도 고창군 공음면 구암리,35.401839100000004,126.506708
고창 무장객사,전북 고창군,063-560-2943,"['관광지', '교과서속여행', '무장객사', '역사', '역사공부', '역사관광지', '역사를품은곳']",https://cdn.visitkorea.or.kr/img/call?cmd=VIEW&id=0c5f8c3d-e20d-4589-848d-fba78182694d&thumb,전라북도 고창군 무장면 무장읍성길 45,35.418232700000004,126.5574379
고창 무장현 관아와 읍성,전북 고창군,063-560-2943,"['가족여행', '고창무장현관아와읍성', '관광지', '사적', '역사', '역사공부', '역사관광지']",https://cdn.visitkorea.or.kr/img/call?cmd=VIEW&id=328cc8bf-6b72-44cf-be73-45a0daa6212c&thumb,전라북도 고창군 무장면 무장읍성길 45,35.418232700000004,126.5574379
고창 분청사기요지,전북 고창군,063-560-2943,"['관광지', '역사', '역사공부', '역사를품은곳', '역사문화재', '역사속', '역사속으로']",https://cdn.visitkorea.or.kr/img/call?cmd=VIEW&id=278ec66c-cfb8-4ac7-b49c-1479adf59bd8&thumb,전라북도 고창군 부안면 수동리,35.53636289999999,126.6654178
고창갯벌 (전북 서해안권 국가지질공원),전북 고창군,063-560-2638,"['갯벌체험', '관광지', '국가지질공원', '바다내음', '이색체험', '자연', '자연관광지']",https://cdn.visitkorea.or.kr/img/call?cmd=VIEW&id=5d73ee74-d3a1-403a-bf2b-d81344930296&thumb,전라북도 고창군 심원면 만돌리,35.5269836,126.5191827
고창고인돌박물관,전북 고창군,063-560-8666,"['겨울방학가볼만한곳', '고창고인돌박물관', '교과서속여행', '문화시설', '미세먼지_피하는_실내여행']",https://cdn.visitkorea.or.kr/img/call?cmd=VIEW&id=f283b3be-ce20-402b-bb8c-cf94d91915d6&thumb,전라북도 고창군 고창읍 고인돌공원길 74,35.44169795,126.6524975
고창문화원,전북 고창군,063-564-2340,"['가족여행', '고창문화원', '기차여행', '나들이', '마을축제', '문화시설', '복합문화공간']",https://cdn.visitkorea.or.kr/img/call?cmd=VIEW&id=a9c2b711-2c2b-448a-9df1-be46002a96d0&thumb,전라북도 고창군 고창읍 천변북로 119,35.43444094,126.7053394
고창문화의전당,전북 고창군,063-560-8041,"['고창문화의전당', '데이트코스', '문화공간', '문화시설', '문화행사', '복합문화공간']",https://cdn.visitkorea.or.kr/img/call?cmd=VIEW&id=a0fc2db0-ecd5-4a7f-a24a-de432f77ce53&thumb,전라북도 고창군 고창읍 모양성로 11,35.43338075,126.7045756
고창선사문화탐방로1,전북 고창군,063-560-2874,"['갯벌습지', '걷기길', '고인돌유적지', '고창갯벌습지', '고창고인돌유적지', '고창읍성']",https://cdn.visitkorea.or.kr/img/call?cmd=VIEW&id=7625c8ac-e2c1-4db0-ae9d-2ea0a101fc8a&thumb,전라북도 고창군 고창읍 고인돌공원길 74,35.441720399999994,126.6514473
고창선사문화탐방로2,전북 고창군,063-560-2875,"['걷기길', '고창갯벌습지', '고창읍성', '고창읍성', '고창인돌유적지', '관광지']",https://cdn.visitkorea.or.kr/img/call?cmd=VIEW&id=6707b06b-b073-4ce8-b91a-e2a88ba1cb7d&thumb,전라북도 고창군 고창읍 고인돌공원길 75,35.441720399999994,126.6514473
고창선사문화탐방로3,전북 고창군,063-560-2876,"['걷기길', '고창갯벌습지', '고창읍성', '고창인돌유적지', '관광지', '생태관광']",https://cdn.visitkorea.or.kr/img/call?cmd=VIEW&id=0d13f29b-f3f7-441d-a3d9-94fb5c66878b&thumb,전라북도 고창군 고창읍 고인돌공원길 75,35.441720399999994,126.6514473
고창신재효고택,전북 고창군,063-560-2943,"['가족여행', '관광지', '국가민속문화재', '신재효고택', '역사', '역사공부', '역사관광지']",https://cdn.visitkorea.or.kr/img/call?cmd=VIEW&id=e71f8f91-4ad6-4b44-b3b3-824698be82c9&thumb,전라북도 고창군 고창읍 동리로 100,35.432367799999994,126.7028072
고창오거리당산,전북 고창군,063-560-2943,"['고창오거리당산', '관광지', '교과서속여행', '문화재', '역사', '역사공부', '역사관광지']",https://cdn.visitkorea.or.kr/img/call?cmd=VIEW&id=97ebed54-55be-454c-9e82-959bfb407ec4&thumb,전라북도 고창군 고창읍 읍내리 584-6,35.433499,126.6961969
고창옹기,전북 고창군,063-562-0101,"['쇼핑', '옹기', '용기', '항아리']",https://cdn.visitkorea.or.kr/img/call?cmd=VIEW&id=e2064ce1-a660-43bd-8d6a-ca281c5563b0&thumb,전라북도 고창군 고수면 장암길 20,35.40255446,126.66862749999999
고창읍성,전북 고창군,063-560-8067,"['가족여행', '고창읍성', '관광지', '교과서속여행', '아이와함께', '역사', '역사공부']",https://cdn.visitkorea.or.kr/img/call?cmd=VIEW&id=f8bdd5ee-943c-4731-ae03-e1eca5a7072a&thumb,전라북도 고창군 고창읍 모양성로 1,35.4304606,126.70448200000001
"고창장 (3, 8일)",전북 고창군,063-560-8100,"['가족여행', '고창장', '나들이', '나홀로여행', '먹거리', '쇼핑', '시장맛집', '아이와함께']",https://cdn.visitkorea.or.kr/img/call?cmd=VIEW&id=9c4e4204-7f05-41cf-a314-e201e0f56bc8&thumb,전라북도 고창군 고창읍 동산5길 24,35.43243658,126.71066119999999
고창전통자수전시판매장,전북 고창군,063-561-1887,"['고창전통자수전시판매장', '기념품판매', '쇼핑', '전라권']",https://cdn.visitkorea.or.kr/img/call?cmd=VIEW&id=1040b663-5e20-4136-be78-bab9a92483ef&thumb,전라북도 고창군 아산면 중촌길 4,35.5029721,126.5868023
고창컨트리클럽,전북 고창군,063-560-7744,"['고창가볼만한곳', '골프', '골프리조트', '골프장', '골프클럽', '남녀노소', '레저스포츠']",https://cdn.visitkorea.or.kr/img/call?cmd=VIEW&id=undefined&thumb,전라북도 고창군 심원면 애향갯벌로 70,35.51594940000001,126.50232350000002
고창판소리박물관,전북 고창군,063-560-8061,"['고창판소리박물관', '기차여행', '문화시설', '실내여행지', '아이와함께', '이색체험']",https://cdn.visitkorea.or.kr/img/call?cmd=VIEW&id=27ba5e61-ce19-4d5d-8abe-f79007f84a39&thumb,전라북도 고창군 고창읍 동리로 100,35.43237353,126.7026295
고창하전갯벌마을,전북 고창군,063-562-1978,"['가족여행', '고창하전갯벌마을', '관광지', '이색체험', '전라권', '체험', '체험학습']",https://cdn.visitkorea.or.kr/img/call?cmd=VIEW&id=300453a1-4818-4774-9a01-65e9b562c03e&thumb,전북 고창군 심원면 하전리,35.535014000000004,126.57078100000001
고창향교,전북 고창군,063-560-2943,"['관광지', '역사', '역사공부', '역사관광지', '역사를품은곳', '역사문화재', '역사속']",https://cdn.visitkorea.or.kr/img/call?cmd=VIEW&id=f239038b-75a7-4312-a371-3401508175d4&thumb,전라북도 고창군 고창읍 향교길 27-3,35.4375504,126.7026382
고홍건신도비,전북 부안군,063-580-4711,"['고홍건신도비', '관광지', '문화재', '역사', '역사공부', '역사관광지', '역사를품은곳']",https://cdn.visitkorea.or.kr/img/call?cmd=VIEW&id=67a7cb0b-9819-4dbe-9f70-a2247b4c9089&thumb,전라북도 부안군 하서면 석불산길 138,35.72669439999999,126.6418513
곰소염전,전북 부안군,063-581-5114,"['경치좋은곳', '곰소염전', '관광지', '교육여행', '바다내음', '부안군', '부안당일코스']",https://cdn.visitkorea.or.kr/img/call?cmd=VIEW&id=8b3fb225-5a82-486e-9e7d-ddb8620dfaf7&thumb,전라북도 부안군 진서면 진서리,35.605323999999996,126.614309
곰소젓갈단지 (구시장),전북 부안군,063-580-4395 063-581-5114,"['가족여행', '곰소젓갈단지', '나홀로여행', '쇼핑', '아이와함께', '연인과함께']",https://cdn.visitkorea.or.kr/img/call?cmd=VIEW&id=c584e450-2fa7-4ce6-b16b-56b954ed549c&thumb,전라북도 부안군 진서면 곰소항길 22-11,35.58717176,126.6031147
곰소항,전북 부안군,063-580-4434,"['관광지', '자연']",https://cdn.visitkorea.or.kr/img/call?cmd=VIEW&id=cebb129d-9e8b-4390-807e-19ec704688a5&thumb,전라북도 부안군 진서면 곰소리,35.593189200000005,126.60870349999999
관곡서원,전북 임실군,063-640-2312,"['관광지', '역사', '역사공부', '역사관광지', '역사를품은곳', '역사문화재', '역사속']",https://cdn.visitkorea.or.kr/img/call?cmd=VIEW&id=0a8caee4-e63c-4023-943a-4431e436fec3&thumb,전라북도 임실군 지사면 관기1길 32-7,35.5970936,127.35989380000001
관곡서원 소장 전적 및 고문서,전북 임실군,063-640-2312,"['관곡서원소장전적및고문서', '관광지', '역사', '역사공부', '역사관광지', '역사를품은곳']",https://cdn.visitkorea.or.kr/img/call?cmd=VIEW&id=3cce54e2-44be-43bc-af56-dd854f52ed6a&thumb,전라북도 임실군 지사면 관기1길 32-7,35.5970936,127.35989380000001
관성묘,전북 전주시,063-281-5361,"['관광지', '관성묘', '역사', '역사공부', '역사관광지', '역사를품은곳', '역사문화재']",https://cdn.visitkorea.or.kr/img/call?cmd=VIEW&id=94ebb8ed-8cc7-4d63-b948-ef50940e7e7c&thumb,전라북도 전주시 완산구 남고산성1길 159-9,35.796665600000004,127.16014150000001
관음봉,전북 부안군,063-582-7808,"['관광지', '자연']",https://cdn.visitkorea.or.kr/img/call?cmd=VIEW&id=undefined&thumb,전라북도 부안군 진서면 원암길,35.60877670000001,126.58355449999999
관음사(남원),전북 남원시,063-620-9201,"['관광지', '불교', '불교문화', '사찰', '사찰여행', '역사', '자연속으로', '자연환경']",https://cdn.visitkorea.or.kr/img/call?cmd=VIEW&id=null&thumb,전라북도 남원시 보절면 관음사길 82,35.477878100000005,127.41026240000001
관음사(무주),전북 무주군,063-324-7083,"['가족여행', '관광지', '관음사', '불교', '불교문화', '사찰', '사찰여행', '역사', '역사관광지']",https://cdn.visitkorea.or.kr/img/call?cmd=VIEW&id=8a269163-4999-47b2-870d-89faf6720d7d&thumb,전라북도 무주군 설천면 양지길 92-38,36.0003596,127.78539750000002
관응사(김제),전북 김제시,063-546-0048,"['관광지', '불교', '불교문화', '사찰', '사찰여행', '역사', '자연속으로', '자연환경']",https://cdn.visitkorea.or.kr/img/call?cmd=VIEW&id=29165051-b04b-4de7-922c-7bf1be67e2a9&thumb,전라북도 김제시 금구면 선비로 1354-42,35.789605200000004,127.05744709999999
"관촌시장 (5, 10일)",전북 임실군,063-643-5999,"['가족여행', '관촌시장', '나들이', '나홀로여행', '먹거리', '쇼핑', '시장맛집', '아이와함께']",https://cdn.visitkorea.or.kr/img/call?cmd=VIEW&id=612016fc-6313-4bef-9647-c05dfd812dc8&thumb,전라북도 임실군 관촌면 사선1길 70-3,35.67878053,127.26768009999999
광산스키,전북 무주군,063-322-4334,['레포츠'],https://cdn.visitkorea.or.kr/img/call?cmd=VIEW&id=79e9db67-2140-43e0-be1c-6727699648ce&thumb,전라북도 무주군 설천면 만선로 52,35.9084891,127.75520490000001
광제정,전북 임실군,063-640-2114,"['관광지', '역사', '역사공부', '역사관광지', '역사를품은곳', '역사문화재', '역사속']",https://cdn.visitkorea.or.kr/img/call?cmd=VIEW&id=fef9aa39-f7ea-4379-ad18-9212ffdef2f1&thumb,전라북도 임실군 삼계면 세심길 82,35.4935076,127.24446840000002
광한루,전북 남원시,063-620-6172,"['가족여행', '고궁', '관광지', '광한루', '교과서속여행', '사계절', '아이와함께']",https://cdn.visitkorea.or.kr/img/call?cmd=VIEW&id=8bf8fd58-5a47-4a86-8c60-d8134699b4f7&thumb,전라북도 남원시 요천로 1447,35.4032881,127.3794357
광한루원,전북 남원시,063-625-4861,"['가족여행', '관광지', '광한루원', '교과서속여행', '아이와함께', '역사', '역사유적지']",https://cdn.visitkorea.or.kr/img/call?cmd=VIEW&id=97d877ab-1ba4-46cd-9dbd-46a3ec2375dc&thumb,전라북도 남원시 요천로 1447,35.4032881,127.3794357
교룡산국민관광지,전북 남원시,063-633-5353,"['가족여행', '걷기길', '걷기여행', '관광지', '교룡산국민관광지', '등산', '등산로']",https://cdn.visitkorea.or.kr/img/call?cmd=VIEW&id=b694f0db-3fa4-43c2-9e6e-c79bb33433f5&thumb,전라북도 남원시 산성순환길 714,35.4279564,127.3643162
구 서도역,전북 남원시,063-634-8064,"['관광지', '남원가볼만한곳', '사진찍기', '사진찍기좋은곳', '사진촬영', '역사공부']",https://cdn.visitkorea.or.kr/img/call?cmd=VIEW&id=4f3b5aee-dba3-4c0e-9c95-5636b86fb2b3&thumb,전라북도 남원시 사매면 서도길 32,35.490728000000004,127.3293058
구담마을,전북 임실군,063-644-9051,"['가족체험', '관광지', '농촌', '농촌체험', '농촌체험학습', '아이와함께', '자연마을']",https://cdn.visitkorea.or.kr/img/call?cmd=VIEW&id=88c08460-a350-48ce-bc84-4cfd89f3e0b6&thumb,전라북도 임실군 덕치면 천담1길 49,35.4924412,127.19119769999999
구룡계곡,전북 남원시,055-972-1000,"['관광지', '자연']",https://cdn.visitkorea.or.kr/img/call?cmd=VIEW&id=008be9ef-b6ea-4531-96a1-51e1285a20e5&thumb,전라북도 남원시 주천면 구룡폭포길,35.395277,127.49657240000002
구봉산(진안),전북 진안군,063-430-2443,"['관광지', '구봉산', '등산', '자연', '전라권', '트레킹']",https://cdn.visitkorea.or.kr/img/call?cmd=VIEW&id=1551a6c7-4acb-4640-beda-e5ec9cb694c6&thumb,전북 진안군 주천면 운봉리,35.939485600000005,127.4254251
구산서원,전북 진안군,063-430-2382,"['관광지', '역사', '역사공부', '역사관광지', '역사를품은곳', '역사문화재', '역사속']",https://cdn.visitkorea.or.kr/img/call?cmd=VIEW&id=null&thumb,전라북도 진안군 마령면 임진로 2361-82,35.74552979999999,127.34553079999999
구송정 유원지,전북 순창군,063-650-5721,"['가족과함께', '관광지', '구송정유원지', '산책길', '산책하기', '산책하기좋은곳']",https://cdn.visitkorea.or.kr/img/call?cmd=VIEW&id=83fa37ff-5689-4ac2-944c-3eea7c4be17b&thumb,전라북도 순창군 동계면 서호길 48-12,35.4308342,127.2379409
구시포 해수찜월드,전북 고창군,063-561-3324,"['관광지', '구시포 해수찜월드', '목욕탕', '사우나', '찜질', '찜질방', '친구와함께']",https://cdn.visitkorea.or.kr/img/call?cmd=VIEW&id=a2e178c2-7277-4732-9840-36b831f48c35&thumb,전라북도 고창군 상하면 진암구시포로 540,35.4459359,126.4366761
구시포마을,전북 고창군,063-564-8232,"['관광지', '자연']",https://cdn.visitkorea.or.kr/img/call?cmd=VIEW&id=ab2b3d6f-e2f6-426c-afb2-432143aaffe2&thumb,전라북도 고창군 상하면 구시포해변길 150,35.4451803,126.4427175
구시포해수욕장,전북 고창군,063-560-2646,"['가족여행', '관광지', '구시포해수욕장', '바다풍경', '아이와함께', '여름방학가볼만한곳']",https://cdn.visitkorea.or.kr/img/call?cmd=VIEW&id=f64db16d-3250-4d2a-b5fc-2a6bd3659e33&thumb,전라북도 고창군 상하면 자룡리,35.4403206,126.441601
구암동산,전북 군산시,063-453-4986,"['3·1운동', '관광지', '구암공원', '구암교회', '독립운동', '역사', '역사공부', '역사관광지']",https://cdn.visitkorea.or.kr/img/call?cmd=VIEW&id=undefined&thumb,전라북도 군산시 영명길 29,35.9863334,126.74207279999999
구암사(순창),전북 순창군,063-653-7641,"['관광지', '불교', '불교문화', '사찰', '사찰여행', '역사', '자연속으로', '자연환경']",https://cdn.visitkorea.or.kr/img/call?cmd=VIEW&id=f3234480-b564-42aa-928e-b2420dd57681&thumb,전라북도 순창군 복흥면 봉덕길 131-144,35.4554721,126.8859884
구암서원,전북 김제시,063-540-3882,"['관광지', '역사', '역사공부', '역사관광지', '역사를품은곳', '역사문화재', '역사속']",https://cdn.visitkorea.or.kr/img/call?cmd=VIEW&id=b75bcd59-ecc7-413a-9423-d2f27ab2f58e&thumb,전라북도 김제시 용지면 용지로 443-16,35.8528899,126.95416709999999
구암정,전북 순창군,063-650-1623,"['관광지', '역사', '역사공부', '역사관광지', '역사를품은곳', '역사문화재', '역사속']",https://cdn.visitkorea.or.kr/img/call?cmd=VIEW&id=a7632043-5336-4a8e-9810-048dc0bce530&thumb,전라북도 순창군 동계면 구미리,35.4450122,127.2146977
구장군폭포,전북 순창군,063-650-1672 063-650-1648,"['관광지', '자연']",https://cdn.visitkorea.or.kr/img/call?cmd=VIEW&id=02419641-759d-45e0-b679-bbb0c8f8d53d&thumb,전북 순창군 팔덕면 청계리,35.4071696,127.0687011
구천동계곡,전북 무주군,063-322-3174,"['겨울방학가볼만한곳', '관광지', '구천동계곡', '눈꽃&설경여행', '단풍여행']",https://cdn.visitkorea.or.kr/img/call?cmd=VIEW&id=90e4e809-4e0d-4056-95ea-b1faf6302bf7&thumb,전라북도 무주군 설천면 구천동1로 159,35.900655900000004,127.7751251
구파백정기의사기념관,전북 정읍시,063-539-5237,"['교과서속여행', '구파백정기의사기념관', '기념관', '문화시설', '아이와함께']",https://cdn.visitkorea.or.kr/img/call?cmd=VIEW&id=8f7c7e5a-34f7-476d-9f95-7afa62743656&thumb,전라북도 정읍시 영원면 영원로 1049,35.65219943,126.7832391
국가대표,전북 무주군,063-322-6655,"['겨울스포츠', '레포츠', '복합레저스포츠', '스키대여', '스키렌탈', '스키샵', '익스트림스포츠']",https://cdn.visitkorea.or.kr/img/call?cmd=VIEW&id=1d0e1fd6-85b8-4c7a-9086-3085493080ba&thumb,전라북도 무주군 설천면 구천동로 1101,35.9111059,127.7593007
국립 덕유산자연휴양림,전북 무주군,063-322-1097,"['관광지', '자연', '자연관광지', '자연속으로', '자연여행', '자연좋은곳', '자연풍경']",https://cdn.visitkorea.or.kr/img/call?cmd=VIEW&id=77866397-fbb3-4f88-bd9b-dc97e05d8177&thumb,전라북도 무주군 무풍면 구천동로 530-62,35.907490700000004,127.81471200000001
국립 운장산자연휴양림,전북 진안군,063-432-1193,"['관광지', '국립운장산자연휴양림', '등산', '자연', '자연좋은곳', '전라권', '휴양여행']",https://cdn.visitkorea.or.kr/img/call?cmd=VIEW&id=e4a0f693-ab49-4d4d-8a35-b26d09ec512e&thumb,전라북도 진안군 정천면 휴양림길 77,35.8947554,127.42575409999999
국립 회문산자연휴양림,전북 순창군,063-653-4779,"['관광지', '국립회문산자연휴양림', '아이와함께', '자연', '자연좋은곳', '전라권']",https://cdn.visitkorea.or.kr/img/call?cmd=VIEW&id=a091fbc0-af8d-4b64-b748-d8d94e28c30b&thumb,전라북도 순창군 구림면 안심길 249,35.498918200000006,127.11810290000001
국립군산대학교 박물관,전북 군산시,063-469-4191,"['가족여행', '국립군산대학교박물관', '기차여행', '문화시설', '박물관', '아이와함께']",https://cdn.visitkorea.or.kr/img/call?cmd=VIEW&id=7c245122-21b5-4e01-9256-616155c8dfef&thumb,전라북도 군산시 대학로 558,35.95034571,126.6803568
국립민속국악원,전북 남원시,063-620-2324,"['가족여행', '공연장', '국립민속국악원', '나들이', '문화시설', '실내여행지', '아이와함께']",https://cdn.visitkorea.or.kr/img/call?cmd=VIEW&id=cdeffb34-2030-442e-ac98-a68ac5263bf4&thumb,전라북도 남원시 양림길 54,35.40160485,127.3914938
국립익산박물관,전북 익산시,063-830-0900,"['교과서속여행', '국립익산박물관', '문화시설', '박물관', '아이와함께', '역사공부']",https://cdn.visitkorea.or.kr/img/call?cmd=VIEW&id=b7c89dc5-5983-400e-9394-27981c7dc5df&thumb,전라북도 익산시 금마면 미륵사지로 362,36.01155117,127.0287139
국립임실호국원,전북 임실군,063-640-6081,"['관광지', '국립임실호국원', '기념관', '사계절', '아이와함께', '안보관광', '안보여행']",https://cdn.visitkorea.or.kr/img/call?cmd=VIEW&id=2f39c454-a7fa-4896-bd7d-0ff97c23b6f5&thumb,전라북도 임실군 강진면 호국로 420,35.5520602,127.19075590000001
국립전북기상과학관,전북 정읍시,063-538-0665,"['VR체험관', '과학관', '교육관광', '문화시설', '실내여행지', '아이와함께', '전북']",https://cdn.visitkorea.or.kr/img/call?cmd=VIEW&id=4b1582db-9789-4c10-b75e-02a407e69d23&thumb,전라북도 정읍시 서부산업도로 168-43,35.56380732,126.838225
국립전주박물관,전북 전주시,063-233-5651,"['교과서속여행', '국립전주박물관', '기차여행', '문화시설', '박물관', '실내여행지']",https://cdn.visitkorea.or.kr/img/call?cmd=VIEW&id=eb4d6ec2-bed2-4a0c-92b7-91f1d6ab1c0e&thumb,전라북도 전주시 완산구 쑥고개로 249,35.80103866,127.08837350000002
국립태권도원,전북 무주군,063-320-0114,"['19_20한국관광100선', '가족여행', '가족체험', '국립태권도원', '문화시설']",https://cdn.visitkorea.or.kr/img/call?cmd=VIEW&id=4afdf1ac-3157-4a11-bead-2946c43dc84d&thumb,전라북도 무주군 설천면 무설로 1482,36.00931149,127.7786624
국사봉(순창),전북 순창군,063-650-1648,"['관광지', '자연']",https://cdn.visitkorea.or.kr/img/call?cmd=VIEW&id=20b79117-50d9-4939-aab9-14ea0fd5a641&thumb,전라북도 순창군 쌍치면 국사봉로 308-75,35.525897,126.9811211
국사봉전망대,전북 임실군,,"['감성사진', '걷기', '경치좋은곳', '관광지', '사진찍기좋은곳', '산책코스', '산책하기좋은곳']",https://cdn.visitkorea.or.kr/img/call?cmd=VIEW&id=3e4132fe-2393-4570-aa31-68916fa445b1&thumb,전라북도 임실군 운암면 국사봉로 512,35.6402745,127.13797530000001
국악의 성지,전북 남원시,063-620-5743,"['가족과함께', '관광지', '교과서속여행', '국악의성지', '남원가볼만한곳', '무형문화재']",https://cdn.visitkorea.or.kr/img/call?cmd=VIEW&id=6fbffcdd-ef65-4b8f-a1ff-40e5b4949ea6&thumb,전라북도 남원시 운봉읍 비전길 69,35.4601672,127.56843880000001
군산 개정면 구 일본인농장 창고,전북 군산시,063-454-3923,"['건축', '건축여행', '관광지', '교과서속여행', '구일본인농장창고', '근대건축']",https://cdn.visitkorea.or.kr/img/call?cmd=VIEW&id=8b13a6bb-a136-4dd1-8968-24796757a66d&thumb,전라북도 군산시 개정면 바르메길 53-5,35.9591789,126.79756029999999
군산 공설시장,전북 군산시,063-445-4929,"['가족여행', '군산공설시장', '나들이', '나홀로여행', '먹거리', '쇼핑', '시장맛집']",https://cdn.visitkorea.or.kr/img/call?cmd=VIEW&id=f2cf5d68-6897-4004-a746-9e56b40db77e&thumb,전라북도 군산시 신금길 18,35.98317106,126.72032450000002
군산 발산리 석등,전북 군산시,063-454-3921,"['가족여행', '관광지', '군산발산리석등', '보물', '역사', '역사공부', '역사관광지']",https://cdn.visitkorea.or.kr/img/call?cmd=VIEW&id=a31f2889-982d-4c7b-8f3c-82b44dde53fa&thumb,전라북도 군산시 개정면 바르메길 43,35.959030299999995,126.79621780000001
군산 발산리 오층석탑,전북 군산시,063-454-3921,"['관광지', '역사', '역사공부', '역사관광지', '역사를품은곳', '역사문화재', '역사속']",https://cdn.visitkorea.or.kr/img/call?cmd=VIEW&id=5ad96d1a-ea2c-4731-be7b-9714ff11e900&thumb,전라북도 군산시 개정면 바르메길 43,35.959030299999995,126.79621780000001
군산 시간여행마을,전북 군산시,063-446-5114,"['관광지', '근대역사거리', '역사공부', '역사관광지', '역사를품은곳', '역사문화재']",https://cdn.visitkorea.or.kr/img/call?cmd=VIEW&id=1026babb-5d4f-4fbc-b2cf-93b84e4dc3a2&thumb,전라북도 군산시 내항1길 8,35.98862329999999,126.7181297
군산 신흥동 일본식가옥(히로쓰 가옥),전북 군산시,063-454-3921,"['관광지', '등록문화재', '신흥동일본식가옥', '역사', '역사관광지', '역사를품은곳']",https://cdn.visitkorea.or.kr/img/call?cmd=VIEW&id=1d68c6db-d83b-4929-a658-396b3d9c84b2&thumb,전라북도 군산시 구영1길 17,35.98622,126.70615249999999
군산 임피역사,전북 군산시,063-454-3923,"['관광지', '역사', '역사공부', '역사관광지', '역사를품은곳', '역사문화재', '역사속으로']",https://cdn.visitkorea.or.kr/img/call?cmd=VIEW&id=70e07f5a-17e7-4a04-82d0-c135cc3b0146&thumb,전라북도 군산시 임피면 서원석곡로 37,35.95400789999999,126.86392099999999
군산 해망굴,전북 군산시,063-453-4986,"['가족여행', '관광지', '군산당일코스', '군산해망굴', '등록문화재', '여름피서지']",https://cdn.visitkorea.or.kr/img/call?cmd=VIEW&id=54dd3afd-f5b6-44c2-96ec-0ce02bdedb55&thumb,전라북도 군산시 군산창2길 48,35.9912502,126.7048504
군산곤충체험학습농장,전북 군산시,063-451-1973,"['가족체험', '곤충박물관', '곤충생태관', '곤충생태원', '곤충연구소', '곤충체험학습']",https://cdn.visitkorea.or.kr/img/call?cmd=VIEW&id=6dcac802-ce89-4dab-b5ea-d35f788d220e&thumb,전라북도 군산시 나포면 뜰아름길 70,36.007895399999995,126.8218262
군산근대역사박물관,전북 군산시,063-454-5953,"['가족여행', '교과서속으로', '군산근대역사박물관', '근대문화유산', '문화시설']",https://cdn.visitkorea.or.kr/img/call?cmd=VIEW&id=94fc6e8f-a0d4-4a9c-925d-fd6ab7fb4e7d&thumb,전라북도 군산시 해망로 240,35.99081903,126.7119523
군산문화원,전북 군산시,063-451-2138,"['군산문화원', '문화시설', '열린문화공간', '친구와 함께']",https://cdn.visitkorea.or.kr/img/call?cmd=VIEW&id=20f462f7-c464-43eb-88a6-4bcfe6b33678&thumb,전라북도 군산시 대학로 330,35.96417343,126.6925897
군산수산물종합센터,전북 군산시,063-442-4822,"['가족여행', '군산수산물종합센터', '나들이', '나홀로여행', '데이트코스', '먹거리']",https://cdn.visitkorea.or.kr/img/call?cmd=VIEW&id=14c91104-2929-42ed-a040-255acd089b9f&thumb,전라북도 군산시 내항2길 216,35.99398528,126.70474180000001
군산컨트리클럽,전북 군산시,063-472-3355,"['골프', '골프리조트', '골프장', '골프클럽', '남녀노소', '레저스포츠', '레포츠']",https://cdn.visitkorea.or.kr/img/call?cmd=VIEW&id=c128aa5f-46bb-4d67-af11-c68fdae1afdc&thumb,전라북도 군산시 옥서면 남군산로 1685,35.8963408,126.6587262
군산항,전북 군산시,063-453-4986,"['관광지', '교과서속여행', '군산항', '바다풍경', '아이와함께', '역사', '연인과함께']",https://cdn.visitkorea.or.kr/img/call?cmd=VIEW&id=481a7c33-50fe-4de6-8852-76ef285ce6ea&thumb,전라북도 군산시 내항2길 45,35.9904032,126.7101385
권번문화예술원 예가인,전북 정읍시,063-532-1248,"['관광지', '전통', '전통&역사', '전통가옥', '전통고예', '전통공예', '전통놀이체험']",https://cdn.visitkorea.or.kr/img/call?cmd=VIEW&id=7131a8c8-e773-46d4-8e16-7f89c8338403&thumb,전라북도 정읍시 산외면 공동길 58,35.6173675,127.0199155
권희문가옥,전북 장수군,063-350-2326,"['관광지', '역사', '역사공부', '역사관광지', '역사를품은곳', '역사문화재', '역사속']",https://cdn.visitkorea.or.kr/img/call?cmd=VIEW&id=4f076f6a-d622-4da5-bd08-14f4b38606a8&thumb,전라북도 장수군 산서면 오메길 9,35.587531,127.3863888
귀래정(순창),전북 순창군,063-650-1623,"['관광지', '역사', '역사공부', '역사관광지', '역사를품은곳', '역사문화재', '역사속']",https://cdn.visitkorea.or.kr/img/call?cmd=VIEW&id=db51a697-81c3-4bc4-9489-a879a7401dda&thumb,전라북도 순창군 순창읍 가남리 산2-1,35.364399799999994,127.1387304
귀신사(김제),전북 김제시,063-548-0917,"['관광지', '불교', '불교문화', '불교사찰', '사찰', '사찰여행', '역사', '자연속으로']",https://cdn.visitkorea.or.kr/img/call?cmd=VIEW&id=7fb958ca-4511-4cbe-bb94-fc874e77d446&thumb,전라북도 김제시 금산면 청도6길 40,35.7455294,127.04703149999999
귀정사(남원),전북 남원시,063-626-0106,"['가족여행', '관광지', '귀정사', '불교', '불교문화', '사찰', '사찰&산사', '사찰여행']",https://cdn.visitkorea.or.kr/img/call?cmd=VIEW&id=56555cf0-04ce-4561-8493-ea0859f08f7c&thumb,전라북도 남원시 산동면 대상2길 246,35.512400899999996,127.45557920000002
그랜드스키타운,전북 무주군,063-322-5800,"['겨울스포츠', '레포츠', '복합레저스포츠', '스키대여', '스키렌탈', '스키샵', '익스트림스포츠']",https://cdn.visitkorea.or.kr/img/call?cmd=VIEW&id=ee747701-9a7b-461b-b2de-446db9d44559&thumb,전라북도 무주군 설천면 만선로 74-1,35.9065459,127.7552142
근대건축관 (구)조선은행군산지점,전북 군산시,063-454-3274,"['관광지', '구조선은행군산지점', '근대건축관', '근대문화유산', '아이와함께']",https://cdn.visitkorea.or.kr/img/call?cmd=VIEW&id=5ada2c2d-b693-457e-9214-cf91d73e1431&thumb,전라북도 군산시 해망로 214,35.989329600000005,126.71414490000001
근대미술관 (구)일본 제 18은행 군산지점,전북 군산시,063-446-9812,"['관광지', '구일본18은행군산지점', '근대문화유산', '근대미술관', '미술관', '아이와함께']",https://cdn.visitkorea.or.kr/img/call?cmd=VIEW&id=e84a62e1-861b-4f2a-9600-0bad8a83eef0&thumb,전라북도 군산시 해망로 230,35.9899833,126.71283020000001
금강,전북 장수군,063-350-2521,"['관광지', '자연']",https://cdn.visitkorea.or.kr/img/call?cmd=VIEW&id=55fbf693-af36-4fe3-a396-e40a1f458a91&thumb,전라북도 장수군 천천면 오리골길,35.784557799999995,127.52560509999999
금강래프팅,전북 무주군,063-322-1077,"['금강래프팅', '래프팅', '레포츠', '이색체험', '전북권']",https://cdn.visitkorea.or.kr/img/call?cmd=VIEW&id=undefined&thumb,전라북도 무주군 부남면 부남로 854,35.9711621,127.5599128
금강생태문화탐방로1,전북 군산시,063-467-9879,"['걷기길', '겨울방학가볼만한곳', '곰개나루관광지', '관광지', '군산', '금강유원지']",https://cdn.visitkorea.or.kr/img/call?cmd=VIEW&id=cfbbb340-78b2-4469-adc3-f480f5a5538d&thumb,전라북도 군산시 내흥2길 197,35.9985395,126.75952009999999
금강생태문화탐방로2,전북 군산시,063-467-9880,"['걷기길', '겨울방학가볼만한곳', '곰개나루관광지', '관광지', '군산', '금강유원지']",https://cdn.visitkorea.or.kr/img/call?cmd=VIEW&id=13084648-a15b-4f0f-ac79-bce84771a5e0&thumb,전라북도 군산시 나포면 철새로 987-1,36.0483722,126.8480648
금강철새조망대,전북 군산시,063-454-5680,"['가족여행', '가족체험여행', '관광지', '금강철새조망대', '아이와함께', '연인과함께']",https://cdn.visitkorea.or.kr/img/call?cmd=VIEW&id=584201e9-ef9e-453a-90e4-dbc0b670cb26&thumb,전라북도 군산시 성산면 철새로 120,36.0193906,126.76509640000002
금강하구둑(군산),전북 군산시,063-454-5683,"['가족과함께', '경치좋은곳', '관광지', '군산가볼만한곳', '금강', '금강하구둑']",https://cdn.visitkorea.or.kr/img/call?cmd=VIEW&id=ca2244ef-1fe0-46ae-b948-7ddf3d541b0c&thumb,전라북도 군산시 성산면 성덕리 411-1,36.0193906,126.76509640000002
금강호 관광지,전북 군산시,063-454-3337,"['가족여행', '걷기여행', '관광지', '금강호관광지', '남녀노소', '사계절', '아이가_좋아하는_여행']",https://cdn.visitkorea.or.kr/img/call?cmd=VIEW&id=4f3ef2a5-e24a-436e-9475-bf8159f0d8eb&thumb,전북 군산시 성산면 성덕리,36.0177549,126.7680125
금구원야외조각미술관,전북 부안군,063-584-6770,"['관광지', '금구원야외조각미술관', '남녀노소', '미술관', '복합문화공간', '아이와함께']",https://cdn.visitkorea.or.kr/img/call?cmd=VIEW&id=d36dd754-bdf7-4820-8ba4-a234189c374a&thumb,전라북도 부안군 변산면 조각공원길 31,35.6205083,126.48875320000002
금구향교,전북 김제시,063-540-3882,"['관광지', '금구향교', '금구향교대성전', '역사', '역사공부', '역사관광지', '역사를품은곳']",https://cdn.visitkorea.or.kr/img/call?cmd=VIEW&id=bd5b30a1-b28f-44ed-9fb9-ca64e5c37bc5&thumb,전라북도 김제시 금구면 금구3길 12,35.7728506,127.01127679999999
금당사(진안),전북 진안군,063-432-4441,"['가족여행', '관광지', '교과서속여행', '금당사', '마이산', '마이산탑사', '사찰&산사']",https://cdn.visitkorea.or.kr/img/call?cmd=VIEW&id=23b0fe02-4bba-4779-8e43-ed5fded22663&thumb,전라북도 진안군 마령면 마이산남로 217,35.7577274,127.3976135
"금마장 (2, 7일)",전북 익산시,063-836-6731,"['가족여행', '금마장', '나들이', '나홀로여행', '먹거리', '쇼핑', '시장맛집', '아이와함께']",https://cdn.visitkorea.or.kr/img/call?cmd=VIEW&id=fdb66f07-06a7-4b44-99b2-329dc852a98d&thumb,전라북도 익산시 금마면 금마4길 7,35.99175007,127.05346740000002
금마저수지,전북 익산시,063-859-3825,"['관광지', '자연']",https://cdn.visitkorea.or.kr/img/call?cmd=VIEW&id=9675e79e-95df-48e5-9a23-13ecd9b464ae&thumb,전라북도 익산시 금마면 고도9길 41-64,36.001793799999994,127.05684509999999
금산교회,전북 김제시,063-548-4055,"['건축물', '건축사', '관광지', '금산교회', '역사', '역사공부', '역사를품은곳', '역사문화재']",https://cdn.visitkorea.or.kr/img/call?cmd=VIEW&id=e69cb6d6-96a1-4415-a8b3-a0109f76023a&thumb,전라북도 김제시 금산면 모악로 407,35.7193715,127.03526940000002
금산사(김제),전북 김제시,063-548-4441,"['가족여행', '관광지', '교과서속여행', '금산사', '사찰&산사', '아이와함께', '역사']",https://cdn.visitkorea.or.kr/img/call?cmd=VIEW&id=c13231ed-c333-4615-b626-b5b15ca4e48d&thumb,전라북도 김제시 금산면 모악15길 1,35.7232427,127.0537729
금산필방,전북 김제시,063-548-0222,"['가족여행', '금산필방', '기념품판매', '기차여행', '나들이', '나홀로여행', '먹거리']",https://cdn.visitkorea.or.kr/img/call?cmd=VIEW&id=d9157c73-7fd7-4d11-8b12-5a7099b834b1&thumb,전라북도 김제시 금산면 모악로 470,35.71826142,127.0418048
금선계곡,전북 정읍시,063-538-7876,"['관광지', '자연']",https://cdn.visitkorea.or.kr/img/call?cmd=VIEW&id=undefined&thumb,전라북도 정읍시 내장산로 1207,35.4878779,126.90748959999999
금선폭포,전북 정읍시,063-538-7875,"['관광지', '자연']",https://cdn.visitkorea.or.kr/img/call?cmd=VIEW&id=ae8deedf-cc3e-47e6-9c2f-daaaa09d48c8&thumb,전북 정읍시 내장동,35.495437700000004,126.9138423
금평저수지,전북 김제시,063-540-4862,"['관광지', '자연']",https://cdn.visitkorea.or.kr/img/call?cmd=VIEW&id=6c32c718-595e-465c-bffd-1a4ec8216dca&thumb,전북 김제시 금산면 청도리,35.7369164,127.0442558
기미3.1운동비,전북 장수군,063-350-2326,"['3.1운동', '관광지', '광복', '아픈과거', '역사', '역사공부', '역사관광', '역사관광지']",https://cdn.visitkorea.or.kr/img/call?cmd=VIEW&id=85291094-7260-4d94-9ed3-2c231fddab82&thumb,전북 장수군 산서면 동화리,35.5954867,127.3953936
김기서강학당,전북 고창군,063-560-2943,"['관광지', '역사', '역사공부', '역사관광지', '역사를품은곳', '역사문화재', '역사속']",https://cdn.visitkorea.or.kr/img/call?cmd=VIEW&id=45ef4f1e-0d5e-418f-bf49-8b769f49e94b&thumb,전라북도 고창군 고수면 사동길 40-160,35.394580100000006,126.706453
김남택신도비,전북 장수군,063-350-2326,"['관광지', '역사', '역사공부', '역사관광지', '역사를품은곳', '역사문화재', '역사속']",https://cdn.visitkorea.or.kr/img/call?cmd=VIEW&id=cbd797bd-3579-4608-85c0-cec1da06edae&thumb,전라북도 장수군 계남면 원호덕길 79,35.710628,127.59060179999999
김복규·김기종 효자 정려비 및 정판,전북 임실군,063-640-2312,"['관광지', '역사', '역사공부', '역사관광지', '역사를품은곳', '역사문화재', '역사속']",https://cdn.visitkorea.or.kr/img/call?cmd=VIEW&id=7f2ddc92-53bb-4728-b3c0-5fae30e30056&thumb,전라북도 임실군 임실읍 임삼로 1590-20,35.5946785,127.2632524
김안균가옥,전북 익산시,063-859-5792,"['관광지', '역사', '역사공부', '역사관광지', '역사를품은곳', '역사문화재', '역사속']",https://cdn.visitkorea.or.kr/img/call?cmd=VIEW&id=b38a8501-0ad0-4797-96ac-dd4c2268a178&thumb,전라북도 익산시 함라면 수동길 20,36.0608675,126.90947870000001
김육불망비,전북 익산시,063-859-5792,"['관광지', '교과서속여행', '김육불망비', '아이와함께', '역사', '역사공부', '역사를품은곳']",https://cdn.visitkorea.or.kr/img/call?cmd=VIEW&id=12a79e58-8dda-47a6-9f11-376c4aa67d0d&thumb,전라북도 익산시 함라면 천남1길 13,36.0603311,126.91025090000001
김정회고가,전북 고창군,063-564-4156,"['가족여행', '관광지', '김정회고가', '역사', '연중무휴', '전라권', '전라북도민속문화재']",https://cdn.visitkorea.or.kr/img/call?cmd=VIEW&id=c67a8c45-ac82-412b-8b17-c4200f5377cb&thumb,전라북도 고창군 고창읍 도산1길 16,35.4400786,126.65998049999999
김제 벽골제,전북 김제시,063-540-4094,"['관광지', '교과서속여행', '박물관', '벽골제', '산책하기', '산책하기좋은곳', '역사']",https://cdn.visitkorea.or.kr/img/call?cmd=VIEW&id=e389415f-f105-4a2a-a9ca-a169aa76475b&thumb,전라북도 김제시 부량면 벽골제로 442,35.7529497,126.852423
김제 외갓집마을,전북 김제시,063-547-0087,"['관광지', '농촌마을', '농촌여행', '농촌체험', '농촌체험마을', '아이와함께', '외갓집마을']",https://cdn.visitkorea.or.kr/img/call?cmd=VIEW&id=e50d07d4-1502-4952-9ab7-9f98fbd469fd&thumb,전라북도 김제시 금구면 사방길 110-5,35.8102031,126.98659509999999
김제동헌,전북 김제시,063-540-3882,"['관광지', '역사', '역사공부', '역사관광지', '역사를품은곳', '역사문화재', '역사속']",https://cdn.visitkorea.or.kr/img/call?cmd=VIEW&id=dd476710-171f-48ff-a0e2-3c948e030e82&thumb,전라북도 김제시 동헌4길 46-1,35.8007363,126.882103
김제문화원,전북 김제시,063-547-4659,"['김제문화원', '김제시', '김제역사', '문화교육', '문화시설', '전라북도', '지역문화']",https://cdn.visitkorea.or.kr/img/call?cmd=VIEW&id=9920cde9-81f1-467f-86b2-8c9ae04076f4&thumb,전라북도 김제시 서암5길 5,35.80463248,126.8819565
김제시 청소년수련관,전북 김제시,063-540-4570,['레포츠'],https://cdn.visitkorea.or.kr/img/call?cmd=VIEW&id=34b7cba5-7e98-482e-9da0-32963442e5c3&thumb,전라북도 김제시 도작로 224-32,35.8151145,126.9008666
"김제장 (2, 7일)",전북 김제시,063-540-3616,"['가족여행', '기차여행', '김제장', '나들이', '나홀로여행', '먹거리', '쇼핑', '시장맛집']",https://cdn.visitkorea.or.kr/img/call?cmd=VIEW&id=cc346908-5e4a-4c09-aa39-914994d2adf0&thumb,전라북도 김제시 요촌중길 50,35.80476591,126.89127450000001
김제평야,전북 김제시,063-540-3031,"['관광지', '자연']",https://cdn.visitkorea.or.kr/img/call?cmd=VIEW&id=a55cc1d6-dcba-4a10-b829-95d8416631e2&thumb,"전라북도 김제시 만경읍 화포리,소토리,청하면 동지산리 일대",35.9027779,126.8462648
김제향교,전북 김제시,063-540-3882,"['관광지', '역사', '역사관광지', '역사를품은곳', '역사문화재', '역사속', '역사속으로']",https://cdn.visitkorea.or.kr/img/call?cmd=VIEW&id=7c10605e-2b70-48d9-adfb-a083a178c217&thumb,전라북도 김제시 향교길 89-3,35.8004859,126.8794082
김환태문학관&최북미술관,전북 무주군,063-320-5636,"['문화시설', '문화예술', '문화예술공간', '미세먼지_피하는_실내여행', '복합문화공간']",https://cdn.visitkorea.or.kr/img/call?cmd=VIEW&id=3410a344-b4a1-4268-8df2-910d5f855abd&thumb,전라북도 무주군 무주읍 한풍루로 347,36.00463739,127.6639077
낙덕정,전북 순창군,063-650-1623,"['관광지', '역사', '역사공부', '역사관광지', '역사를품은곳', '역사문화재', '역사속']",https://cdn.visitkorea.or.kr/img/call?cmd=VIEW&id=a0076aa8-6cb7-42de-8b77-5db3ed6a3d31&thumb,전라북도 순창군 북픙면 상송리,35.45009520000001,126.9598845
낙양사,전북 김제시,063-540-3882,"['관광지', '역사', '역사공부', '역사관광지', '역사를품은곳', '역사문화재', '역사속']",https://cdn.visitkorea.or.kr/img/call?cmd=VIEW&id=ba7a124e-eb55-4b6e-b835-f4288774d53d&thumb,전라북도 김제시 금구면 청운4길 87-3,35.811544399999995,126.98011159999999
남계정,전북 완주군,063-290-2605,"['관광지', '역사', '역사공부', '역사관광지', '역사를품은곳', '역사문화재', '역사문화재']",https://cdn.visitkorea.or.kr/img/call?cmd=VIEW&id=e03a8deb-cc87-4fb4-8f1c-d79953d1dc8f&thumb,전라북도 완주군 구이면 원두현길 12-12,35.7432289,127.1229487
남고사(전주),전북 전주시,063-284-9640,"['관광지', '남고사', '불교', '불교문화', '사찰', '사찰여행', '역사', '연중무휴', '자연속으로']",https://cdn.visitkorea.or.kr/img/call?cmd=VIEW&id=e2d9abe9-80a3-4ffd-8a07-3ab4ee23758d&thumb,전라북도 전주시 완산구 남고산성1길 53-88,35.799693100000006,127.1589834
남고서원,전북 정읍시,063-539-5184,"['관광지', '역사', '역사공부', '역사관광지', '역사문화재', '역사문화체험', '역사속']",https://cdn.visitkorea.or.kr/img/call?cmd=VIEW&id=0b622d4f-02cc-43d7-815a-ade4cadd588e&thumb,전라북도 정읍시 북면 보림1길 392,35.5727886,126.9204027
남궁찬묘석상,전북 익산시,063-859-5792,"['관광지', '교과서속여행', '남궁찬묘석상', '아이와함께', '역사', '역사공부', '역사관광지']",https://cdn.visitkorea.or.kr/img/call?cmd=VIEW&id=03dbe9c3-65df-4b63-b6be-f6bfe10cfe0a&thumb,전라북도 익산시 성당면 목사동길 48,36.0908601,126.92593600000001
남문안당산,전북 부안군,063-580-4711,"['관광지', '남문안당산', '역사', '역사공부', '역사관광지', '역사를품은곳', '역사문화재']",https://cdn.visitkorea.or.kr/img/call?cmd=VIEW&id=83889997-2e6c-44dc-9627-6e5465a0a7ff&thumb,전라북도 부안군 부안읍 남문안길 10,35.7307316,126.7348965
남복리오층석탑,전북 정읍시,063-539-5184,"['관광지', '역사', '역사공부', '역사관광지', '역사를품은곳', '역사문화재', '역사속']",https://cdn.visitkorea.or.kr/img/call?cmd=VIEW&id=475c809a-1ca5-471b-85b2-c0c75fa05810&thumb,전라북도 정읍시 고부면 영원로 596-31,35.6154144,126.778324
남산사(정읍),전북 정읍시,063-537-4418,"['관광지', '불교', '불교문화', '사찰', '사찰여행', '역사', '자연속으로', '자연환경']",https://cdn.visitkorea.or.kr/img/call?cmd=VIEW&id=18b42647-c0db-4443-a424-3eedbab4e9ed&thumb,전라북도 정읍시 북면 정신로 183-64,35.6087303,126.862275
남산서원(김제),전북 김제시,063-540-3882,"['관광지', '교과서속여행', '남산서원', '서원', '역사', '역사공부', '역사관광지']",https://cdn.visitkorea.or.kr/img/call?cmd=VIEW&id=d856f2f3-f8e5-4c09-a84a-e147fd55e0b3&thumb,전라북도 김제시 성덕면 만경로 600-92,35.840622100000004,126.8247155
남원 교룡산성,전북 남원시,063-620-6172,"['관광지', '교룡산성', '나들이', '역사', '역사공부', '역사를품은곳', '역사문화재']",https://cdn.visitkorea.or.kr/img/call?cmd=VIEW&id=8d9d1aab-ac9e-49df-97a0-ddbcf657a5d4&thumb,전라북도 남원시 산곡동,35.427073,127.3623996
남원 만복사지,전북 남원시,063-620-6172,"['경치좋은곳', '관광지', '교과서속여행', '만복사지', '사찰&산사', '아이와함께']",https://cdn.visitkorea.or.kr/img/call?cmd=VIEW&id=ab922770-3703-4270-b1fd-d9c697767190&thumb,전라북도 남원시 만복사길 10-3,35.407510200000004,127.3680605
남원 만인의총,전북 남원시,063-290-6600,"['가족여행', '관광지', '교과서속여행', '남원만인의총', '아이와함께', '역사', '역사공부']",https://cdn.visitkorea.or.kr/img/call?cmd=VIEW&id=11415a14-d951-47be-9dbf-b793347bc39a&thumb,전라북도 남원시 만인로 3,35.4204679,127.3773192
남원 목기공예사,전북 남원시,063-635-9906,"['공예', '남원특산품', '목굥예', '목기공예', '쇼핑']",https://cdn.visitkorea.or.kr/img/call?cmd=VIEW&id=0cedfba4-45e4-4a33-9191-68cbb91f3b2a&thumb,전라북도 남원시 요천로 1357,35.39810031,127.37170390000001
남원 목기사업협동조합 판매장,전북 남원시,063-626-9909,"['공예품', '기념품판매', '목공예사업협동조합판매장', '쇼핑', '연중무휴', '전라권']",https://cdn.visitkorea.or.kr/img/call?cmd=VIEW&id=6849e6bc-2097-409c-90b4-cbfba83be0f4&thumb,전라북도 남원시 목공예길 27,35.39019244,127.3930255
남원 목운공예사,전북 남원시,063-633-7489,"['무형문화재', '쇼핑', '식기류', '옻칠장', '칠기']",https://cdn.visitkorea.or.kr/img/call?cmd=VIEW&id=83ca9c51-3793-435d-9bb4-42223f6a6b8c&thumb,전라북도 남원시 요천로 1230-9,35.39518972,127.3583294
남원 백두대간전시관,전북 남원시,063-620-5752,"['문화시설', '백두대간', '생태교육장', '전라권']",https://cdn.visitkorea.or.kr/img/call?cmd=VIEW&id=51c4730d-bbb0-4f51-9beb-a729302ef926&thumb,전라북도 남원시 운봉읍 운봉로 151,35.39732835,127.50793020000002
남원 신계리 마애여래좌상,전북 남원시,063-620-6172,"['관광지', '보물', '불상', '신계리마애여래좌상', '역사', '역사공부', '역사관광지']",https://cdn.visitkorea.or.kr/img/call?cmd=VIEW&id=46b7c640-98fb-4978-8cea-6b324baf328f&thumb,전라북도 남원시 대산면 신계리,35.4284016,127.30450890000002
남원 실상사 석장생,전북 남원시,063-620-6172,"['가족여행', '관광지', '실상사', '실상사석장생', '아이와함께', '역사', '역사공부']",https://cdn.visitkorea.or.kr/img/call?cmd=VIEW&id=78d46fbc-898c-411f-b5b9-d7611cbca3a0&thumb,전라북도 남원시 산내면 입석길 94-129,35.4167148,127.63513049999999
남원 아담원,전북 남원시,063-635-8342,"['가족나들이', '관광지', '남원가볼만한곳', '남원데이트', '남원수목원']",https://cdn.visitkorea.or.kr/img/call?cmd=VIEW&id=01f22263-504a-48d4-acd2-e32225d69f0b&thumb,전라북도 남원시 이백면 목가길 193,35.440324700000005,127.4765231
남원 용남시장,전북 남원시,063-632-5133,"['가족여행', '나들이', '나홀로여행', '남원용남시장', '먹거리', '쇼핑', '시장맛집']",https://cdn.visitkorea.or.kr/img/call?cmd=VIEW&id=dda0adbc-3362-4470-a759-dee6203fcd25&thumb,전라북도 남원시 의총로 78,35.40773705,127.3766389
남원 진기리 느티나무,전북 남원시,063-620-6171,"['관광지', '남원진기리느티나무', '자연', '자연유산', '전라권', '천연기념물']",https://cdn.visitkorea.or.kr/img/call?cmd=VIEW&id=7106bf11-a7ba-434e-afc8-3436873af01f&thumb,전라북도 남원시 보절면 보절신기길 14-3,35.495809200000004,127.42202890000002
남원 추어마을,전북 남원시,063-634-4640,"['가족체험', '관광지', '농촌마을', '농촌체험', '농촌체험마을', '농촌체험여행']",https://cdn.visitkorea.or.kr/img/call?cmd=VIEW&id=18b5fbbf-2cdf-4efe-8c9c-ecf71320a37e&thumb,전라북도 남원시 보절면 용동길 47,35.5316456,127.42441509999999
남원 추어탕 거리,전북 남원시,063-632-1330,"['가족과함께', '관광지', '남녀노소', '맛집거리', '맛집탐방', '몸보신여행', '미꾸라지']",https://cdn.visitkorea.or.kr/img/call?cmd=VIEW&id=8e7e38eb-bec9-4b4e-826e-16580814d052&thumb,전라북도 남원시 천거동,35.4014557,127.3781881
남원 터미널시장,전북 남원시,063-620-6343,"['가족여행', '기차여행', '나들이', '나홀로여행', '남원터미널시장', '먹거리', '서울근교여행']",https://cdn.visitkorea.or.kr/img/call?cmd=VIEW&id=fa1634f0-cfc4-409d-825d-98a5d0ef7de2&thumb,전라북도 남원시 봉당길 8,35.41181056,127.3835072
남원 황산대첩비지,전북 남원시,063-620-6172,"['가족여행', '관광지', '교과서속여행', '남원황산대첩비지', '사적', '아이와함께']",https://cdn.visitkorea.or.kr/img/call?cmd=VIEW&id=5bfde68e-7e62-45b4-91f8-829a3b11f8c2&thumb,전라북도 남원시 운봉읍 가산화수길 84,35.4578893,127.56169650000001
남원 흥부마을,전북 남원시,063-620-6172,"['관광지', '교과서속여행', '남원5경', '아이와함께', '역사', '옛날이야기', '자연마을']",https://cdn.visitkorea.or.kr/img/call?cmd=VIEW&id=826b5d72-78fc-429b-8eb3-332d8bcd33d2&thumb,전라북도 남원시 아영면 흥부1길 48-1,35.5196474,127.58407220000001
남원관광단지,전북 남원시,063-620-6160,"['가족여행', '가족체험여행', '관광지', '남녀노소', '남원관광단지', '아이와함께']",https://cdn.visitkorea.or.kr/img/call?cmd=VIEW&id=281d33a0-645a-47bf-9260-a9eac11639a3&thumb,전라북도 남원시 양림길 43,35.40224129999999,127.39009909999999
남원다움관,전북 남원시,063-620-5670,"['가족과함께', '남원다움관', '문화시설', '아이와함께', '전라권']",https://cdn.visitkorea.or.kr/img/call?cmd=VIEW&id=e1ba3c67-c27c-4016-a4ce-8f108a19ab1a&thumb,전라북도 남원시 금동 검멀1길 14,35.40371332,127.3770078
남원몽심재,전북 남원시,063-620-6172,"['관광지', '교과서속여행', '남원몽심재', '문화재', '역사', '역사공부', '역사관광지']",https://cdn.visitkorea.or.kr/img/call?cmd=VIEW&id=d7a15e09-ab6d-4db8-8638-36a9fa3d5396&thumb,전라북도 남원시 수지면 내호곡2길 19,35.3379549,127.3747209
남원문화원,전북 남원시,063-633-1582,"['남원문화원', '문화시설', '전라권', '지역문화', '향토문화']",https://cdn.visitkorea.or.kr/img/call?cmd=VIEW&id=8127686b-c799-43ef-82b5-8ac4429e6c6e&thumb,전라북도 남원시 광한북로 57,35.4080722,127.3793315
남원사(익산),전북 익산시,063-836-5344,"['관광지', '불교', '불교문화', '사찰', '사찰여행', '역사', '연중무휴', '익산남원사']",https://cdn.visitkorea.or.kr/img/call?cmd=VIEW&id=7564ffce-080e-4f34-8d8a-28f085e30dfa&thumb,전라북도 익산시 여산면 서촌1길 34-3,36.055650799999995,127.08272009999999
남원서천리당산,전북 남원시,063-620-6172,"['관광지', '교과서속여행', '남원서천리당산', '문화재', '역사', '역사공부', '역사관광지']",https://cdn.visitkorea.or.kr/img/call?cmd=VIEW&id=8c79fe70-5497-4de4-8894-147aeeb37d55&thumb,전라북도 남원시 운봉읍 서천리,35.4371308,127.5265807
남원성,전북 남원시,063-620-6172,"['관광지', '나들이', '남원성', '아이와함께', '역사', '역사공부', '역사문화재', '역사속']",https://cdn.visitkorea.or.kr/img/call?cmd=VIEW&id=cf75c821-9171-4f49-aaa0-d0572ec3304c&thumb,전라북도 남원시 동충동,35.4115453,127.3815747
남원시 농특산물 전시판매장,전북 남원시,063-636-5365,"['기념품판매', '남원시농특산물전시판매장', '쇼핑', '전라권', '특산물']",https://cdn.visitkorea.or.kr/img/call?cmd=VIEW&id=8356bac9-102e-4ecb-8613-2d67f656f7ab&thumb,전라북도 남원시 인월면 천왕봉로 96,35.45752379,127.6079527
남원시 옻칠공예관,전북 남원시,063-631-5725,"['가족과함께', '관광지', '아이와함께', '옻칠공예관', '이색체험']",https://cdn.visitkorea.or.kr/img/call?cmd=VIEW&id=1c3d22cf-6c1a-43ea-ae6e-a7c67db86966&thumb,전라북도 남원시 요천로 1234-5,35.4220847,127.39894779999999
남원시립김병종미술관,전북 남원시,063-620-5660,"['남원가볼만한곳', '남원시립김병종미술관', '문화시설', '문화예술', '미술관']",https://cdn.visitkorea.or.kr/img/call?cmd=VIEW&id=8b11a7ae-000f-4540-8f6c-cef80077e1b6&thumb,전라북도 남원시 함파우길 65-14,35.39870644,127.38955459999998
남원자연휴양림,전북 남원시,063-633-5333,"['관광지', '자연']",https://cdn.visitkorea.or.kr/img/call?cmd=VIEW&id=61f75c43-5589-42c9-b93c-b578b6e2cb20&thumb,전라북도 남원시 보산로 228,35.4602539,127.41703030000001
"남원장 / 남원공설시장 (4, 9일)",전북 남원시,063-625-4010,"['가족여행', '남원공설시장', '남원장', '사계절', '쇼핑', '시장맛집', '아이와함께']",https://cdn.visitkorea.or.kr/img/call?cmd=VIEW&id=f3b7c923-3a80-4e69-a919-945a86e0d4b1&thumb,전라북도 남원시 의총로 51,35.40461666,127.3758683
남원항공우주천문대,전북 남원시,063-620-6900,"['관광지', '남원항공우주천문대', '이색체험', '자연', '전라권', '천문대', '체험']",https://cdn.visitkorea.or.kr/img/call?cmd=VIEW&id=3e3faaa3-69cf-47da-afc1-bc8a0000b043&thumb,전라북도 남원시 양림길 48-63,35.399057299999996,127.38736100000001
남원향교,전북 남원시,063-620-6172,"['관광지', '교과서속여행', '남원향교', '아이와함께', '역사', '역사공부', '역사관광지']",https://cdn.visitkorea.or.kr/img/call?cmd=VIEW&id=43f4dfe2-2406-4711-9ced-86ef0250afac&thumb,전라북도 남원시 향교길 43,35.421820600000004,127.38307140000002
남원향토박물관,전북 남원시,063-620-6792,"['기차여행', '남원향토박물관', '문화시설', '박물관', '아이와함께', '전통&역사문화체험']",https://cdn.visitkorea.or.kr/img/call?cmd=VIEW&id=b1e20e7d-d73a-4ebd-8033-e7330c850f57&thumb,전라북도 남원시 양림길 14-9,35.40146435,127.3869016
남중동 오층 석탑,전북 익산시,063-859-5792,"['관광지', '교과서속여행', '남중동오층석탑', '아이와함께', '역사', '역사공부']",https://cdn.visitkorea.or.kr/img/call?cmd=VIEW&id=884d28ec-d8c7-4149-8fbf-596e126ed153&thumb,전라북도 익산시 익산대로24길 8-5,35.9455434,126.9521162
남천교 청연루,전북 전주시,063-281-5361,"['경치좋은곳', '관광지', '사진찍기', '사진찍기좋은곳', '사진촬영', '야경명소']",https://cdn.visitkorea.or.kr/img/call?cmd=VIEW&id=22e7f054-8f26-4501-9aac-67a0ca8f7ec3&thumb,전라북도 전주시 완산구 천경로 40,35.809985600000005,127.1535172
남평문씨열녀비,전북 장수군,061-390-7226,"['관광지', '역사', '역사공부', '역사관광지', '역사를품은곳', '역사문화재', '역사속']",https://cdn.visitkorea.or.kr/img/call?cmd=VIEW&id=3873a619-cc0f-4338-b464-6524c7899652&thumb,전라북도 장수군 산서면 오산리,35.5967183,127.380924
내도리강변유원지,전북 무주군,1899-8687,"['가족과함께', '관광지', '아이와함께', '여름철휴가지', '여름휴가', '자연관광지']",https://cdn.visitkorea.or.kr/img/call?cmd=VIEW&id=4237d8a1-ed1c-4a03-a4c5-70553c65f6d3&thumb,전라북도 무주군 무주읍 내도로 126,36.016710499999995,127.64506920000001
내동산,전북 진안군,063-430-2443,"['관광지', '자연']",https://cdn.visitkorea.or.kr/img/call?cmd=VIEW&id=null&thumb,전라북도 진안군 백운면 덕현리,35.689153600000004,127.3779771
내변산,전북 부안군,063-582-7808,"['관광지', '자연']",https://cdn.visitkorea.or.kr/img/call?cmd=VIEW&id=8748b775-51ca-4043-b3df-25be0c20fb5d&thumb,전라북도 부안군 변산면 내변산로 232,35.6518559,126.54747479999999
내소사(부안),전북 부안군,063-583-2443,"['가족여행', '관광지', '교과서속여행', '내소사', '불교문화', '사찰&산사', '아이와함께']",https://cdn.visitkorea.or.kr/img/call?cmd=VIEW&id=cad06fce-7a82-402b-bbf5-d9eb48c9b2e9&thumb,전라북도 부안군 진서면 내소사로 243,35.6175898,126.5873648
내소사삼층석탑,전북 부안군,063-583-7281,"['관광지', '역사', '역사공부', '역사관광지', '역사를품은곳', '역사문화재', '역사속']",https://cdn.visitkorea.or.kr/img/call?cmd=VIEW&id=828d706f-55fc-4ebf-af14-99546e82ea3d&thumb,전라북도 부안군 진서면 내소사로 243,35.6175898,126.5873648
내원암,전북 부안군,063-581-3283,"['관광지', '불교', '불교문화', '사찰', '사찰여행', '역사', '자연속으로', '자연환경']",https://cdn.visitkorea.or.kr/img/call?cmd=VIEW&id=null&thumb,전라북도 부안군 위도면 내원암길 42,35.58789229999999,126.27297490000001
내장사(정읍),전북 정읍시,063-538-8741,"['가족여행', '관광지', '교과서속여행', '내장사', '불교', '불교사찰', '사찰', '사찰&산사']",https://cdn.visitkorea.or.kr/img/call?cmd=VIEW&id=cdc1c7db-23bf-4eef-8468-5234aad7add0&thumb,전라북도 정읍시 내장산로 1253,35.4896703,126.9018922
내장산 국립공원,전북 정읍시,063-538-7875,"['15_16한국관광100선', '19_20한국관광100선', '관광지', '내장산', '내장산']",https://cdn.visitkorea.or.kr/img/call?cmd=VIEW&id=f3e11387-a0ea-4745-a4f1-f5ed200d367b&thumb,전라북도 정읍시 내장산로 936,35.493335200000004,126.92785559999999
내장산 굴거리나무군락,전북 정읍시,063-539-5181,"['관광지', '굴거리나무군락', '내장산', '식물', '자연', '전라권', '천연기념물']",https://cdn.visitkorea.or.kr/img/call?cmd=VIEW&id=4d181d70-388a-4ce6-b763-37823f17578d&thumb,전라북도 정읍시 내장산로 987-30,35.4865305,126.91650259999999
내장산 케이블카,전북 정읍시,063-538-8120,"['관광지', '자연']",https://cdn.visitkorea.or.kr/img/call?cmd=VIEW&id=e66e5da5-dd35-41a7-a48e-d96389491988&thumb,전라북도 정읍시 내장산로 936,35.493335200000004,126.92785559999999
내장산 탐방안내소,전북 정읍시,063-538-7875,"['가족여행', '내장산탐방안내소', '눈꽃&설경여행', '단풍여행', '데이트코스']",https://cdn.visitkorea.or.kr/img/call?cmd=VIEW&id=aea9d6a1-78ad-4846-a5e3-73d9c199d639&thumb,전라북도 정읍시 내장산로 1207,35.48790912,126.9074759
내장산국립공원,전북 순창군,063-538-7875,"['가족여행', '관광지', '꽃여행', '내장산', '내장산국립공원', '등산', '등산로', '아이와함께']",https://cdn.visitkorea.or.kr/img/call?cmd=VIEW&id=d547f886-a740-418f-9880-cda59fbae183&thumb,전라북도 순창군 복흥면,35.432139899999996,126.92975619999999
내장산수목원,전북 정읍시,063-536-4024,"['가족여행', '관광지', '내장산수목원', '단풍여행', '수목원', '자연', '자연&숲치유']",https://cdn.visitkorea.or.kr/img/call?cmd=VIEW&id=c844584e-b47d-4428-a4e4-a2d7ca29258c&thumb,전라북도 정읍시 내장호반로 194-28,35.509890399999996,126.8981853
내장산조각공원,전북 정읍시,063-537-1330,"['가족여행', '걷기길', '걷기여행', '관광지', '내장산조각공원', '사계절', '산책길']",https://cdn.visitkorea.or.kr/img/call?cmd=VIEW&id=46e19b3c-64f3-4d4e-9577-bbf0b49deca1&thumb,전라북도 정읍시 내장호반로 214,35.49964620000001,126.9170929
네이버스키샵,전북 무주군,063-322-1003,"['겨울스포츠', '레포츠', '복합레저스포츠', '스키대여', '스키렌탈', '스키샵', '익스트림스포츠']",https://cdn.visitkorea.or.kr/img/call?cmd=VIEW&id=9c9adec8-bea1-4f25-ba2a-499d470ed916&thumb,전라북도 무주군 설천면 내배방길 9,35.911379,127.7570707
노동환가옥,전북 임실군,063-640-2312,"['관광지', '역사', '역사공부', '역사관광지', '역사를품은곳', '역사문화재', '역사속']",https://cdn.visitkorea.or.kr/img/call?cmd=VIEW&id=97b0f995-6b11-4cef-b707-61b876b6eff3&thumb,전라북도 임실군 삼계면 후천1길 19-20,35.4843856,127.26619869999999
노블스키샵,전북 무주군,063-322-3663,"['겨울스포츠', '레포츠', '복합레저스포츠', '스키대여', '스키렌탈', '스키샵', '익스트림스포츠']",https://cdn.visitkorea.or.kr/img/call?cmd=VIEW&id=3fecb298-f654-4700-87b1-3f12bcf0181a&thumb,전라북도 무주군 설천면 구천동로 1083-11,35.9094881,127.7589233
노양서원,전북 정읍시,063-539-5184,"['관광지', '역사', '역사공부', '역사관광지', '역사를품은곳', '역사문화재', '역사속']",https://cdn.visitkorea.or.kr/img/call?cmd=VIEW&id=undefined&thumb,전라북도 정읍시 상흑길 44,35.5973287,126.8219477
노채마을,전북 진안군,063-432-4916,"['관광지', '교육여행', '농촌체험', '아이와함께', '이색체험', '자연속으로', '체험프로그램']",https://cdn.visitkorea.or.kr/img/call?cmd=VIEW&id=4611253c-291e-4e45-96b1-5a60f67d0ddf&thumb,전라북도 진안군 안천면 자노로 312-1,35.879816999999996,127.55859009999999
녹두장군 전봉준관,전북 순창군,063-650-1633,['레포츠'],https://cdn.visitkorea.or.kr/img/call?cmd=VIEW&id=26583316-56ab-4327-badb-a3c77d2cbb13&thumb,전라북도 순창군 쌍치면 피노길 65-29,35.524226399999996,127.01270929999998
논개사당(의암사),전북 장수군,063-350-2326,"['가족여행', '관광지', '교과서속여행', '논개사당', '사찰&산사', '아이와함께']",https://cdn.visitkorea.or.kr/img/call?cmd=VIEW&id=1605cc11-4228-4b15-8aa7-9e31d0040eb7&thumb,전라북도 장수군 장수읍 한누리로 393,35.6410294,127.5180878
논개생가,전북 장수군,063-350-1636,"['가족여행', '관광지', '논개생가', '아이와함께', '역사', '역사공부', '역사관광지']",https://cdn.visitkorea.or.kr/img/call?cmd=VIEW&id=9b8ecdfb-04c4-4da2-b20f-88cdd16e2a35&thumb,전라북도 장수군 장계면 의암로 558,35.6794934,127.62112330000001
농업과학관,전북 전주시,063-238-1300,"['교과서속여행', '농업과학관', '문화시설', '사계절', '실내여행지', '아이와함께']",https://cdn.visitkorea.or.kr/img/call?cmd=VIEW&id=cf35b9ba-f728-4cf5-a728-d31a97b1af8b&thumb,전라북도 전주시 완산구 농생명로 300,35.831422,127.056254
농협 목우촌 김제지점,전북 김제시,080-910-9000,"['가족여행', '나들이', '나홀로여행', '농협목우촌김제지점', '쇼핑', '아이와함께']",https://cdn.visitkorea.or.kr/img/call?cmd=VIEW&id=9baf10f2-b041-4ac2-b17d-c0ae0d746000&thumb,전라북도 김제시 금산면 구성길 630,35.75472548,127.0038574
다가공원,전북 전주시,063-241-6949,"['관광지', '남녀노소', '다가공원', '산책길', '산책하기', '산책하기좋은곳', '자연좋은곳']",https://cdn.visitkorea.or.kr/img/call?cmd=VIEW&id=3b2ce732-967f-484f-beea-e28629fd8563&thumb,전라북도 전주시 완산구 중화산동1가 150-3,35.81413,127.1378153
다천사(정읍),전북 정읍시,063-534-4103,"['관광지', '불교', '불교문화', '사찰', '사찰여행', '역사', '자연속으로', '자연환경']",https://cdn.visitkorea.or.kr/img/call?cmd=VIEW&id=fb9415d9-1e43-417e-be66-13c88fed0575&thumb,전라북도 정읍시 태인면 태흥1길 59,35.6524492,126.9530009
달궁계곡,전북 남원시,063-625-8911,"['관광지', '자연']",https://cdn.visitkorea.or.kr/img/call?cmd=VIEW&id=undefined&thumb,전라북도 남원시 산내면 지리산로,35.385132399999996,127.5881926
달오름마을,전북 남원시,063-635-2231,"['가족과함께', '가족체험', '관광지', '농촌마을', '농촌여행', '농촌체험', '농촌체험마을']",https://cdn.visitkorea.or.kr/img/call?cmd=VIEW&id=62590f90-2879-4aa4-a33b-270be66d02e7&thumb,전라북도 남원시 인월면 인월서길 42,35.4567719,127.59262439999999
대곡리암각화,전북 남원시,063-620-6172,"['관광지', '대곡리암각화', '역사', '역사공부', '역사관광지', '역사를품은곳', '역사속']",https://cdn.visitkorea.or.kr/img/call?cmd=VIEW&id=ad544b68-c6f2-4f7e-aee2-68888ad13bb6&thumb,전라북도 남원시 대산면 대곡리,35.407692700000005,127.31520249999998
대둔산도립공원(전북),전북 완주군,064-263-9949,"['가족여행', '관광지', '대둔산도립공원', '등산', '생태관광지', '자연', '자연속으로']",https://cdn.visitkorea.or.kr/img/call?cmd=VIEW&id=6bcac65c-6891-403f-b159-57d1f1593669&thumb,전북 완주군 운주면 산북리,36.109414,127.3329433
대모암(순창),전북 순창군,063-653-3549,"['관광지', '불교', '불교문화', '사찰', '사찰여행', '역사', '자연속으로', '자연환경']",https://cdn.visitkorea.or.kr/img/call?cmd=VIEW&id=eca56226-e01f-4023-9bfb-c454510048a4&thumb,전라북도 순창군 순창읍 장류로 197-22,35.372876299999994,127.1240598
대복사(남원),전북 남원시,063-631-1144,"['관광지', '불교', '불교문화', '사찰', '사찰여행', '역사', '자연속으로', '자연환경']",https://cdn.visitkorea.or.kr/img/call?cmd=VIEW&id=null&thumb,전라북도 남원시 대복사길 61,35.4167665,127.368574
대승서원,전북 완주군,063-290-2605,"['관광지', '역사', '역사공부', '역사관광지', '역사를품은곳', '역사문화재', '역사속']",https://cdn.visitkorea.or.kr/img/call?cmd=VIEW&id=undefined&thumb,전라북도 완주군 소양면 신원상리길 84-7,35.8598374,127.2971807
대아관광농원,전북 완주군,063-263-5005,"['가족과함께', '가족체험', '관광농원', '관광지', '아이와함께', '자연여행', '자연좋은곳']",https://cdn.visitkorea.or.kr/img/call?cmd=VIEW&id=undefined&thumb,전라북도 완주군 고산면 대아저수로 304,35.9827773,127.2516377
대아수목원,전북 완주군,063-243-1951,"['가족여행', '관광지', '기차여행', '나들이', '대아수목원', '데이트코스', '등산로']",https://cdn.visitkorea.or.kr/img/call?cmd=VIEW&id=d8fb4e52-d2dd-447e-affd-3592654a2bed&thumb,전라북도 완주군 동상면 대아수목로 94-34,35.9843467,127.3142561
대아저수지(대아호),전북 완주군,063-290-3930,"['관광지', '완주낚시터', '자연']",https://cdn.visitkorea.or.kr/img/call?cmd=VIEW&id=e74f864d-6b11-4a13-b613-6950cba41bf6&thumb,전라북도 완주군 동상면 대아리,35.9796908,127.296062
"대야장 (1, 6일)",전북 군산시,063-451-2327,"['가족여행', '나들이', '나홀로여행', '대야장', '먹거리', '쇼핑', '시장맛집', '아이와함께']",https://cdn.visitkorea.or.kr/img/call?cmd=VIEW&id=3fe7cfc8-891c-4e8b-a247-d63637531c49&thumb,전라북도 군산시 대야면 대야시장로 7-1,35.94485510000001,126.8160847
대원사 용각부도,전북 완주군,063-221-8502,"['관광지', '불교', '불교문화', '역사', '역사공부', '역사관광지', '역사를품은곳']",https://cdn.visitkorea.or.kr/img/call?cmd=VIEW&id=a3bfe1df-0794-499e-b0a9-2731e377bacc&thumb,전라북도 완주군 구이면 모악산길 243,35.7323698,127.09566880000001
대원사(완주),전북 완주군,063-221-8502,"['관광지', '불교', '불교문화', '사찰', '사찰여행', '역사', '자연속으로', '자연환경']",https://cdn.visitkorea.or.kr/img/call?cmd=VIEW&id=acea9eb0-f869-455c-9b0c-a8997c28b738&thumb,전라북도 완주군 구이면 모악산길 243,35.7323698,127.09566880000001
대위제,전북 군산시,063-446-5114,"['군산낚시', '군산시', '레포츠', '민물낚시', '전북권']",https://cdn.visitkorea.or.kr/img/call?cmd=VIEW&id=undefined&thumb,전라북도 군산시 회현면 대위로,35.915765,126.7579075
대율저수지,전북 김제시,063-540-3611,"['김제시', '대율저수지', '레포츠', '민물낚시', '저수지']",https://cdn.visitkorea.or.kr/img/call?cmd=VIEW&id=6df0c8a9-9b48-483f-a34a-5b4d387defa1&thumb,전라북도 김제시 금구면 대화리,35.7905138,127.0389206
대제복구비,전북 김제시,063-540-3882,"['관광지', '역사', '역사공부', '역사관광지', '역사를품은곳', '역사문화재', '역사속']",https://cdn.visitkorea.or.kr/img/call?cmd=VIEW&id=73779288-c087-4ea2-ac0b-975c0e8e6216&thumb,전라북도 김제시 후신길 4-27,35.7991549,126.8665537
대한민국술테마박물관,전북 완주군,063-290-3842,"['가족과함께', '기획전시', '무더위_피해_실내여행', '문화시설', '박물관', '상설전시']",https://cdn.visitkorea.or.kr/img/call?cmd=VIEW&id=dd501b3d-a543-483c-a7cc-f85b293494f0&thumb,전라북도 완주군 구이면 덕천전원길 232-58,35.72601706,127.1361627
대항갯벌체험,전북 부안군,010-5405-3682,"['가족체험', '가족체험학습', '갯벌체험', '갯벌체험장', '관광지', '바다내음', '바다풍경']",https://cdn.visitkorea.or.kr/img/call?cmd=VIEW&id=db85f102-3e23-4ec2-84c0-c19eb2f237ad&thumb,전라북도 부안군 변산면 변산로 1906,35.667699799999994,126.51599329999999
덕동자동차야영장,전북 남원시,063-630-8900,"['국립공원야영장', '레포츠', '자동차아영장', '지리산']",https://cdn.visitkorea.or.kr/img/call?cmd=VIEW&id=368fd77b-a44c-46bb-91db-cbc78ea24486&thumb,전라북도 남원시 산내면 지리산로 593,35.385132399999996,127.5881926
덕산계곡,전북 장수군,063-350-2312,"['가족과함께', '걷기길', '관광지', '덕산계곡', '자연', '전라권', '풍경좋은곳']",https://cdn.visitkorea.or.kr/img/call?cmd=VIEW&id=ecc5efb8-1d14-4e31-bf4a-fb5d9ac288c3&thumb,전라북도 장수군 장수읍 덕산리 772,35.602106299999996,127.543392
덕암서원,전북 임실군,063-640-2312,"['관광지', '역사', '역사공부', '역사관광지', '역사를품은곳', '역사문화재', '역사속']",https://cdn.visitkorea.or.kr/img/call?cmd=VIEW&id=null&thumb,전라북도 임실군 지사면 원산3길 1-22,35.5872486,127.35931229999998
덕유산국립공원,전북 무주군,063-322-3174,"['관광지', '눈꽃&설경여행', '덕유산국립공원', '레포츠체험', '무주구천동', '무주리조트']",https://cdn.visitkorea.or.kr/img/call?cmd=VIEW&id=ba5c335c-84c8-4e33-9014-49835f64a986&thumb,전라북도 무주군 설천면 구천동1로 159,35.900655900000004,127.7751251
"덕유산국립공원(본소,적상분소)",전북 무주군,063-322-3174,"['가족여행', '관광지', '꽃여행', '덕유산국립공원', '등산', '등산로', '아이와함께']",https://cdn.visitkorea.or.kr/img/call?cmd=VIEW&id=7fbb4931-51a1-4313-9f32-d2f67eef2fb7&thumb,전라북도 무주군 설천면 구천동1로 159,35.900655900000004,127.7751251
덕음암(남원),전북 남원시,063-625-5333,"['관광지', '불교', '불교문화', '사찰', '사찰여행', '역사', '자연속으로', '자연환경']",https://cdn.visitkorea.or.kr/img/call?cmd=VIEW&id=null&thumb,전라북도 남원시 소리길 122-24,35.405716399999996,127.39140729999998
덕재산,전북 임실군,063-640-2474,"['관광지', '자연']",https://cdn.visitkorea.or.kr/img/call?cmd=VIEW&id=c3e3d050-b2bd-4487-bc88-b67bc45b143d&thumb,전라북도 임실군 성수면 봉강리,35.5948591,127.32986709999999
덕진공원,전북 전주시,063-239-2607,"['가족여행', '걷기여행', '관광지', '나들이', '덕진공원', '사계절', '아이와함께']",https://cdn.visitkorea.or.kr/img/call?cmd=VIEW&id=b69754bb-9bfa-4fbd-9e91-fe349a5b918f&thumb,전라북도 전주시 덕진구 권삼득로 390,35.848036799999996,127.12221240000001
덕천서원,전북 무주군,1899-8687,"['관광지', '덕천서원', '역사', '역사공부', '역사관광지', '역사를품은곳', '역사문화재']",https://cdn.visitkorea.or.kr/img/call?cmd=VIEW&id=b1a5019d-802c-4b8d-975f-6a9676a88cf7&thumb,전라북도 무주군 설천면 이남3길 18-5,35.9964941,127.80122649999998
덕태산,전북 진안군,063-430-2443,"['관광지', '자연']",https://cdn.visitkorea.or.kr/img/call?cmd=VIEW&id=null&thumb,전라북도 진안군 백운면 백운동로 401-109,35.6890439,127.4408328
데미샘,전북 진안군,063-290-6993,"['관광지', '자연발생', '자연속으로', '자연여행', '자연좋은곳', '자연풍경', '자연환경']",https://cdn.visitkorea.or.kr/img/call?cmd=VIEW&id=ecefb2a6-5aa4-4dce-ad6c-f436fa3b031d&thumb,전라북도 진안군 백운면 데미샘1길,35.64859379999999,127.4549625
도계서원,전북 정읍시,063-539-5184,"['관광지', '역사', '역사공부', '역사관광', '역사관광지', '역사를품은곳', '역사문화재']",https://cdn.visitkorea.or.kr/img/call?cmd=VIEW&id=d8b7af50-b28f-4ac7-80cf-3e444fa81d08&thumb,전라북도 정읍시 덕천면 도계1길 34-13,35.6383147,126.8123967
도덕폭포,전북 정읍시,063-538-7875,"['관광지', '자연']",https://cdn.visitkorea.or.kr/img/call?cmd=VIEW&id=283d9a1c-6c9f-4ff6-8756-d860b9c06e1f&thumb,전북 정읍시 내장동,35.495437700000004,126.9138423
도동서원(고창),전북 고창군,063-560-2943,"['관광지', '역사', '역사공부', '역사관광', '역사관광지', '역사를품은곳', '역사문화']",https://cdn.visitkorea.or.kr/img/call?cmd=VIEW&id=71d1b10a-3b4b-4288-91ae-11ccce9ad991&thumb,전라북도 고창군 신림면 가평1길 64,35.4780589,126.7420257
도산서당,전북 고창군,063-560-2943,"['관광지', '역사', '역사공부', '역사관광지', '역사를품은곳', '역사문화재', '역사속']",https://cdn.visitkorea.or.kr/img/call?cmd=VIEW&id=ee4c54e2-f99f-4694-a9dc-82c7cc7f08da&thumb,전라북도 고창군 고창읍 도산1길 4,35.439687400000004,126.66094840000002
도산서원,전북 무주군,1899-8687,"['관광지', '역사', '역사공부', '역사관광지', '역사를품은곳', '역사문화재', '역사속']",https://cdn.visitkorea.or.kr/img/call?cmd=VIEW&id=1448394b-63c3-4dc2-a104-9280adff5fb2&thumb,전라북도 무주군 안성면 사전1길 24-13,35.871873799999996,127.6684511
도솔계곡(선운산),전북 고창군,063-560-8681,"['가족여행', '관광지', '도솔계곡', '여름가볼만한곳', '여름여행', '자연', '전라권']",https://cdn.visitkorea.or.kr/img/call?cmd=VIEW&id=5fef2fdb-2c27-47ca-8927-be9624fe7b4e&thumb,전라북도 고창군 아산면 선운사로 250,35.4969385,126.57822549999999
도솔암(고창),전북 고창군,063-564-2861,"['가족여행', '관광지', '도솔암(고창)', '불교', '불교문화', '사찰', '사찰&산사', '사찰여행']",https://cdn.visitkorea.or.kr/img/call?cmd=VIEW&id=b80b0dcc-1e2a-4c2c-9f38-019fc13d7971&thumb,전라북도 고창군 아산면 도솔길 294,35.4811289,126.563993
도암서원,전북 장수군,063-350-2326,"['관광지', '역사', '역사공부', '역사관광지', '역사를품은곳', '역사문화재', '역사속']",https://cdn.visitkorea.or.kr/img/call?cmd=VIEW&id=28b1664e-d10e-4b02-a016-a71f6b6dfd0f&thumb,전라북도 장수군 장계면 서변길 49-27,35.7389527,127.5905586
도암서원,전북 고창군,063-560-2943,"['관광지', '교과서속여행', '도암서원', '서원', '역사', '역사공부', '역사관광지']",https://cdn.visitkorea.or.kr/img/call?cmd=VIEW&id=2c6072d2-e10e-449a-8e3f-ab570e460967&thumb,전라북도 고창군 공음면 갑촌길 20,35.3773494,126.50684709999999
동고사(전주),전북 전주시,063-288-1626,"['관광지', '동고사', '불교문화', '사찰', '사찰여행', '역사', '연중무휴', '자연속으로']",https://cdn.visitkorea.or.kr/img/call?cmd=VIEW&id=709ab9c5-15d2-4302-bd1c-cefde858cd0a&thumb,전라북도 전주시 완산구 낙수정2길 103-100,35.8097395,127.16784229999999
동고산성,전북 전주시,063-281-5361,"['관광지', '역사', '역사공부', '역사를품은곳', '역사문화재', '역사속', '역사속으로']",https://cdn.visitkorea.or.kr/img/call?cmd=VIEW&id=1ee87ffd-2dcb-4b31-acab-b3cd051ad321&thumb,전라북도 전주시 완산구 대성동,35.7930023,127.1749153
동국사(군산),전북 군산시,063-462-5366,"['가족여행', '관광지', '동국사', '등록문화재', '사찰&산사', '역사', '역사공부']",https://cdn.visitkorea.or.kr/img/call?cmd=VIEW&id=7e185aba-8bc8-4abf-a6f5-14050cb363c3&thumb,전라북도 군산시 동국사길 16,35.9827115,126.7076657
동락원,전북 전주시,063-285-3490,"['가족여행', '관광지', '동락원', '이색체험', '전라권', '전통공예', '전통한옥', '체험']",https://cdn.visitkorea.or.kr/img/call?cmd=VIEW&id=b466b9ff-200b-4ebb-89fe-6a94a51e19c4&thumb,전라북도 전주시 완산구 은행로 33-6,35.8168033,127.15277090000001
동리국악당,전북 고창군,063-560-8065,"['공연장', '기차여행', '나들이', '동리국악당', '문화시설', '아이와함께', '예술']",https://cdn.visitkorea.or.kr/img/call?cmd=VIEW&id=7c79f445-fe34-4b67-b358-dad47dfb4a1f&thumb,전라북도 고창군 고창읍 읍내리 456-1,35.432156,126.702848
동림저수지,전북 고창군,063-560-2454,"['걷기길', '겨울방학가볼만한곳', '관광지', '동림저수지', '생태관광', '생태관광지']",https://cdn.visitkorea.or.kr/img/call?cmd=VIEW&id=f7b5f14f-8b4f-46ce-9d36-f4ad9520ff39&thumb,전라북도 고창군 성내면 신성리,35.5514831,126.73372109999998
동상운장산계곡,전북 완주군,063-290-2724,"['가족여행', '관광지', '동상운장산계곡', '아이와함께', '여름방학가볼만한곳']",https://cdn.visitkorea.or.kr/img/call?cmd=VIEW&id=310cd97b-f08f-4373-b702-c0a62ca467f4&thumb,전라북도 완주군 동상면 대아리,35.9796908,127.296062
동죽서원,전북 정읍시,063-539-5184,"['가족여행', '관광지', '교과서속여행', '동죽서원', '아이와함께', '역사', '역사공부']",https://cdn.visitkorea.or.kr/img/call?cmd=VIEW&id=5a810a62-5960-4e80-bbc3-e53c66b0618e&thumb,전라북도 정읍시 덕천면 학전길 32-57,35.6138571,126.81525719999999
동편제탯자리,전북 남원시,063-620-6172,"['가족과함께', '관광지', '교과서속여행', '동편제탯자리', '비전마을', '아이와함께']",https://cdn.visitkorea.or.kr/img/call?cmd=VIEW&id=4fcb49b5-705e-4d7c-9ad7-a1fb24fd000c&thumb,전라북도 남원시 운봉읍 비전길 7,35.457776700000004,127.5626788
동학농민혁명기념관,전북 정읍시,063-536-1894,"['가족여행', '겨울방학가볼만한곳', '교과서속여행', '기념관', '동학농민운동']",https://cdn.visitkorea.or.kr/img/call?cmd=VIEW&id=65edfd4a-39b4-4155-b4c1-f57ff3919b9f&thumb,전라북도 정읍시 덕천면 동학로 742,35.63370584,126.8301188
동학혁명기념관,전북 전주시,063-231-3219,"['기념관', '동학혁명기념관', '문화시설', '전라권']",https://cdn.visitkorea.or.kr/img/call?cmd=VIEW&id=e7d2413b-550f-42f4-8415-e84bf25a57f0&thumb,전라북도 전주시 완산구 은행로 34,35.81688691,127.1520028
동호해수욕장,전북 고창군,063-560-2646,"['가족여행', '관광지', '동호해수욕장', '여름가볼만한곳', '여름여행', '연중무휴']",https://cdn.visitkorea.or.kr/img/call?cmd=VIEW&id=07c52324-95d4-49a4-aa64-99506f3af6d4&thumb,전라북도 고창군 해리면 동호리,35.5090529,126.48892450000001
되재성당,전북 완주군,063-290-2114,"['관광지', '역사공부', '역사관광지', '역사를품은곳', '역사문화재', '역사속', '역사속으로']",https://cdn.visitkorea.or.kr/img/call?cmd=VIEW&id=c93f9657-fa6a-4a60-b3e1-719eb771a74f&thumb,전라북도 완주군 화산면 승치리,36.07194129999999,127.21745390000001
두곡서원(김제),전북 김제시,063-540-3882,"['관광지', '역사', '역사공부', '역사관광지', '역사를품은곳', '역사문화재', '역사속']",https://cdn.visitkorea.or.kr/img/call?cmd=VIEW&id=58d67bbf-9345-4489-9444-625b8bb168b6&thumb,전라북도 김제시 진봉면 심포9길 31,35.8565391,126.7159165
두남천,전북 진안군,063-430-8344,"['관광지', '자연']",https://cdn.visitkorea.or.kr/img/call?cmd=VIEW&id=94cdff72-244f-4d04-b24e-9d27ed764bfc&thumb,전북 진안군 부귀면 두남리 170,35.84297720000001,127.4170879
두동교회 구본당,전북 익산시,063-861-0348,"['가족여행', '관광지', '두동교회구본당', '역사', '역사공부', '역사관광지', '역사를품은곳']",https://cdn.visitkorea.or.kr/img/call?cmd=VIEW&id=6c0f5dff-fb46-447f-80f0-1c13edf4d600&thumb,전라북도 익산시 성당면 두동길 17-1,36.103527299999996,126.9206383
두동편백나무숲,전북 익산시,063-862-8600,"['관광지', '두동편백나무숲', '자연', '전라권', '휴양여행', '힐링']",https://cdn.visitkorea.or.kr/img/call?cmd=VIEW&id=cbd55416-6abb-45ba-bd00-604b69732016&thumb,전라북도 익산시 성당면 두동길 15,36.1037307,126.9214085
두승산,전북 정읍시,063-539-5231,"['관광지', '자연']",https://cdn.visitkorea.or.kr/img/call?cmd=VIEW&id=null&thumb,전라북도 정읍시 흑암신흥길 62-3,35.602897600000006,126.8076229
두암서원,전북 정읍시,063-539-5184,"['관광지', '역사', '역사공부', '역사관광지', '역사를품은곳', '역사문화재', '역사속']",https://cdn.visitkorea.or.kr/img/call?cmd=VIEW&id=undefined&thumb,전라북도 정읍시 소성면 보애길 368,35.5251239,126.7729178
두포갯벌체험장,전북 부안군,063-581-5114,"['가족체험', '갯벌', '갯벌체험', '갯벌체험장', '관광지', '생태학습', '아이와함께']",https://cdn.visitkorea.or.kr/img/call?cmd=VIEW&id=22777a92-5d8b-4ca3-b8d7-1527c7882c6b&thumb,전라북도 부안군 변산면 도청두포길 13,35.6042505,126.47996
뜬봉샘 생태관광지,전북 장수군,063-353-7002,"['가족과함께', '관광지', '교육여행', '뜬봉샘', '산책하기', '산책하기좋은곳', '생태여행']",https://cdn.visitkorea.or.kr/img/call?cmd=VIEW&id=cf45a8a9-ecd1-457a-bdb8-ae518cd96cf3&thumb,전라북도 장수군 장수읍 물뿌랭이길 10-18,35.5921239,127.50136029999999
라제통문,전북 무주군,063-322-2905,"['가족여행', '관광지', '라제통문', '역사관광지', '전라권', '통일문']",https://cdn.visitkorea.or.kr/img/call?cmd=VIEW&id=6bc76710-cc32-4555-97ac-210f00f220bc&thumb,전라북도 무주군 설천면 라제통문로,35.9926686,127.81062720000001
렛츠고스키샵,전북 무주군,063-322-5800,"['겨울스포츠', '레포츠', '복합레저스포츠', '스키대여', '스키렌탈', '스키샵', '익스트림스포츠']",https://cdn.visitkorea.or.kr/img/call?cmd=VIEW&id=cbdaa736-cb1f-4445-b444-624691703961&thumb,전라북도 무주군 설천면 만선로 84,35.90595360000001,127.7551551
루이엘모자박물관,전북 전주시,063-283-5454,"['루이엘모자박물관', '문화시설', '문화체험', '복합문화공간', '아이와 함께']",https://cdn.visitkorea.or.kr/img/call?cmd=VIEW&id=e4899f8d-5bc7-4773-8eeb-20eccede1562&thumb,전라북도 전주시 완산구 전동성당길 8,35.81852909,127.1484802
리틀프린스 스키샵,전북 무주군,063-322-0873,"['레포츠', '복합레저스포츠', '스키대여', '스키렌탈', '스키샵', '스포츠체험', '익스트림스포츠']",https://cdn.visitkorea.or.kr/img/call?cmd=VIEW&id=df4ec33b-a154-4458-a3bd-f2f3133985dc&thumb,전라북도 무주군 설천면 만선로 34-1,35.9104263,127.7557452
마동도서관,전북 익산시,063-859-3465,"['도서', '도서관', '독서', '무장애', '문화시설', '익산', '전라북도', '평생교육']",https://cdn.visitkorea.or.kr/img/call?cmd=VIEW&id=f27164c4-68d8-4fa3-baee-e15f25284c6e&thumb,전라북도 익산시 선화1로 99,35.94007131,126.9686914
마이돈테마공원,전북 진안군,063-430-2651,"['관광지', '남녀노소', '사진찍기좋은곳', '산책하기좋은곳', '아이와함께', '이색체험']",https://cdn.visitkorea.or.kr/img/call?cmd=VIEW&id=11f987f7-3f96-41ec-b0e2-9113141c7717&thumb,전라북도 진안군 진안읍 마이산로 130,35.7735489,127.4165262
마이산 미로공원,전북 진안군,063-430-8751,['관광지'],https://cdn.visitkorea.or.kr/img/call?cmd=VIEW&id=d8e9fd64-9f7c-4fa9-8d2d-53d940f094b4&thumb,전라북도 진안군 진안읍 단양리,35.771244700000004,127.4211188
마이산 벚꽃길,전북 진안군,063-430-2114,"['관광지', '드라마촬영지', '마이산벚꽃길', '봄꽃여행', '산책로', '전라권']",https://cdn.visitkorea.or.kr/img/call?cmd=VIEW&id=7094c943-915f-4f96-8312-ad43f9d7856a&thumb,전라북도 진안군 마령면 동촌리,35.7476111,127.39094650000001
마이산 신제,전북 진안군,063-430-2114,"['관광지', '마이산', '역사', '역사공부', '역사를품은곳', '역사문화재', '역사속']",https://cdn.visitkorea.or.kr/img/call?cmd=VIEW&id=37008867-346f-4711-8a98-b1ea5beb553f&thumb,전라북도 진안군 마령면 마이산남로,35.756220299999995,127.4012561
마이산 타포니지형,전북 진안군,063-430-8751,"['관광지', '마이산', '자연발생', '자연속으로', '자연여행', '자연좋은곳', '자연풍경']",https://cdn.visitkorea.or.kr/img/call?cmd=VIEW&id=0e93f714-086a-4b76-9444-7468162d4051&thumb,전라북도 진안군 진안읍 마이산로 255,35.7663331,127.41511170000001
마이산 탑사,전북 진안군,063-433-0012,"['가족여행', '경치좋은곳', '관광지', '마이산탑사', '불교', '불교문화', '사찰여행']",https://cdn.visitkorea.or.kr/img/call?cmd=VIEW&id=b3cfe1cc-d6a9-4994-b7fe-b57a65a946eb&thumb,전라북도 진안군 마령면 마이산남로 367,35.7584764,127.41126899999999
마이산 화엄굴,전북 진안군,063-430-8751,"['관광지', '동굴', '마이산화엄굴', '미세먼지탈출_이색동굴여행', '자연', '전라권']",https://cdn.visitkorea.or.kr/img/call?cmd=VIEW&id=d93a61b4-95b9-4cb0-8a81-ee9e11f83453&thumb,전라북도 진안군 마령면 마이산남로 367,35.7584764,127.41126899999999
마이산도립공원,전북 진안군,063-430-8751,"['가족여행', '관광지', '꽃여행', '등산', '등산로', '마이산도립공원', '아이와함께']",https://cdn.visitkorea.or.kr/img/call?cmd=VIEW&id=89f4987f-ce6d-4160-a08b-b449d3d6a9db&thumb,전라북도 진안군 진안읍 마이산로 255,35.7663331,127.41511170000001
마이산홍삼족욕카페,전북 진안군,063-433-0643,"['건강여행', '관광지', '남녀노소', '마이산', '이색체험', '족욕체험', '진안홍삼']",https://cdn.visitkorea.or.kr/img/call?cmd=VIEW&id=64f58b97-f1da-4b69-8c79-16e387766faa&thumb,전라북도 진안군 진안읍 마이산로 130,35.7735489,127.4165262
마한관,전북 익산시,063-859-4633,"['교과서속여행', '마한관', '문화시설', '박물관', '아이와함께', '전라권', '전시관']",https://cdn.visitkorea.or.kr/img/call?cmd=VIEW&id=d69bf941-5288-48d4-8dd5-186df1072b7e&thumb,전라북도 익산시 금마면 고도9길 41-14,36.00153176,127.0570709
만경강,전북 익산시,063-840-3221,"['관광지', '자연']",https://cdn.visitkorea.or.kr/img/call?cmd=VIEW&id=b8fb20f7-de54-40c5-85ef-c42bca2df545&thumb,전라북도 익산시 춘포면 만경강길 905,35.8989883,127.0258058
만경지(능제저수지),전북 김제시,063-540-4601,"['낚시', '레포츠', '만경', '연안', '저수지']",https://cdn.visitkorea.or.kr/img/call?cmd=VIEW&id=98946beb-017b-4117-94bf-4e2b992d80cd&thumb,전라북도 김제시 만경읍 장산리,35.85102720000001,126.83413429999999
만경향교,전북 김제시,063-540-3882,"['관광지', '만경향교', '문화재', '역사', '역사공부', '역사관광지', '역사문화재']",https://cdn.visitkorea.or.kr/img/call?cmd=VIEW&id=4f307b4a-d976-48a0-964d-53785b5f8dd2&thumb,전라북도 김제시 만경읍 두내산1길 25-10,35.854187700000004,126.8208133
만덕산,전북 완주군,063-290-3930,"['관광지', '자연']",https://cdn.visitkorea.or.kr/img/call?cmd=VIEW&id=undefined&thumb,"전라북도 완주군 소양면 신촌, 상관면 마치리",35.806918200000005,127.2808321
만돌갯벌체험학습장,전북 고창군,063-561-0705,"['갯벌체험', '관광지', '만돌갯벌체험학습장', '아이와함께', '어촌', '어촌마을']",https://cdn.visitkorea.or.kr/img/call?cmd=VIEW&id=bd6e0d94-0b32-4479-8ecb-2368fd9a1b18&thumb,전라북도 고창군 심원면 애향갯벌로 320,35.5301843,126.5150781
만석보지,전북 정읍시,063-539-5184,"['관광지', '기념물', '만석보지', '역사', '역사공부', '역사관광지', '역사를품은곳']",https://cdn.visitkorea.or.kr/img/call?cmd=VIEW&id=d96e5b55-e354-4b05-9b5f-a2279702c8a8&thumb,전라북도 정읍시 이평면 하송리,35.678195200000005,126.8537888
만석보혁파비,전북 정읍시,063-539-5184,"['관광지', '만석보혁파비', '역사', '역사공부', '역사관광지', '역사를품은곳', '역사문화재']",https://cdn.visitkorea.or.kr/img/call?cmd=VIEW&id=51c52340-91d2-449a-b7e9-3438819298b3&thumb,전라북도 정읍시 이평면 하송리,35.678195200000005,126.8537888
만일사(순창),전북 순창군,063-653-5283,"['가족여행', '관광지', '만일사', '불교', '불교사찰', '사찰', '역사', '역사관광지']",https://cdn.visitkorea.or.kr/img/call?cmd=VIEW&id=251ca4cf-6bd3-4232-9044-3ea7d0e47320&thumb,전라북도 순창군 구림면 안심길 103-134,35.486092600000006,127.11781770000002
만취정,전북 임실군,063-640-2114,"['관광지', '역사', '역사공부', '역사관광지', '역사를품은곳', '역사문화재', '역사속']",https://cdn.visitkorea.or.kr/img/call?cmd=VIEW&id=6b636662-269d-4477-a213-a12bbebc17e2&thumb,전라북도 임실군 삼계면 산수1길 62,35.4798011,127.2791896
만화서원,전북 고창군,063-560-2943,"['관광지', '교과서속여행', '만화서원', '서원', '역사', '역사공부', '역사관광지']",https://cdn.visitkorea.or.kr/img/call?cmd=VIEW&id=98afc837-3be4-44ef-a5a6-ad2ec15b188c&thumb,전라북도 고창군 신림면 만화길 50,35.4934308,126.70874309999999
말도 등대,전북 군산시,063-453-4986,"['관광지', '자연']",https://cdn.visitkorea.or.kr/img/call?cmd=VIEW&id=null&thumb,전라북도 군산시 옥도면 말도2길 29,35.8581463,126.315164
말목장터와 감나무,전북 정읍시,063-539-5184,"['감나무', '관광지', '동학농민운동', '말목장터', '말목장터와감나무', '역사', '역사공부']",https://cdn.visitkorea.or.kr/img/call?cmd=VIEW&id=e853a02f-86f3-47e5-9c6f-137ec4498daf&thumb,전라북도 정읍시 이평면 두자리,35.657435,126.8382328
망모당,전북 익산시,063-859-5792,"['관광지', '역사', '역사공부', '역사관광지', '역사를품은곳', '역사문화재', '역사속']",https://cdn.visitkorea.or.kr/img/call?cmd=VIEW&id=eda8be9e-ea41-488e-b67c-34abba3dbda5&thumb,전라북도 익산시 왕궁면 장중길 105-8,35.9688027,127.0941887
망부상과 정읍사,전북 정읍시,063-539-5193,"['가요', '공원', '관광지', '망부상', '백제', '산책하기좋은곳', '아이와함께', '역사공부']",https://cdn.visitkorea.or.kr/img/call?cmd=VIEW&id=4163350f-95ca-4e28-a4b1-01758f9e9f70&thumb,전라북도 정읍시 정읍사로 541,35.550929700000005,126.86170919999999
망제동석불입상(대암석불),전북 정읍시,063-539-5184,"['관광지', '대암석불', '망제동석불입상', '역사', '역사관광지', '역사를품은곳']",https://cdn.visitkorea.or.kr/img/call?cmd=VIEW&id=c8d8294e-629d-4fda-873a-d3504397bd57&thumb,전라북도 정읍시 망제동 보화리,35.6059364,126.8427852
망해사(김제),전북 김제시,063-545-4356,"['관광지', '불교', '불교사찰', '사찰', '사찰여행', '역사', '자연속으로', '자연좋은곳']",https://cdn.visitkorea.or.kr/img/call?cmd=VIEW&id=268ee452-e1d9-4621-ab60-3be18f2be717&thumb,전라북도 김제시 진봉면 심포10길 94,35.859619099999996,126.71553689999999
매계서원,전북 남원시,063-620-6172,"['관광지', '역사', '역사공부', '역사관광지', '역사를품은곳', '역사문화재', '역사속']",https://cdn.visitkorea.or.kr/img/call?cmd=VIEW&id=undefined&thumb,전라북도 남원시 사매면 세동길 13-7,35.482496399999995,127.364221
매월당,전북 남원시,063-636-1278,"['가족과함께', '관광지', '녹차', '이색체험', '차문화', '차문화체험', '체험프로그램']",https://cdn.visitkorea.or.kr/img/call?cmd=VIEW&id=346e5d22-a268-477d-a57a-0ba83db65f09&thumb,전라북도 남원시 금지면 매촌길 47-34,35.3487386,127.2729395
매창공원,전북 부안군,063-580-4434,"['가족여행', '걷기길', '걷기여행', '관광지', '매창공원', '사계절', '산책코스', '산책하기좋은곳']",https://cdn.visitkorea.or.kr/img/call?cmd=VIEW&id=988c2401-85dd-43bf-971b-1c8ced3207c4&thumb,전라북도 부안군 부안읍 매창로 89,35.7193444,126.7287846
명봉도서관,전북 정읍시,063-534-8261,"['남녀노소', '독서여행', '독서회', '문화시설', '복합문화공간', '열린문화공간']",https://cdn.visitkorea.or.kr/img/call?cmd=VIEW&id=b8151046-3c16-4de9-8aa2-9d5e342c8022&thumb,전라북도 정읍시 태인면 태인로 33-9,35.65234123,126.9421853
명사십리 및 구시포 (전북 서해안권 국가지질공원),전북 고창군,063-560-2699,"['관광지', '국가지질공원', '자연', '자연발생', '자연속으로', '자연여행', '자연좋은곳']",https://cdn.visitkorea.or.kr/img/call?cmd=VIEW&id=39d8002b-9abd-47be-b6e0-5252e155e08c&thumb,전라북도 고창군 상하면 진암구시포로 545,35.445516999999995,126.4357139
모덕사(김제),전북 김제시,063-540-3882,"['관광지', '불교', '불교문화', '사찰', '사찰여행', '역사', '자연속으로', '자연환경']",https://cdn.visitkorea.or.kr/img/call?cmd=VIEW&id=null&thumb,전라북도 김제시 입석7길 73-21,35.7891203,126.86658329999999
모악산,전북 완주군,063-290-2752,"['관광지', '자연']",https://cdn.visitkorea.or.kr/img/call?cmd=VIEW&id=1923a923-d89b-4cb5-a856-581e6876050d&thumb,전라북도 완주군 구이면,35.731891499999996,127.1209314
모악산도립공원,전북 김제시,063-540-4194,"['가족여행', '관광지', '등산', '모악산도립공원', '생태관광', '자연', '자연좋은곳']",https://cdn.visitkorea.or.kr/img/call?cmd=VIEW&id=30154cb5-cbaa-4c6c-a478-21314f8faf80&thumb,전라북도 김제시 금산면 모악15길,35.7228416,127.06736699999999
모항갯벌체험장,전북 부안군,063-584-7788,"['가족과함께', '가족휴양', '갯벌체험', '갯벌체험장', '관광지', '바다여행', '바다풍경']",https://cdn.visitkorea.or.kr/img/call?cmd=VIEW&id=962d97bc-b590-4242-9c6c-c6b808364f56&thumb,전라북도 부안군 변산면 모항길 107,35.58721679999999,126.5138679
모항어촌체험마을,전북 부안군,063-584-7788,"['가족여행', '경치좋은곳', '관광지', '모항어촌체험마을', '아이와함께', '어촌체험']",https://cdn.visitkorea.or.kr/img/call?cmd=VIEW&id=28076ff4-2e57-4a7b-a90b-0e0d6d449a0e&thumb,전라북도 부안군 변산면 모항길 107,35.58721679999999,126.5138679
모항해수욕장,전북 부안군,063-580-4413,"['관광지', '모항해수욕장', '바다풍경', '여름휴가', '자연', '전라권', '친구와함께']",https://cdn.visitkorea.or.kr/img/call?cmd=VIEW&id=dc743082-598f-49c7-b9ef-c45ed6f1f5a9&thumb,전라북도 부안군 변산면 모항길 23-1,35.5831428,126.5083087
모현동 부도,전북 익산시,063-859-5792,"['관광지', '역사', '역사공부', '역사를품은곳', '역사문화재', '역사속', '역사속으로']",https://cdn.visitkorea.or.kr/img/call?cmd=VIEW&id=null&thumb,전라북도 익산시 군익로11길 29-11,35.94433,126.936704
목우헌,전북 전주시,063-286-9285,"['목공예공방', '목우헌', '문화시설', '장인의숨결', '전라북도', '전주시', '전통공예']",https://cdn.visitkorea.or.kr/img/call?cmd=VIEW&id=f8666a55-9232-4c55-8539-d7e140099f28&thumb,전라북도 전주시 완산구 기린대로 88,35.81709624,127.1549986
무녀도‧선유도,전북 군산시,063-454-7285,"['2020_휴가철찾아가고싶은_33섬', '가족과함께', '경치좋은곳', '관광지', '무녀도']",https://cdn.visitkorea.or.kr/img/call?cmd=VIEW&id=f524198f-8166-4a41-837b-bf87b9b4a433&thumb,전라북도 군산시 옥도면,35.670962200000005,126.49654109999999
무병장수마을,전북 장수군,063-352-1104,"['관광지', '산책길', '산책하기', '산책하기좋은곳', '자연경관', '자연마을', '자연좋은곳']",https://cdn.visitkorea.or.kr/img/call?cmd=VIEW&id=ae693ed8-e252-4249-be9e-e789737e5f57&thumb,전라북도 장수군 계북면 토옥동로 114,35.8065131,127.6397363
무성서원 [유네스코 세계문화유산],전북 정읍시,063-539-5184,"['가족여행', '관광지', '교과서속여행', '무성서원', '문화재', '아이와함께', '역사']",https://cdn.visitkorea.or.kr/img/call?cmd=VIEW&id=7b2f4e06-b062-4d34-8669-1a016ea5912d&thumb,전라북도 정읍시 칠보면 원촌1길 44-12,35.601777899999995,126.983951
무장향교,전북 고창군,063-560-2943,"['관광지', '교과서속여행', '무장향교', '역사', '역사공부', '역사관광지', '역사를품은곳']",https://cdn.visitkorea.or.kr/img/call?cmd=VIEW&id=1fc320a3-6c92-476d-a9d4-090717403756&thumb,전라북도 고창군 무장면 교흥교촌길 9,35.4276881,126.5661206
무장향교 대성전,전북 고창군,063-560-2943,"['관광지', '교과서속여행', '무장향교대성전', '역사', '역사공부', '역사관광지']",https://cdn.visitkorea.or.kr/img/call?cmd=VIEW&id=96afa51b-c3dc-4b00-9f2a-af371be086a4&thumb,전라북도 고창군 무장면 교흥교촌길 9,35.4276881,126.5661206
무주 구천동 33경,전북 무주군,063-320-2537,"['가을여행', '겨울여행', '관광지', '단풍여행', '무주구천동33경', '사계절', '여름여행']",https://cdn.visitkorea.or.kr/img/call?cmd=VIEW&id=e1623ca0-45cc-4112-924a-1ee04aec3b68&thumb,전라북도 무주군 설천면 백련사길 580,35.860082,127.76630990000001
무주 구천동 관광특구,전북 무주군,063-320-2114,"['가족여행', '걷기길', '걷기여행', '관광지', '무주구천동관광특구', '사계절', '아이와함께']",https://cdn.visitkorea.or.kr/img/call?cmd=VIEW&id=ef380e98-1ce3-4ea8-aef3-b6aecfd439a8&thumb,전북 무주군,36.0068191,127.66078049999999
무주 금척마을(금자마을),전북 무주군,063-324-4401,"['관광지', '농촌체험', '농촌체험여행', '시골여행', '자연마을', '자연풍경', '자연환경']",https://cdn.visitkorea.or.kr/img/call?cmd=VIEW&id=8d730772-f985-4858-83a3-ff25c3d02ed3&thumb,전라북도 무주군 무풍면 탄방로 181,35.968346399999994,127.87480320000002
무주 무풍승지마을,전북 무주군,063-324-5129,"['가족체험', '건강여행', '관광지', '농촌마을', '농촌여행', '농촌체험', '농촌체험마을']",https://cdn.visitkorea.or.kr/img/call?cmd=VIEW&id=7f986b8d-cb93-447b-8638-662f556244d1&thumb,전라북도 무주군 무풍면 철목길 61,35.9604931,127.83996709999998
무주 반디랜드,전북 무주군,063-324-1155,"['가족여행', '과학관', '관광지', '나들이', '데이트코스', '무주반디랜드', '박물관']",https://cdn.visitkorea.or.kr/img/call?cmd=VIEW&id=3637c231-4ee4-432f-a5cb-71448fe4eb39&thumb,전라북도 무주군 설천면 무설로 1324,36.0111137,127.758702
무주 산골영화관,전북 무주군,063-322-7053,"['남녀노소', '무주가볼만한곳', '무주여행', '문화시설', '복합문화공간', '아이와함께']",https://cdn.visitkorea.or.kr/img/call?cmd=VIEW&id=4089b136-2292-4c5a-b894-8d02b3dbe2cb&thumb,전라북도 무주군 무주읍 한풍루로 326-17,36.00236088,127.6625288
무주 삼공리 반송,전북 무주군,063-320-2542,"['관광지', '무주삼공리반송', '자연', '전라권', '천연기념물']",https://cdn.visitkorea.or.kr/img/call?cmd=VIEW&id=fde47c86-9d2d-4981-bee5-b3c09487efd1&thumb,전라북도 무주군 설천면 삼공리 산31,35.877476,127.77888300000001
무주 신풍령약수터,전북 무주군,063-320-2570,"['관광지', '자연']",https://cdn.visitkorea.or.kr/img/call?cmd=VIEW&id=26acc357-3664-4f74-8b3e-8349c4233dbe&thumb,전라북도 무주군 무풍면 구천동로,35.8918153,127.8162145
무주 적상산성,전북 무주군,063-322-2905,"['관광지', '역사', '역사공부', '역사관광지', '역사를품은곳', '역사문화재', '역사속']",https://cdn.visitkorea.or.kr/img/call?cmd=VIEW&id=e9d21923-0705-42c4-9838-43c6116a75db&thumb,전라북도 무주군 적상면 괴목리,35.9155505,127.71786509999998
무주 지전마을 옛 담장,전북 무주군,1899-8687,"['가족여행', '관광지', '등록문화재', '무주지전마을옛담장', '역사', '역사공부']",https://cdn.visitkorea.or.kr/img/call?cmd=VIEW&id=931acb09-8473-40e6-b812-3a8aea198aea&thumb,전라북도 무주군 설천면,36.0081479,127.7896811
무주 트리스쿨,전북 무주군,063-324-3392,"['가족여행', '관광지', '기차여행', '나들이', '데이트코스', '목공체험', '무주트리스쿨']",https://cdn.visitkorea.or.kr/img/call?cmd=VIEW&id=efea2024-88fd-45a9-805a-ac9ac3836fb7&thumb,전라북도 무주군 무주읍 무주로 1788-9,35.9786521,127.65097709999999
무주 호롱불마을,전북 무주군,063-322-8001,"['가족여행', '관광지', '농촌체험휴양마을', '무주호롱불마을', '자연속으로', '자연여행']",https://cdn.visitkorea.or.kr/img/call?cmd=VIEW&id=496a5bb4-7600-45e8-bd4c-bc49266c685b&thumb,전라북도 무주군 설천면 무설로 682,36.017106899999995,127.71418020000002
무주곤충박물관,전북 무주군,063-324-1155,"['교과서속여행', '무주곤충박물관', '문화시설', '박물관', '아이와함께', '이색체험']",https://cdn.visitkorea.or.kr/img/call?cmd=VIEW&id=66b5db34-20ae-46cd-93ed-3c629999ffef&thumb,전라북도 무주군 설천면 무설로 1324,36.01249047,127.7611881
무주국제화교육센터,전북 무주군,063-323-3345,"['가족과함께', '관광지', '교육', '무주국제화교육센터', '문화공간', '문화교실']",https://cdn.visitkorea.or.kr/img/call?cmd=VIEW&id=e726fc77-5c9c-4043-b960-b5d5058a879c&thumb,전라북도 무주군 무주읍 한풍루로 326-36,36.0022174,127.66410619999999
무주덕유산리조트,전북 무주군,063-322-9000,"['관광지', '무주숙소', '숙박']",https://cdn.visitkorea.or.kr/img/call?cmd=VIEW&id=ab771b70-cbd2-400b-9251-e122910a2be1&thumb,전라북도 무주군 설천면 만선로 185,35.889366700000004,127.7389493
무주덕유산리조트 스키장,전북 무주군,063-322-9000,"['겨울레포츠', '겨울스포츠', '레포츠', '스키대여', '스키장', '스키장', '아이와함께']",https://cdn.visitkorea.or.kr/img/call?cmd=VIEW&id=8927cbb8-3d5b-4eb4-b0d1-5d16b9973f80&thumb,전라북도 무주군 설천면 만선로 185,35.88936670000001,127.7389493
무주덕유산리조트 썰매장,전북 무주군,063-320-7336,"['레포츠', '무주덕유산', '썰매장']",https://cdn.visitkorea.or.kr/img/call?cmd=VIEW&id=6761f453-4f71-4b09-be45-8b5069fde11a&thumb,전라북도 무주군 설천면 만선로 185,35.88936670000001,127.7389493
무주덕유산리조트 야외노천탕&Pool,전북 무주군,063-322-9000,"['가족과함께', '가족힐링', '관광지', '노천탕', '무주덕유산', '무주덕유산리조트']",https://cdn.visitkorea.or.kr/img/call?cmd=VIEW&id=24ac0df5-d2fe-4927-88cd-ecaffbb19065&thumb,전라북도 무주군 설천면 만선로 185,35.889366700000004,127.7389493
무주래프팅,전북 무주군,063-322-7745,"['가족과함께', '래프팅', '레포츠', '여름방학', '여름철', '여름피서지', '여름휴가']",https://cdn.visitkorea.or.kr/img/call?cmd=VIEW&id=95523248-8d70-43b3-a744-fa19148e97e5&thumb,전라북도 무주군 무주읍 잠두길 5-11,35.9978661,127.60720400000001
무주레저스쿨,전북 무주군,063-323-5882,"['래프팅', '레저', '레포츠', '무주', '서바이벌', '스쿨']",https://cdn.visitkorea.or.kr/img/call?cmd=VIEW&id=0df025c7-b297-40c9-8c71-be25f902a577&thumb,전라북도 무주군 부남면 굴암로 263,35.9928121,127.5820307
무주리조트 관광곤도라,전북 무주군,063-320-7381,"['가족여행', '관광지', '나들이', '덕유산', '데이트코스', '등산', '무주리조트관광곤도라']",https://cdn.visitkorea.or.kr/img/call?cmd=VIEW&id=0a1d2b43-38c0-452f-b55a-ae4e26aab372&thumb,전라북도 무주군 설천면 만선로 185,35.889366700000004,127.7389493
무주머루와인동굴,전북 무주군,063-322-4720,"['가족여행', '가족체험여행', '관광지', '머루와인동굴', '무주머루와인동굴', '미세먼지탈출_이색동굴여행']",https://cdn.visitkorea.or.kr/img/call?cmd=VIEW&id=c9b3339d-7e2a-4366-8c21-98d2c87818d4&thumb,전라북도 무주군 적상면 산성로 359,35.9653618,127.69688810000001
무주문화원,전북 무주군,063-324-1300,"['무주문화원', '문화시설', '복합문화공간', '열린문화공간']",https://cdn.visitkorea.or.kr/img/call?cmd=VIEW&id=null&thumb,전라북도 무주군 무주읍 최북로 15,36.0029803,127.6651805
무주반디랜드 반딧불이자연학교,전북 무주군,063-324-1155,"['관광지', '무주반디랜드', '무주반디별천문관', '박물관', '반딧불연구소', '생태관광']",https://cdn.visitkorea.or.kr/img/call?cmd=VIEW&id=3c11f3ef-66d0-458a-9051-35248e74358e&thumb,전라북도 무주군 설천면 무설로 1324,36.0111137,127.758702
"무주반딧불시장(무주반딧불장터) (1, 6일)",전북 무주군,063-324-0692,"['가족여행', '나들이', '나홀로여행', '먹거리', '무주반딧불시장', '무주반딧불장터']",https://cdn.visitkorea.or.kr/img/call?cmd=VIEW&id=1090bf23-7aa2-4810-956c-cd9568f9f2c8&thumb,전라북도 무주군 무주읍 장터로 2,36.00464802,127.653586
무주스키,전북 무주군,063-324-6611,"['겨울스포츠', '레포츠', '무주레저타운', '무주스키', '복합레저스포츠', '스키']",https://cdn.visitkorea.or.kr/img/call?cmd=VIEW&id=51faf3a6-6099-45ae-af89-1ea28c444e64&thumb,전라북도 무주군 설천면 만선로 70,35.9069023,127.75539479999999
무주스키스쿨,전북 무주군,063-324-3141,"['겨울스포츠', '레포츠', '복합레저스포츠', '스키대여', '스키렌탈', '스키샵', '익스트림스포츠']",https://cdn.visitkorea.or.kr/img/call?cmd=VIEW&id=6ffc20e1-7bb9-49cb-82e0-285c78968cce&thumb,전라북도 무주군 설천면 만선로 49,35.9085697,127.75580179999999
무주스키텔 스키샵,전북 무주군,063-322-8900,"['겨울스포츠', '레포츠', '복합레저스포츠', '스키대여', '스키렌탈', '스키샵', '익스트림스포츠']",https://cdn.visitkorea.or.kr/img/call?cmd=VIEW&id=217bc053-35fb-4c5f-be4e-29b38afde24e&thumb,전라북도 무주군 설천면 만선로 36-19,35.9094807,127.75482179999999
무주스피드레져,전북 무주군,063-322-2762,"['래프팅', '레포츠', '무주', '서바이벌', '수상스키', '연수']",https://cdn.visitkorea.or.kr/img/call?cmd=VIEW&id=4f5123d5-63ca-473f-939e-f494049b9bc3&thumb,전라북도 무주군 부남면 잠두강변길 215,36.002694,127.5989158
무주양수홍보관,전북 무주군,070-4000-2141,"['교과서속여행', '무주양수홍보관', '문화시설', '박물관', '사계절', '실내여행지']",https://cdn.visitkorea.or.kr/img/call?cmd=VIEW&id=36f1307a-568f-4849-9584-6ff22b928ad9&thumb,전라북도 무주군 적상면 괴목로 788,35.96693019,127.7124512
무주예체문화관,전북 무주군,063-320-5601,"['가족여행', '기차여행', '나들이', '무주예체문화관', '문화시설', '아이와함께']",https://cdn.visitkorea.or.kr/img/call?cmd=VIEW&id=8d7c9b6e-f379-4ec0-98a2-f8661726b42e&thumb,전라북도 무주군 무주읍 한풍루로 326-17,36.00236088,127.6625288
무주컨트리클럽,전북 무주군,063-322-9000,['레포츠'],https://cdn.visitkorea.or.kr/img/call?cmd=VIEW&id=undefined&thumb,전라북도 무주군 설천면 만선로 185,35.88936670000001,127.7389493
무주한풍루,전북 무주군,1899-8687,"['가족여행', '관광지', '무주한풍루', '역사', '역사공부', '역사관광지', '역사를품은곳']",https://cdn.visitkorea.or.kr/img/call?cmd=VIEW&id=28d3eafc-2657-4a32-a100-ada33a76f0b5&thumb,전라북도 무주군 무주읍 한풍루로 326-5,36.0039619,127.6623673
무주향교,전북 무주군,1899-8687,"['관광지', '역사', '역사공부', '역사관광지', '역사를품은곳', '역사문화재', '역사속']",https://cdn.visitkorea.or.kr/img/call?cmd=VIEW&id=0eaf6602-cc0a-495f-95a1-7094059e9199&thumb,전라북도 무주군 무주읍 단천로 135,36.008156799999995,127.6659746
무풍저수지(민물낚시터),전북 무주군,1899-8687,"['레포츠', '무주낚시터', '민물낚시']",https://cdn.visitkorea.or.kr/img/call?cmd=VIEW&id=undefined&thumb,전라북도 무주군 무풍면 대덕산로 352,35.942565,127.8483837
문덕봉,전북 남원시,063-620-3891,"['관광지', '자연']",https://cdn.visitkorea.or.kr/img/call?cmd=VIEW&id=undefined&thumb,전라북도 남원시 대강면 평촌2길,35.3811821,127.2429668
문수사 목조여래좌상,전북 익산시,063-836-9643,"['관광지', '교과서속여행', '문수사', '문수사목조여래좌상', '불교', '불교문화']",https://cdn.visitkorea.or.kr/img/call?cmd=VIEW&id=526f76f4-c45e-4d38-9fd6-f8b5ceb84bec&thumb,전라북도 익산시 여산면 천호산길 140,36.0425659,127.11788659999999
문수사(고창),전북 고창군,063-562-0502,"['관광지', '불교', '불교사찰', '사찰', '사찰여행', '역사', '자연속으로', '자연좋은곳']",https://cdn.visitkorea.or.kr/img/call?cmd=VIEW&id=db8aadd7-b923-4737-a8c4-1fcb39cc2168&thumb,전라북도 고창군 고수면 칠성길 135,35.3808119,126.7260064
문수사(김제),전북 김제시,063-547-0972,"['관광지', '불교', '불교문화', '사찰', '사찰여행', '역사', '자연속으로', '자연환경']",https://cdn.visitkorea.or.kr/img/call?cmd=VIEW&id=a600f64b-b72a-4695-a52f-6d00ceef71ce&thumb,전라북도 김제시 황산5길 158,35.780729,126.9318324
문수사(익산),전북 익산시,063-836-9643,"['관광지', '불교', '불교문화', '사찰', '사찰여행', '역사', '자연속으로', '자연환경']",https://cdn.visitkorea.or.kr/img/call?cmd=VIEW&id=ec1dd496-cd69-4ab5-8685-406b279b8f67&thumb,전라북도 익산시 여산면 천호산길 140,36.0425659,127.11788659999999
문창서원,전북 군산시,063-454-3921,"['관광지', '문창서원', '역사', '역사공부', '역사관광지', '역사를품은곳', '역사문화재']",https://cdn.visitkorea.or.kr/img/call?cmd=VIEW&id=3b32305c-ac2c-4a99-9429-6449df841588&thumb,전라북도 군산시 옥구읍 광월길 33-50,35.9305628,126.7071797
"문태서, 박춘실 의병대장 전적비",전북 장수군,063-350-2326,"['관광지', '역사', '역사공부', '역사관광지', '역사를품은곳', '역사문화재', '역사속']",https://cdn.visitkorea.or.kr/img/call?cmd=VIEW&id=e4223065-6007-46f6-a10e-45876abdb7d5&thumb,전라북도 장수군 계북면 양악길,35.8089674,127.63561599999998
문팩토리매직 (관광두레 주민사업체),전북 군산시,1899-5968,"['관광두레', '관광두레_주민사업체', '관광지', '남녀노소', '마술공연', '무더위_피해_실내여행']",https://cdn.visitkorea.or.kr/img/call?cmd=VIEW&id=47bd6a1c-224a-418e-9a6f-0d3133e12e70&thumb,전라북도 군산시 동령길 33-1,35.9876333,126.71354040000001
문화공감 곳간(관광두레 주민사업체),전북 익산시,010-5917-3377,"['가족과함께', '관광두레', '관광두레_주민사업체', '관광지', '남녀노소', '아이와함께']",https://cdn.visitkorea.or.kr/img/call?cmd=VIEW&id=e2f317d2-a775-4727-b418-e06740a9a452&thumb,전라북도 익산시 고봉로 279,35.9569778,126.9703314
미당 서정주 생가,전북 고창군,063-580-4711,"['관광지', '역사', '역사공부', '역사관광지', '역사를품은곳', '역사문화재', '역사속']",https://cdn.visitkorea.or.kr/img/call?cmd=VIEW&id=97ee7d21-0ece-4953-8d06-a5ad5dea4604&thumb,전라북도 고창군 부안면 미당길 16,35.53540770000001,126.60806059999999
미당 서정주 시문학관,전북 고창군,063-560-8058,"['가족여행', '교과서속여행', '기념관', '문화시설', '미당서정주시문학관', '사계절']",https://cdn.visitkorea.or.kr/img/call?cmd=VIEW&id=8956f8b4-cb8e-434f-903f-133caaa751cf&thumb,전라북도 고창군 부안면 질마재로 2-8,35.53558993,126.6099252
미륵사지 석등하대석,전북 익산시,063-859-5792,"['관광지', '교과서속여행', '미륵사지', '석등하대석', '아이와함께', '역사', '역사공부']",https://cdn.visitkorea.or.kr/img/call?cmd=VIEW&id=0f6ae91e-4cc7-4234-8649-547a4912c0e3&thumb,전라북도 익산시 금마면 기양리 미륵사지내,36.012325,127.03062220000001
미륵산(익산),전북 익산시,063-859-3825,"['관광지', '자연']",https://cdn.visitkorea.or.kr/img/call?cmd=VIEW&id=97f549cf-71d1-4467-879f-1201100392cb&thumb,전라북도 익산시 금마면 신용리,36.016237,127.05345630000001
미륵암(남원),전북 남원시,063-625-7791,"['관광지', '불교', '불교문화', '사찰', '사찰여행', '역사', '자연속으로', '자연환경']",https://cdn.visitkorea.or.kr/img/call?cmd=VIEW&id=47ead41f-dce4-4f46-95fb-f0535e099ae9&thumb,전라북도 남원시 시묘길 24-35,35.3891277,127.3719222
미륵암(장수),전북 장수군,063-351-3952,"['관광지', '불교', '불교문화', '사찰', '사찰여행', '역사', '자연속으로', '자연환경']",https://cdn.visitkorea.or.kr/img/call?cmd=VIEW&id=null&thumb,전라북도 장수군 산서면 초장길 51-54,35.6034479,127.37898090000002
미륵암석불,전북 남원시,063-620-6172,"['관광지', '미륵암석불', '불상', '역사', '역사공부', '역사를품은곳', '역사문화재']",https://cdn.visitkorea.or.kr/img/call?cmd=VIEW&id=9304cd4e-db55-4c8e-a943-477996e7d6c4&thumb,전라북도 남원시 시묘길 24-35,35.3891277,127.3719222
바래봉,전북 남원시,063-630-8900,"['경치좋은곳', '관광지', '등산객', '등산여행', '등산코스', '바래봉', '사진찍기좋은곳']",https://cdn.visitkorea.or.kr/img/call?cmd=VIEW&id=448d636a-bb3c-4c25-97cc-b89741f75bab&thumb,전라북도 남원시 운봉읍 바래봉길 196,35.4330709,127.5483153
반계선생유적지,전북 부안군,063-580-4711,"['관광지', '반계선생유적지', '역사', '역사공부', '역사관광지', '역사를품은곳']",https://cdn.visitkorea.or.kr/img/call?cmd=VIEW&id=258bf337-f3ab-4a2c-a4b2-f372da2d5bc2&thumb,전라북도 부안군 보안면 반계로 97-68,35.6195552,126.63066570000001
반곡서원(완주),전북 완주군,063-290-2605,"['관광지', '역사', '역사공부', '역사관광지', '역사를품은곳', '역사문화재', '역사속']",https://cdn.visitkorea.or.kr/img/call?cmd=VIEW&id=4214dd26-0602-44d6-9493-f40558b777b0&thumb,전라북도 완주군 비봉면 반곡서원길 52-29,36.0182931,127.18082209999999
반곡서원(진주),전북 전주시,063-281-2166,"['관광지', '반곡서원', '역사', '역사공부', '역사관광지', '역사를품은곳', '역사문화재']",https://cdn.visitkorea.or.kr/img/call?cmd=VIEW&id=9de13353-8376-4e0b-a24a-600f1969149b&thumb,전라북도 전주시 완산구 황학1길 11-24,35.807566200000004,127.15565179999999
반딧불레저,전북 무주군,063-322-6607,"['래프팅', '레저', '레포츠', '모터바이크', '무주군', '서바이벌']",https://cdn.visitkorea.or.kr/img/call?cmd=VIEW&id=fecac0a6-38bb-44c5-b215-03fbb6883558&thumb,전라북도 무주군 부남면 무금로 693,35.999802,127.59791940000001
발산리 육각부도,전북 군산시,063-454-3922,"['관광지', '발산리육각부도', '불교문화', '역사', '역사공부', '역사관광지', '역사문화재']",https://cdn.visitkorea.or.kr/img/call?cmd=VIEW&id=c88e0dba-ae67-441f-a10d-202daebecd0b&thumb,전라북도 군산시 개정면 바르메길 43,35.959030299999995,126.79621780000001
발효소스토굴,전북 순창군,063-650-5438,"['가족과함께', '관광지', '동굴', '순창가볼만한곳', '아이와함께', '이색체험', '자연관광지']",https://cdn.visitkorea.or.kr/img/call?cmd=VIEW&id=641fb2c6-be61-4dac-9cd5-491c773ddf9a&thumb,전라북도 순창군 순창읍 민속마을길 61-59,35.3663605,127.10636299999999
방장산,전북 고창군,063-560-2603,"['관광지', '등산', '방장산', '산', '자연', '전라권', '전망좋은곳']",https://cdn.visitkorea.or.kr/img/call?cmd=VIEW&id=fa6bdb40-70c0-4348-8247-286299aa3840&thumb,전라북도 고창군 신림면 신평리,35.4640617,126.74450590000001
방축도,전북 군산시,063-454-7285,"['관광지', '낚시', '방축도', '섬', '자연', '전라권']",https://cdn.visitkorea.or.kr/img/call?cmd=VIEW&id=c46f48b0-1cc5-45c4-8450-3fafb46c0494&thumb,전라북도 군산시 옥도면 방축도1길 13-1,35.8505637,126.37523859999999
"방화동 자연휴양림,가족휴가촌",전북 장수군,063-350-2474,"['가족과함께', '가족여행', '관광지', '국립청태산자연휴양림', '방화동자연휴양림']",https://cdn.visitkorea.or.kr/img/call?cmd=VIEW&id=2f0ffd18-5fbd-4b53-b3fe-84b57cb2b0e4&thumb,전라북도 장수군 번암면 방화동로 778,35.5928311,127.5285956
백련사(무주),전북 무주군,063-322-3395,"['가족여행', '가족여행', '관광지', '백련사', '불교', '불교문화', '역사', '역사관광지']",https://cdn.visitkorea.or.kr/img/call?cmd=VIEW&id=2ab83fd9-9813-4791-8970-f1ff63fc042f&thumb,전라북도 무주군 설천면 백련사길 580,35.860082,127.76630990000001
백련산,전북 임실군,063-640-2474,"['관광지', '자연']",https://cdn.visitkorea.or.kr/img/call?cmd=VIEW&id=null&thumb,전라북도 임실군 강진면 강진방현길 65,35.5536672,127.1500004
백산서원,전북 김제시,063-540-3882,"['가족여행', '관광지', '교과서속여행', '백산서원', '아이와함께', '역사', '역사공부']",https://cdn.visitkorea.or.kr/img/call?cmd=VIEW&id=26814b29-d7d4-465e-8b0a-89b173c549b7&thumb,전라북도 김제시 백산면 하서3길 84,35.8256186,126.87183490000001
백산서원,전북 익산시,063-859-5792,"['관광지', '역사', '역사공부', '역사관광지', '역사를품은곳', '역사문화재', '역사속']",https://cdn.visitkorea.or.kr/img/call?cmd=VIEW&id=862ed610-59cd-48be-b5ac-cdd85a65e28c&thumb,전라북도 익산시 동서로3길 15,35.959933,126.94634009999999
백산서원,전북 무주군,1899-8687,"['관광지', '역사', '역사공부', '역사관광지', '역사를품은곳', '역사문화재', '역사속']",https://cdn.visitkorea.or.kr/img/call?cmd=VIEW&id=1caf7e24-dd3b-433a-a05b-c1ed85490eba&thumb,전라북도 무주군 무풍면 북리길 40,35.971830700000005,127.84892659999998
백산저수지,전북 김제시,063-540-3991,"['관광지', '자연']",https://cdn.visitkorea.or.kr/img/call?cmd=VIEW&id=6c8cb7ff-6360-43a8-9348-530f01b25a68&thumb,전북 김제시 백산면 하정리,35.84279779999999,126.89447890000001
백석서원,전북 김제시,063-540-3882,"['관광지', '백석서원', '사당', '서원', '역사', '역사공부', '역사관광지', '역사를품은곳']",https://cdn.visitkorea.or.kr/img/call?cmd=VIEW&id=c6a755e7-6647-4c00-961a-064e63341a76&thumb,전라북도 김제시 범득골길 187-22,35.809822600000004,126.86369679999999
백암리남근석,전북 정읍시,063-539-5184,"['관광지', '역사', '역사공부', '역사를품은곳', '역사문화재', '역사속', '역사속으로']",https://cdn.visitkorea.or.kr/img/call?cmd=VIEW&id=6aa474b6-0db7-43c7-bfb7-1e838d7af3b8&thumb,전라북도 정읍시 칠보면 백암리 1095,35.5994204,126.952104
백암스키샵,전북 무주군,063-322-2244,"['겨울스포츠', '레포츠', '복합레저스포츠', '스키대여', '스키렌탈', '스키샵', '익스트림스포츠']",https://cdn.visitkorea.or.kr/img/call?cmd=VIEW&id=ff2dcbb5-d9e8-4716-a439-d70d31f1b22b&thumb,전라북도 무주군 설천면 만선로 32,35.9103673,127.7560101
백용성조사유허비,전북 장수군,063-350-2326,"['관광지', '역사']",https://cdn.visitkorea.or.kr/img/call?cmd=VIEW&id=d65c174b-ae79-4df3-b796-28258200c136&thumb,전라북도 장수군 번암면 죽림2길 31,35.5396266,127.54136979999998
백운관광농원,전북 진안군,063-432-4589,"['경치좋은곳', '관광지', '농촌마을', '농촌여행', '여름철', '여름철휴가지', '여름휴가']",https://cdn.visitkorea.or.kr/img/call?cmd=VIEW&id=e50fc3a6-6194-4b2c-8d71-626d6fea6094&thumb,전라북도 진안군 백운면 백운동로 426-5,35.6817646,127.435794
백운동계곡(진안),전북 진안군,063-432-4589,"['관광지', '자연']",https://cdn.visitkorea.or.kr/img/call?cmd=VIEW&id=ba8a48a9-1617-4c88-85e8-ce782540130c&thumb,전라북도 진안군 백운면 백운동로 325-8,35.681526,127.4278371
백운사(익산),전북 익산시,063-836-5984,"['관광지', '불교', '불교문화', '사찰', '사찰여행', '역사', '자연속으로', '자연환경']",https://cdn.visitkorea.or.kr/img/call?cmd=VIEW&id=1ba29d72-588f-4550-9745-fae65e7736eb&thumb,전라북도 익산시 여산면 천호산길 155-23,36.0433742,127.1221612
백장암 삼층석탑,전북 남원시,063-636-3598,"['관광지', '국보', '백장암삼층석탑', '역사', '역사공부', '역사를품은곳', '역사문화재']",https://cdn.visitkorea.or.kr/img/call?cmd=VIEW&id=85f156d6-19d0-470c-83ab-eeeb95716bc9&thumb,전라북도 남원시 산내면 천왕봉로 447-76,35.443001,127.6201473
백제도예원,전북 익산시,063-857-2848,"['공예체험', '공예품', '관광지', '도자기', '도자기공방', '도자기체험', '백제도예원']",https://cdn.visitkorea.or.kr/img/call?cmd=VIEW&id=13571b10-4d6d-4ec4-90c0-a4bcd9df1ff0&thumb,전라북도 익산시 하나로 685,35.9400674,126.9801655
백지사터,전북 익산시,063-859-5792,"['관광지', '교과서속여행', '백지사터', '역사', '역사공부', '역사관광지', '역사를품은곳']",https://cdn.visitkorea.or.kr/img/call?cmd=VIEW&id=cd1b60e2-8f15-46fe-a89f-3cddf451e808&thumb,전라북도 익산시 여산면 영전길 2-95,36.0590999,127.08519640000002
백학관광농원,전북 정읍시,063-535-9032,"['관광지', '농촌', '농촌여행코스', '농촌체험마을', '농촌체험여행', '농촌체험학습']",https://cdn.visitkorea.or.kr/img/call?cmd=VIEW&id=d2e03ec1-0f9f-4aec-9440-839692cf88b0&thumb,전라북도 정읍시 백학3길 81-30,35.499207500000004,126.8469403
백현서원,전북 완주군,063-290-2605,"['관광지', '역사', '역사공부', '역사관광지', '역사를품은곳', '역사문화재', '역사속']",https://cdn.visitkorea.or.kr/img/call?cmd=VIEW&id=23e9004e-cfe2-48fd-9a72-0c9f909f3c19&thumb,전라북도 완주군 고산면 눈기러기로 66-73,35.9857436,127.2121063
뱀사골 와운마을,전북 남원시,063-625-8911,"['가족과함께', '관광지', '뱀사골계곡', '아이와함께', '여름방학가기좋은곳', '여름여행']",https://cdn.visitkorea.or.kr/img/call?cmd=VIEW&id=3c4caa7b-037e-4af7-b962-2567c4c260e5&thumb,전라북도 남원시 산내면 와운길 249,35.362853799999996,127.5925994
뱀사골계곡,전북 남원시,063-630-8900,"['가족여행', '관광지', '뱀사골계곡', '여름방학가볼만한곳', '여름피서지', '자연']",https://cdn.visitkorea.or.kr/img/call?cmd=VIEW&id=588b8165-4789-4c0e-9d50-302338d0aef2&thumb,전라북도 남원시 산내면 부운리,35.3523613,127.5924722
"번암장 (1, 6일)",전북 장수군,063-353-2303,"['가족여행', '번암장', '사계절', '쇼핑', '시장맛집', '아이와함께', '재래시장', '전라권']",https://cdn.visitkorea.or.kr/img/call?cmd=VIEW&id=f16b78d6-94f7-4320-b6e2-b0af70d35a95&thumb,전라북도 장수군 번암면 신평로 317-1,35.5330751,127.5450979
법인사(정읍),전북 정읍시,063-531-0593,"['관광지', '불교', '불교문화', '사찰', '사찰여행', '역사', '자연속으로', '자연환경']",https://cdn.visitkorea.or.kr/img/call?cmd=VIEW&id=null&thumb,전라북도 정읍시 상신경1길 97,35.5586787,126.88110079999998
법인정사(김제),전북 김제시,063-540-3882,"['관광지', '불교', '불교문화', '사찰여행', '역사', '자연환경', '전통사찰', '종교']",https://cdn.visitkorea.or.kr/img/call?cmd=VIEW&id=23799fc7-3188-48b3-9144-22ef4f316273&thumb,전라북도 김제시 금구면 선비로 1126-26,35.7873596,127.03769740000001
벽골제 농경문화 박물관,전북 김제시,063-540-3676,"['교과서속여행', '문화시설', '박물관', '벽골제농경문화박물관', '아이와함께']",https://cdn.visitkorea.or.kr/img/call?cmd=VIEW&id=9431f8de-4b3e-4e09-8191-fc00bdd12efb&thumb,전라북도 김제시 부량면 벽골제로 442,35.75462558,126.8531043
벽련암(정읍),전북 정읍시,063-538-3303,"['관광지', '불교', '불교문화', '사찰', '사찰여행', '역사', '자연속으로', '자연좋은곳']",https://cdn.visitkorea.or.kr/img/call?cmd=VIEW&id=76f50a4a-e1e7-49e6-8ba8-3561f70d07d2&thumb,전라북도 정읍시 내장산로 1220-74,35.4932028,126.905286
벽성서원,전북 김제시,063-540-3882,"['관광지', '역사', '역사공부', '역사관광지', '역사를품은곳', '역사문화재', '역사속']",https://cdn.visitkorea.or.kr/img/call?cmd=VIEW&id=e6bfe557-26ec-4801-96fd-56a6bf1d4a57&thumb,전라북도 김제시 향교길 89-16,35.8011708,126.87969950000002
변산반도 국립공원,전북 부안군,063-582-7808,"['걷기길', '관광지', '변산반도', '생태관광', '생태관광지', '적벽강', '전라권', '채석강']",https://cdn.visitkorea.or.kr/img/call?cmd=VIEW&id=de838ea9-9912-48d3-ae09-bce27ce7a798&thumb,전라북도 부안군 변산면 방파제길 11,35.6258413,126.47122179999998
변산반도국립공원,전북 부안군,063-582-7808,"['가족여행', '관광지', '꽃여행', '등산', '등산로', '변산반도국립공원', '아이와함께']",https://cdn.visitkorea.or.kr/img/call?cmd=VIEW&id=fbec8b9b-65ac-4886-a38d-ae0602489765&thumb,전라북도 부안군 변산면 실상길,35.6407782,126.57942800000001
