name,region,tel,keyword,photo,address,lat,lon
(구)강경노동조합,충남 논산시,041-746-5412,"['건축사', '건축여행', '관광지', '구강경노동조합', '근대건축', '근대건축물', '등록문화재']",https://cdn.visitkorea.or.kr/img/call?cmd=VIEW&id=39c8c46c-a25d-4408-842b-80d5b36f9967&thumb,충청남도 논산시 강경읍 옥녀봉로27번길 30-5,36.160849,127.0146018
(구)한일은행 강경지점,충남 논산시,041-746-5412,"['건축물', '건축사', '건축여행', '관광지', '근대건축', '근대건축물', '역사', '역사공부']",https://cdn.visitkorea.or.kr/img/call?cmd=VIEW&id=69088946-8483-479b-8055-b7f26eca9884&thumb,충청남도 논산시 강경읍 계백로167번길 50,36.1621297,127.0151537
(주) 외가집 농업회사법인,충남 부여군,041-834-4706,"['가족과함께', '가족체험', '가족휴양', '관광지', '농촌체험', '농촌체험마을', '농촌체험여행']",https://cdn.visitkorea.or.kr/img/call?cmd=VIEW&id=fa8631b9-9bec-43a2-a091-9da9ff7d2a3c&thumb,충청남도 부여군 옥산면 안골로41번길 21-12,36.1861994,126.7323929
JFK 대천 워터파크,충남 보령시,041-930-2000,"['JFK대천워터파크호텔', '가족과함께', '관광지', '남녀노소', '실내워터파크']",https://cdn.visitkorea.or.kr/img/call?cmd=VIEW&id=c8e27bdf-afa5-46b4-9028-3c85132666e6&thumb,충청남도 보령시 대해로 876,36.3070417,126.5183187
LG 태안 태양광 발전소,충남 태안군,041-674-1806,"['LG', 'LG태안태양광발전소', '견학', '관광지', '이색체험', '체험프로그램', '체험학습']",https://cdn.visitkorea.or.kr/img/call?cmd=VIEW&id=594419c6-4d51-414e-8b13-6bb36a5e0166&thumb,충청남도 태안군 원북면 발전로 130,36.8841716,126.21411670000002
LG화학 대산공장,충남 서산시,041-661-2114,"['LG화학', 'LG화학대산공장', '견학', '관광지', '교육여행', '교육프로그램', '산업관광']",https://cdn.visitkorea.or.kr/img/call?cmd=VIEW&id=45ec3dae-5375-499e-a9e9-f46671a215d8&thumb,충청남도 서산시 대산읍 독곶1로 54,37.00426029999999,126.37941000000001
[서산 아라메길 1구간] 유기방가옥~해미읍성 동헌,충남 서산시,041-660-2373,"['레포츠', '산책코스', '충청권', '트레킹', '힐링&휴양']",https://cdn.visitkorea.or.kr/img/call?cmd=VIEW&id=f62dc841-f2b0-4959-a918-a7857105f791&thumb,충청남도 서산시 운산면 이문안길 72-10,36.8246941,126.57342620000001
가야산(서산),충남 서산시,041-662-2113,"['가야산', '가족여행', '관광지', '나들이', '단풍여행', '데이트코스', '등산', '등산로']",https://cdn.visitkorea.or.kr/img/call?cmd=VIEW&id=d45aec42-c5cc-4de2-8587-f1e909793c62&thumb,충청남도 서산시 해미면 산수리,36.707103000000004,126.5870692
가의도,충남 태안군,041-670-2543,"['가의도', '관광지', '섬', '자연', '충청권']",https://cdn.visitkorea.or.kr/img/call?cmd=VIEW&id=8bd37f25-9300-4248-9cea-49543ed13dbe&thumb,충청남도 태안군 근흥면 가의도길,36.6748071,126.06948249999999
가파마을,충남 청양군,041-940-2401,"['가족체험', '관광지', '농촌', '농촌마을', '농촌체험', '농촌체험마을', '농촌체험여행']",https://cdn.visitkorea.or.kr/img/call?cmd=VIEW&id=68ed4f6e-2944-4f77-82ad-49771aa573ba&thumb,충청남도 청양군 대치면 가파로 506-6,36.4976225,126.87963719999999
각원사,충남 천안시,041-561-3545,"['각원사', '관광지', '교과서속여행', '기차여행', '나들이', '사찰&산사', '아이와함께']",https://cdn.visitkorea.or.kr/img/call?cmd=VIEW&id=ebb92b4d-6939-4672-9194-30f12058f90d&thumb,충청남도 천안시 동남구 각원사길 245,36.8342011,127.19683020000001
간곡서원,충남 부여군,,"['관광지', '역사', '역사공부', '역사관광지', '역사를품은곳', '역사문화재', '역사속']",https://cdn.visitkorea.or.kr/img/call?cmd=VIEW&id=757ba842-6fea-4cc8-9173-0d375db4e1f7&thumb,충청남도 부여군 임천면 성흥로283번길 31-4,36.1824989,126.9084467
간월도 어리굴젓 기념탑,충남 서산시,041-662-4001,"['간월도', '간월도어리굴젓기념탑', '관광지', '굴', '굴무침', '굴전', '남녀노소']",https://cdn.visitkorea.or.kr/img/call?cmd=VIEW&id=ef052cbf-d1d9-4af7-bcf5-e490e9a8b239&thumb,충청남도 서산시 부석면 간월도리,36.617925799999995,126.4324388
간월도마을,충남 서산시,041-660-2603,"['가족여행', '간월도마을', '걷기여행', '관광지', '바다풍경', '섬여행', '자연', '자연좋은곳']",https://cdn.visitkorea.or.kr/img/call?cmd=VIEW&id=a5212f9c-369f-4cd6-9d60-b43b4246e5e2&thumb,충청남도 서산시 부석면 간월도리,36.617925799999995,126.4324388
간월암(서산),충남 서산시,041-668-6624,"['간월암', '관광지', '사찰', '역사', '자연', '충청권']",https://cdn.visitkorea.or.kr/img/call?cmd=VIEW&id=f3e6d4fa-4175-4de6-b932-9916c9377e96&thumb,충청남도 서산시 부석면 간월도1길 119-29,36.6036534,126.41120900000001
갈두천권역마을,충남 태안군,041-675-4848,"['관광지', '남녀노소', '농촌마을', '농촌여행', '농촌체험', '농촌체험마을', '농촌체험여행']",https://cdn.visitkorea.or.kr/img/call?cmd=VIEW&id=dac2b60a-2cb7-440c-960f-e4aa5f5d4363&thumb,충청남도 태안군 원북면 대기길 12-20,36.798578799999994,126.2572211
갈음이해수욕장,충남 태안군,041-670-2691,"['갈음이해수욕장', '경치좋은곳', '관광지', '바다풍경', '연인과함께', '영화&드라마촬영지']",https://cdn.visitkorea.or.kr/img/call?cmd=VIEW&id=4db6d0da-eee8-43e4-9af8-68809f495c45&thumb,충청남도 태안군 근흥면 갈음이길 38-30,36.6935676,126.1639858
갑사,충남 공주시,041-857-8981,"['관광지', '불교', '불교사찰', '사찰', '사찰여행', '역사', '자연속으로', '자연좋은곳']",https://cdn.visitkorea.or.kr/img/call?cmd=VIEW&id=ae2f7b09-9c16-4f03-840d-f0bd15e83d8a&thumb,충청남도 공주시 계룡면 갑사로 567-3,36.3656004,127.18751759999999
갑사계곡,충남 공주시,041-857-5178,"['갑사계곡', '계곡', '관광지', '단풍여행', '자연', '충청권', '피서']",https://cdn.visitkorea.or.kr/img/call?cmd=VIEW&id=33e4d3f9-c7a0-4ee6-af5e-35560b613c2c&thumb,충청남도 공주시 계룡면 갑사로 225,36.3629905,127.1587394
강경 구 연수당 건재 약방,충남 논산시,063-454-3921,"['강경구연수당건재약방', '관광지', '등록문화재', '역사', '역사공부', '역사를품은곳']",https://cdn.visitkorea.or.kr/img/call?cmd=VIEW&id=916f1aea-477d-4970-98b3-88e116b39b76&thumb,충청남도 논산시 강경읍 옥녀봉로24번길 14,36.1620784,127.01845530000001
강경 옥녀봉,충남 논산시,041-746-8503,"['경치좋은곳', '관광지', '남녀노소', '산책길', '산책하기', '산책하기좋은곳', '자연여행']",https://cdn.visitkorea.or.kr/img/call?cmd=VIEW&id=26ab4082-cd59-437d-9ba3-0e44786a0313&thumb,충청남도 논산시 강경읍 북옥리,36.164972999999996,127.01323149999999
강경 중앙초등학교 강당,충남 논산시,041-745-0674,"['강경중앙초등학교강당', '관광지', '등록문화재', '역사', '역사공부', '역사관광지']",https://cdn.visitkorea.or.kr/img/call?cmd=VIEW&id=fd3245cc-2fde-463f-955d-fbdfc92eefd6&thumb,충청남도 논산시 강경읍 옥녀봉로 8,36.1603539,127.01950259999998
강경근대거리,충남 논산시,041-746-5945,"['관광지', '교육여행', '근대거리', '근대역사', '역사공부', '역사관광지', '역사를품은곳']",https://cdn.visitkorea.or.kr/img/call?cmd=VIEW&id=25b3ef1f-ccdc-4879-bbf5-694f5d0848bb&thumb,충청남도 논산시 강경읍 옥녀봉로 30-5,36.1618011,127.01794299999999
강경미내다리,충남 논산시,041-746-5412,"['강경미내다리', '관광지', '미내교', '역사', '역사공부', '역사관광지', '역사를품은곳']",https://cdn.visitkorea.or.kr/img/call?cmd=VIEW&id=f784eee1-c984-4c46-992e-86c1ffcd48b8&thumb,충청남도 논산시 채운면 삼거리,36.1555648,127.0429312
강경젓갈시장,충남 논산시,041-745-1985,"['가족여행', '강경젓갈시장', '기념품판매', '기차여행', '나들이', '나홀로여행']",https://cdn.visitkorea.or.kr/img/call?cmd=VIEW&id=fc1a1cd8-63dd-4eab-b55b-77238e89a06c&thumb,충청남도 논산시 강경읍 옥녀봉로27번길 30-3,36.16074568,127.0146422
강당골(양화담),충남 아산시,1577-6611,"['강당골', '경치좋은곳', '관광지', '등산', '등산로', '아이와함께', '양화담', '여름피서지']",https://cdn.visitkorea.or.kr/img/call?cmd=VIEW&id=d1e610cd-efe8-475b-a6b8-ad36993b49e5&thumb,충청남도 아산시 송악면,36.731762599999996,127.0089277
강댕이 미륵불,충남 서산시,041-660-2247,"['관광지', '역사', '역사공부', '역사관광지', '역사를품은곳', '역사문화재', '역사속']",https://cdn.visitkorea.or.kr/img/call?cmd=VIEW&id=4159f316-5104-4b68-a56c-b8e361a03ab1&thumb,충청남도 서산시 운산면 마애삼존불길 18-1,36.7776835,126.6025291
개삼터·개삼각,충남 금산군,041-750-2384,"['관광지', '역사', '역사공부', '역사관광지', '역사를품은곳', '역사문화재', '역사속']",https://cdn.visitkorea.or.kr/img/call?cmd=VIEW&id=9eda5a3f-3f69-413c-922d-48bdc8b9f86b&thumb,충청남도 금산군 남이면 개삼로 101,36.074800399999994,127.4788768
개심사(서산),충남 서산시,041-688-2256,"['가족여행', '개심사', '관광지', '불교', '불교문화', '사찰여행', '역사', '자연환경']",https://cdn.visitkorea.or.kr/img/call?cmd=VIEW&id=3480eb01-9e12-4973-94fd-bfc84cb0a77e&thumb,충청남도 서산시 운산면 개심사로 321-86,36.74679520000001,126.59040379999999
개태사(논산),충남 논산시,041-734-8730,"['개태사', '관광지', '불교', '불교문화', '사찰여행', '석조삼존불입상', '역사', '역사유적지']",https://cdn.visitkorea.or.kr/img/call?cmd=VIEW&id=29b4eb17-c71a-445a-9972-225cc2a19354&thumb,충청남도 논산시 연산면 계백로 2614-11,36.2407588,127.2294385
개화예술공원,충남 보령시,041-931-4613,"['가족여행', '개화예술공원', '관광지', '기차여행', '나들이', '데이트코스', '아이와함께']",https://cdn.visitkorea.or.kr/img/call?cmd=VIEW&id=f98ff8d1-c7b6-4df1-8dba-aeec6be42db3&thumb,충청남도 보령시 성주면 성주산로 673-47,36.3142342,126.6582727
갤러리아 백화점 (센터시티점),충남 천안시,041-559-9114,"['문화센터', '센터시티', '쇼핑', '영풍문고']",https://cdn.visitkorea.or.kr/img/call?cmd=VIEW&id=20834bf3-e6e9-4340-9b03-12d08a4ad2cd&thumb,충청남도 천안시 서북구 공원로 227,36.80056402,127.10472630000001
거북이마을,충남 홍성군,041-631-0402,"['가족체험', '거북이', '관광지', '농촌체험', '농촌체험마을', '농촌체험여행', '농촌체험학습']",https://cdn.visitkorea.or.kr/img/call?cmd=VIEW&id=eaa18392-b6d2-450b-8c49-db2ac77864e0&thumb,충청남도 홍성군 구항면 거북로 422-41,36.5724472,126.61210290000001
거전마을 [농촌체험],충남 부여군,041-830-6392,"['가족과함께', '가족체험', '가족체험', '관광지', '농촌마을', '농촌체험마을', '농촌체험여행']",https://cdn.visitkorea.or.kr/img/call?cmd=VIEW&id=03f1fe0a-07d8-482f-804f-a8f98e432b1d&thumb,충청남도 부여군 은산면 지천로525번길 7-14,36.35967670000001,126.84037649999999
검계서원,충남 천안시,041-521-5163,"['관광지', '역사', '역사공부', '역사관광지', '역사를품은곳', '역사문화재', '역사속']",https://cdn.visitkorea.or.kr/img/call?cmd=VIEW&id=772a4271-e35f-4065-a159-068b0c6c2114&thumb,충청남도 천안시 동남구 풍세면 금호1길 117-10,36.747991600000006,127.09011329999998
결성농요내포농사박물관,충남 홍성군,041-642-1993,"['가족과함께', '결성농요내포농사박물관', '교과서속여행', '문화시설', '미세먼지_피하는_실내여행']",https://cdn.visitkorea.or.kr/img/call?cmd=VIEW&id=1d975adf-15cb-4fcd-baef-84993de07aef&thumb,충청남도 홍성군 결성면 구성남로 91,36.53262479,126.5489686
결성동헌,충남 홍성군,041-630-1688,"['결성동헌', '관광지', '역사', '역사공부', '역사관광지', '역사를품은곳', '역사문화재']",https://cdn.visitkorea.or.kr/img/call?cmd=VIEW&id=6f8215dd-3344-4ab9-ab9b-82ddaccfe9e4&thumb,충청남도 홍성군 결성면 읍내리,36.527268799999995,126.5469884
결성향교,충남 홍성군,041-630-1688,"['결성향교', '관광지', '역사', '역사공부', '역사관광지', '역사를품은곳', '역사문화재']",https://cdn.visitkorea.or.kr/img/call?cmd=VIEW&id=86726ccc-c29c-4de8-b3ce-c2a3727e666d&thumb,충청남도 홍성군 결성면 홍남서로707번길 21-8,36.528854200000005,126.5432091
계룡 사계고택,충남 계룡시,042-840-2402,"['관광지', '사계고택', '역사', '역사공부', '역사관광지', '역사를품은곳', '역사문화재']",https://cdn.visitkorea.or.kr/img/call?cmd=VIEW&id=0f0b31e6-7866-413a-9788-75c74f970e4c&thumb,충청남도 계룡시 두마면 사계로 122-4,36.2656306,127.271735
계룡 입암저수지,충남 계룡시,042-840-2402,"['가족과함께', '관광지', '산책길', '산책하기좋은곳', '자연', '자연관광지', '자연속으로']",https://cdn.visitkorea.or.kr/img/call?cmd=VIEW&id=8ae1e99c-b213-4c9e-95af-78317504ddb4&thumb,충청남도 계룡시 두마면 입암길 218,36.243248,127.25547639999999
계룡문화예술의전당,충남 계룡시,042-840-3707,"['가족여행', '계룡문화예술의전당', '데이트코스', '문화공간', '문화시설', '문화행사']",https://cdn.visitkorea.or.kr/img/call?cmd=VIEW&id=b0d7ae41-3ea1-4d6d-99f6-9917b80539f4&thumb,충청남도 계룡시 엄사면 문화로 31,36.497706,126.361822
계룡산 국립공원,충남 공주시,042-825-3002,"['걷기길', '계룡산', '계룡산국립공원', '관광지', '단풍여행', '봄꽃여행', '생태관광']",https://cdn.visitkorea.or.kr/img/call?cmd=VIEW&id=7686f22b-3fc3-4c38-a316-518c9fdc7c4e&thumb,충청남도 공주시 반포면 동학사1로 327-6,36.356682899999996,127.2325192
계룡산국립공원,충남 공주시,042-825-3002,"['가족여행', '계룡산국립공원', '관광지', '나들이', '데이트코스', '등산', '등산로']",https://cdn.visitkorea.or.kr/img/call?cmd=VIEW&id=d8453314-c9e3-44df-88d2-e5d614edc66f&thumb,충남 공주시 반포면,36.3968922,127.25030670000001
계룡산글램핑,충남 공주시,070-5055-0319,"['가족여행', '계룡산글램핑', '레포츠', '충청권', '캠핑장', '휴양여행']",https://cdn.visitkorea.or.kr/img/call?cmd=VIEW&id=9167676b-c0d9-4483-965e-f47c48491a66&thumb,충청남도 공주시 반포면 계룡대로 1352,36.3559529,127.25186950000001
계룡산도예촌,충남 공주시,014-857-7331,"['가족체험', '계룡산도예촌', '관광지', '도자기만들기체험', '도자기체험', '아이와함께']",https://cdn.visitkorea.or.kr/img/call?cmd=VIEW&id=9916f740-5d09-409d-909b-409cf98384f3&thumb,충청남도 공주시 반포면 도예촌길 71-25,36.3899336,127.21528959999999
계룡산동학사야영장,충남 공주시,042-825-3005,['레포츠'],https://cdn.visitkorea.or.kr/img/call?cmd=VIEW&id=null&thumb,충청남도 공주시 반포면 동학사2로 115-16,36.3576718,127.24160479999999
계룡산상신농촌체험휴양마을,충남 공주시,010-8811-1810,"['가족여행', '계룡산상신농촌체험휴양마을', '관광지', '도자기체험', '두부만들기체험']",https://cdn.visitkorea.or.kr/img/call?cmd=VIEW&id=4edb8c71-3574-4155-9de9-59d3e84104de&thumb,충청남도 공주시 반포면 상하신길 396,36.3845154,127.2202471
계룡산신도내주초석석재,충남 계룡시,042-840-2422,"['계룡산신도내주초석석재', '관광지', '역사', '역사공부', '역사관광지', '역사를품은곳']",https://cdn.visitkorea.or.kr/img/call?cmd=VIEW&id=75aa15fd-e159-43f9-b7c3-2bef181dd0d3&thumb,충청남도 계룡시 두마면,36.266865100000004,127.27278600000001
계룡산자연사박물관,충남 공주시,042-824-4055,"['계룡산자연사박물관', '기차여행', '문화시설', '박물관', '아이와함께', '이색체험']",https://cdn.visitkorea.or.kr/img/call?cmd=VIEW&id=95a369b8-52b9-4d16-9a71-2a11ecda481f&thumb,충청남도 공주시 반포면 임금봉길 49-25,36.36640091,127.2448239
계룡저수지,충남 공주시,041-840-8855,"['레포츠', '민물낚시', '충남낚시']",https://cdn.visitkorea.or.kr/img/call?cmd=VIEW&id=31d88c7e-7a83-40b3-b880-8a07b1cfca6f&thumb,충청남도 공주시 계룡면 하대리,36.3528,127.1608095
계백장군 유적지,충남 논산시,041-746-8431,"['계백장군유적지', '관광지', '아이와함께', '역사', '역사공부', '역사관광지', '역사를품은곳']",https://cdn.visitkorea.or.kr/img/call?cmd=VIEW&id=58239597-1765-4d16-9c27-06ab0460caad&thumb,충청남도 논산시 부적면 신풍리,36.1829802,127.176227
고경명선생비,충남 금산군,041-750-2384,"['관광지', '역사', '역사공부', '역사관광지', '역사를품은곳', '역사문화재', '역사속']",https://cdn.visitkorea.or.kr/img/call?cmd=VIEW&id=1e358fa5-ef36-4c92-9f9c-9f9884c5dd8e&thumb,충청남도 금산군 금성면 양전리,36.1191344,127.4842405
고남패총박물관,충남 태안군,041-670-2337,"['고남패총박물관', '교과서속여행', '문화시설', '박물관', '사계절', '실내여행지']",https://cdn.visitkorea.or.kr/img/call?cmd=VIEW&id=0300394a-1f17-47a2-a0ed-3a86253e1a56&thumb,충청남도 태안군 고남면 안면대로 4270-6,36.42033319,126.41002140000002
고대도,충남 보령시,041-932-4301,"['관광지', '자연']",https://cdn.visitkorea.or.kr/img/call?cmd=VIEW&id=b1f09cdd-ea3c-4aa1-ac67-196a240597ce&thumb,충청남도 보령시 오천면 고대도1길 1,36.387816799999996,126.3668837
고란사(고란약수),충남 부여군,041-830-2623,"['고란사', '고란약수', '관광지', '불교', '불교문화', '사찰여행', '역사', '자연환경']",https://cdn.visitkorea.or.kr/img/call?cmd=VIEW&id=c2a7d0f7-206f-47aa-b6f1-2439bc996f17&thumb,충청남도 부여군 부여읍 부소로 1-25,36.2925938,126.9132116
고란사유람선,충남 부여군,041-835-4689,"['경치좋은곳', '관광지', '사진찍기', '사진촬영', '자연속으로', '자연속힐링', '자연풍경']",https://cdn.visitkorea.or.kr/img/call?cmd=VIEW&id=41f2b565-9751-4b94-866b-8c40b0864355&thumb,충청남도 부여군 부여읍 부소로,36.2857425,126.91799750000001
고령박씨종중재실,충남 천안시,041-521-5163,"['고령박씨종중재실', '관광지', '역사', '역사공부', '역사관광지', '역사를품은곳']",https://cdn.visitkorea.or.kr/img/call?cmd=VIEW&id=a75d707d-8c12-440a-923d-714a0a222738&thumb,충청남도 천안시 동남구 북면 박문수길 147,36.77852539999999,127.27232990000002
고로서원,충남 공주시,041-840-8207,"['고로서원', '관광지', '역사', '역사공부', '역사관광지', '역사를품은곳', '역사문화재']",https://cdn.visitkorea.or.kr/img/call?cmd=VIEW&id=92778790-3c5a-45df-81eb-ca5c9f7c2a22&thumb,충청남도 공주시 사곡면 능계길 60-67,36.5111239,127.0225965
고마나루,충남 공주시,041-856-7700,"['고마나루', '관광지', '사계절', '산책하기좋은곳', '역사관광지', '역사여행', '역사유적지']",https://cdn.visitkorea.or.kr/img/call?cmd=VIEW&id=5c699db7-cdbe-44df-a6e7-7a121fbc4010&thumb,충청남도 공주시 백제큰길 2045,36.447559600000005,127.0817538
고북신송지,충남 서산시,041-664-2256,"['고북신송지', '레포츠', '밤낚시', '붕어', '저수지']",https://cdn.visitkorea.or.kr/img/call?cmd=VIEW&id=de71919e-0785-44bb-a976-cc4535f0b5d1&thumb,충청남도 서산시 고북면 신송리,36.6497723,126.54215579999999
고산사(홍성),충남 홍성군,041-642-8254,"['고산사', '관광지', '문화재', '불교', '불교사찰', '사찰', '역사', '자연속으로', '자연좋은곳']",https://cdn.visitkorea.or.kr/img/call?cmd=VIEW&id=f43b15f7-3d5d-4d26-84bb-d3dafc7064c9&thumb,충청남도 홍성군 결성면 만해로127번길 41,36.545789299999996,126.54157909999999
고암이응노생가기념관,충남 홍성군,041-630-9232,"['가족체험여행', '걷기길', '고암이응노생가기념관', '기념관', '나들이', '문화시설']",https://cdn.visitkorea.or.kr/img/call?cmd=VIEW&id=1272a5bb-6c35-4b48-9291-ec7c8094acad&thumb,충청남도 홍성군 홍북면 이응노로 61-7,36.62232225,126.6316666
고운식물원,충남 청양군,041-943-6245,"['가족여행', '고운식물원', '관광지', '사진찍기좋은곳', '산책코스', '수목원', '연중무휴']",https://cdn.visitkorea.or.kr/img/call?cmd=VIEW&id=730a567a-1b21-4700-9526-9cb263158c3d&thumb,충청남도 청양군 청양읍 식물원길 398-23,36.435268,126.7608801
고파도,충남 서산시,041-660-2604,"['고파도', '관광지', '섬', '자연', '충청권']",https://cdn.visitkorea.or.kr/img/call?cmd=VIEW&id=dcbe08b2-2884-4596-9c5c-298601585a13&thumb,충청남도 서산시 팔봉면 고파도2길 10,36.910706899999994,126.3360485
고풍저수지,충남 서산시,041-660-2451,"['레포츠', '민물낚시', '서산낚시터']",https://cdn.visitkorea.or.kr/img/call?cmd=VIEW&id=193e3f4d-b5cb-4181-8016-f4273e815c6a&thumb,충청남도 서산시 운산면 봉운로,36.77981079999999,126.6070025
곡교천변 은행나무길,충남 아산시,1577-6611,"['걷기길', '곡교천', '관광지', '남녀노소', '반려견과함께', '반려견동반', '산책길']",https://cdn.visitkorea.or.kr/img/call?cmd=VIEW&id=6ff7c60d-082e-4366-a90a-0a1ab27b0b4d&thumb,충청남도 아산시 염치읍 송곡리,36.8054006,127.01679340000001
공주 갑사 철당간,충남 공주시,041-857-8921,"['가족여행', '공주갑사철당간', '관광지', '교과서속여행', '기차여행', '나들이']",https://cdn.visitkorea.or.kr/img/call?cmd=VIEW&id=e2d3627f-e2fa-4fd0-9af4-f92168855fef&thumb,충청남도 공주시 계룡면 갑사로 567-3,36.3656004,127.18751759999999
공주 계룡산 중악단,충남 공주시,041-852-4230,"['관광지', '역사', '역사공부', '역사관광지', '역사를품은곳', '역사문화재', '역사속']",https://cdn.visitkorea.or.kr/img/call?cmd=VIEW&id=1ffda2ae-ee7b-4ee6-a71a-7d5331479077&thumb,충청남도 공주시 계룡면 신원사동길 1,36.335241700000005,127.18397340000001
공주 공산성 [유네스코 세계유산],충남 공주시,041-856-7700,"['가족여행', '공주공산성', '관광지', '교과서속여행', '아이와함께', '역사', '역사공부']",https://cdn.visitkorea.or.kr/img/call?cmd=VIEW&id=827c7809-231d-4bd2-affd-9a461776e206&thumb,충청남도 공주시 웅진로 280,36.4650154,127.12360509999999
공주 반죽동당간지주,충남 공주시,041-840-8207,"['관광지', '반죽동당간지주', '보물', '역사', '역사공부', '역사공부', '역사관광지']",https://cdn.visitkorea.or.kr/img/call?cmd=VIEW&id=0b005599-accd-4277-9b64-1d711c162dd4&thumb,충청남도 공주시 제민1길 15,36.4513416,127.12242579999999
공주 산림휴양마을,충남 공주시,041-855-0855,"['가족과함께', '관광지', '농촌마을', '농촌여행', '농촌체험', '농촌체험마을', '농촌체험여행']",https://cdn.visitkorea.or.kr/img/call?cmd=VIEW&id=undefined&thumb,충청남도 공주시 수원지공원길 222,36.4364439,127.12109720000001
공주 석장리 유적,충남 공주시,041-840-8924,"['공주석장리유적', '관광지', '박물관', '석장리유적', '역사', '역사공부', '역사관광지']",https://cdn.visitkorea.or.kr/img/call?cmd=VIEW&id=f5a49e25-453c-4ee1-ba86-2f73ae688933&thumb,충청남도 공주시 금벽로 990,36.4476804,127.18859909999999
공주 송산리 고분군과 무령왕릉 [유네스코 세계유산],충남 공주시,041-856-3151,"['관광지', '교과서속여행', '송산리고분군과무령왕릉', '아이와함께', '역사', '역사공부']",https://cdn.visitkorea.or.kr/img/call?cmd=VIEW&id=389a2105-a617-4c3a-8084-d54d02ba97aa&thumb,충청남도 공주시 왕릉로 37-2,36.461228399999996,127.1128601
공주 우금치 전적,충남 공주시,041-840-8207,"['관광지', '사적', '역사', '역사공부', '역사관광지', '역사를품은곳', '역사문화재']",https://cdn.visitkorea.or.kr/img/call?cmd=VIEW&id=6b133ad4-f6d3-4ede-94aa-f663cee9b25a&thumb,충청남도 공주시 금학동,36.4389526,127.11915359999999
공주 원골마을,충남 공주시,041-841-2966,"['관광지', '농촌', '농촌체험', '농촌체험마을', '농촌체험여행', '농촌체험학습']",https://cdn.visitkorea.or.kr/img/call?cmd=VIEW&id=406a51ed-c9c4-4a60-a457-a465e1b89af4&thumb,충청남도 공주시 신풍면 원골예술길 94,36.5272831,126.96086299999999
공주 정지산 유적,충남 공주시,041-840-8207,"['관광지', '역사', '역사공부', '역사관광지', '역사를품은곳', '역사문화재', '역사속으로']",https://cdn.visitkorea.or.kr/img/call?cmd=VIEW&id=410bb4ac-df81-49f4-8f11-b0c0e0169b67&thumb,충청남도 공주시 금성동,36.4666115,127.1219244
공주 중동성당,충남 공주시,041-856-1033,"['관광지', '역사공부', '역사관광지', '역사문화재', '역사속', '역사속으로', '역사여행']",https://cdn.visitkorea.or.kr/img/call?cmd=VIEW&id=fb8c50cf-9da6-4ce7-ba0a-b12185832651&thumb,충청남도 공주시 성당길 6,36.4547995,127.1274561
공주 황새바위 순교성지,충남 공주시,041-854-6321,"['관광지', '역사', '역사공부', '역사관광지', '역사를품은곳', '역사문화재', '역사속']",https://cdn.visitkorea.or.kr/img/call?cmd=VIEW&id=c611fcd9-29ae-45f6-8413-c7c6528b6cb7&thumb,충청남도 공주시 왕릉로 118,36.463462299999996,127.1196473
공주문예회관,충남 공주시,041-840-2180,"['가족여행', '공연장', '공주문예회관', '문화시설', '사계절', '실내여행지', '아이와함께']",https://cdn.visitkorea.or.kr/img/call?cmd=VIEW&id=e02081a5-eb01-4069-95a3-d620575b5050&thumb,충청남도 공주시 고마나루길 5,36.46017763,127.1117237
공주민속극박물관,충남 공주시,041-855-4933,"['가족과 함께', '공주민속극박물관', '문화시설', '아이와 함께', '전통문화', '체험학습']",https://cdn.visitkorea.or.kr/img/call?cmd=VIEW&id=53b65c34-df56-40bb-bbc4-5e7b24e20177&thumb,충청남도 공주시 의당면 돌모루1길 40,36.50155385,127.1470643
공주산성시장,충남 공주시,041-856-5427,"['가족과함께', '공주가볼만한곳', '공주당일코스', '공주맛집', '공주산성시장']",https://cdn.visitkorea.or.kr/img/call?cmd=VIEW&id=6780044f-4e39-4f4e-81b9-d947d2a356bf&thumb,충청남도 공주시 용당길 22,36.45881772,127.1226143
공주상신리 당간지주,충남 공주시,041-840-8207,"['공주상신리당간지주', '관광지', '역사', '역사공부', '역사관광지', '역사를품은곳']",https://cdn.visitkorea.or.kr/img/call?cmd=VIEW&id=3af47511-370c-4512-9fc0-9cb125caa6c5&thumb,충청남도 공주시 반포면,36.3968922,127.25030670000001
공주서혈사지,충남 공주시,041-840-8207,"['공주서혈사지', '관광지', '역사', '역사공부', '역사관광지', '역사를품은곳', '역사문화재']",https://cdn.visitkorea.or.kr/img/call?cmd=VIEW&id=ee261ade-42fd-42a7-92ad-c508de05710a&thumb,충청남도 공주시 시어골2길 96-9,36.4425266,127.1116665
공주역사영상관,충남 공주시,041-852-6883,"['가족과함께', '공주가볼만한곳', '공주당일코스', '공주여행코스', '당일치기여행']",https://cdn.visitkorea.or.kr/img/call?cmd=VIEW&id=149a6506-d0f1-42f4-bd1f-387cabbcafb0&thumb,충청남도 공주시 우체국길 8,36.45440870000001,127.1219696
공주제일교회,충남 공주시,041-855-5533,"['역사', '역사공부', '역사관광지', '역사를품은곳', '역사문화재', '역사속으로']",https://cdn.visitkorea.or.kr/img/call?cmd=VIEW&id=81b142cd-eff8-4603-b355-ce9e11e3aa07&thumb,충청남도 공주시 제민1길 18,36.450917499999996,127.122724
공주치즈스쿨,충남 공주시,041-841-7800,"['공주치즈스쿨', '관광지', '사계절', '아이와함께', '이색체험', '자연좋은곳', '자연체험']",https://cdn.visitkorea.or.kr/img/call?cmd=VIEW&id=80834902-c434-4be1-9d9c-8ae6c3719ca3&thumb,충청남도 공주시 신풍면 충의로 2358,36.4921985,126.9402263
공주향교,충남 공주시,041-840-8207,"['공주향교', '관광지', '역사', '역사공부', '역사관광지', '역사를품은곳', '역사를품은곳']",https://cdn.visitkorea.or.kr/img/call?cmd=VIEW&id=d50adb3e-f1ce-4a98-a609-1803d540bdde&thumb,충청남도 공주시 향교1길 26,36.458264299999996,127.11686670000002
관북리유적과 부소산성 [유네스코 세계유산],충남 부여군,041-830-2880,"['15_16한국관광100선', '19_20한국관광100선', '가족여행', '관광지', '관북리유적과부소산성']",https://cdn.visitkorea.or.kr/img/call?cmd=VIEW&id=9fb4ae79-653f-4e42-a6d1-7e3f78099290&thumb,충청남도 부여군 부여읍 부소로 15,36.2851899,126.9127733
관음사석탑,충남 아산시,041-536-8773,"['관광지', '관음사석탑', '역사', '역사공부', '역사관광지', '역사를품은곳', '역사문화재']",https://cdn.visitkorea.or.kr/img/call?cmd=VIEW&id=cc9ba107-f178-417a-abef-ec3ce2a7fb86&thumb,충청남도 아산시 영인면 여민루길 122,36.8461671,126.9534064
관촉사(논산),충남 논산시,041-736-5700,"['가족여행', '관광지', '관촉사', '교과서속여행', '불교', '불교문화', '불교사찰']",https://cdn.visitkorea.or.kr/img/call?cmd=VIEW&id=f3bc6ef1-c3f1-4a8f-b511-382cc16edeff&thumb,충청남도 논산시 관촉로1번길 25,36.1882846,127.1131223
광덕사(천안),충남 천안시,041-567-0050,"['관광지', '광덕사', '불교', '불교문화', '사찰', '사찰여행', '역사', '역사유적지']",https://cdn.visitkorea.or.kr/img/call?cmd=VIEW&id=ee9784a7-8014-4288-a29f-854696da54b2&thumb,충청남도 천안시 동남구 광덕면 광덕사길 30,36.675681700000005,127.0424345
광덕산,충남 천안시,1577-3900,"['관광지', '자연']",https://cdn.visitkorea.or.kr/img/call?cmd=VIEW&id=1b186e57-57f0-4c50-9121-fd267b8f2b27&thumb,충청남도 천안시 동남구 광덕면 광덕사길 30,36.675681700000005,127.0424345
광덕산 관광농원,충남 천안시,041-567-0614,"['관광지', '여름가볼만한곳', '여름철', '여름휴가', '여름휴가지추천', '자연좋은곳']",https://cdn.visitkorea.or.kr/img/call?cmd=VIEW&id=e18ff916-6073-4c78-bd48-2b44ae0fc454&thumb,충청남도 천안시 동남구 광덕면 해사동길 15,36.674457200000006,127.0360929
광덕산(아산),충남 아산시,1577-6611,"['가족과함께', '관광지', '광덕산(아산)', '나홀로여행', '등산', '연인과함께', '자연']",https://cdn.visitkorea.or.kr/img/call?cmd=VIEW&id=703cb1fd-ab38-46a3-b68e-97bc2791fd49&thumb,충청남도 천안시 동남구 광덕면 광덕사길,36.678211,127.0424157
광시 한우거리,충남 예산군,041-339-8930,"['관광지', '광시한우거리', '맛집골목', '맛집여행', '숨은맛집', '이색거리', '전국맛집']",https://cdn.visitkorea.or.kr/img/call?cmd=VIEW&id=1fb09d46-1936-4b67-92ea-2c88b818cd32&thumb,충청남도 예산군 광시면 광시소길,36.548894,126.7733622
광천 토굴새우젓시장,충남 홍성군,041-630-1602,"['가족여행', '광천토굴새우젓시장', '기념품판매', '기차여행', '나들이', '나홀로여행']",https://cdn.visitkorea.or.kr/img/call?cmd=VIEW&id=258f999c-e78f-44cf-a1aa-853e110d6a1c&thumb,충청남도 홍성군 광천읍 광천로299번길 36,36.50094023,126.6243645
"광천장 (4, 9일)",충남 홍성군,041-642-9671,"['가족여행', '광천장', '사계절', '쇼핑', '시장맛집', '아이와함께', '어르신추천코스']",https://cdn.visitkorea.or.kr/img/call?cmd=VIEW&id=d47e1fb1-81ed-4cb0-abc0-f0bba1b1efbb&thumb,충청남도 홍성군 광천읍 광천로285번길 8-20,36.50077045,126.62493529999999
광천토굴새우젓단지,충남 홍성군,070-4130-0064,"['관광지', '광천토굴새우젓시장', '남녀노소', '새우젓', '숨은맛집', '이색거리']",https://cdn.visitkorea.or.kr/img/call?cmd=VIEW&id=a9525049-11ed-4098-b5f7-d2447c027887&thumb,충청남도 홍성군 광천읍 광천로 91,36.4846317,126.61545220000001
구 강경성결교회 예배당,충남 논산시,041-746-5412,"['건축사', '건축여행', '관광지', '국내건축물', '근대건축', '근대건축물', '역사']",https://cdn.visitkorea.or.kr/img/call?cmd=VIEW&id=9cc60674-a640-4874-81c5-73779b41b901&thumb,충청남도 논산시 강경읍 계백로219번길 40-1,36.162890600000004,127.0184696
구 선교사가옥,충남 공주시,041-840-8207,"['공주가볼만한곳', '공주당일코스', '공주여행', '선교사', '역사', '역사공부', '역사를품은곳']",https://cdn.visitkorea.or.kr/img/call?cmd=VIEW&id=27809e34-d628-4082-b5e4-9d918efb2873&thumb,충청남도 공주시 쪽지골길 18-13,36.4489222,127.12627820000002
"구, 강경공립상업학교 관사",충남 논산시,041-746-5412,"['건축물', '건축사', '관광지', '근대건축', '근대건축물', '근대역사', '역사', '역사공부']",https://cdn.visitkorea.or.kr/img/call?cmd=VIEW&id=d415fbbc-8d23-4203-9da3-9dd7e56642d1&thumb,충청남도 논산시 강경읍 계백로 220,36.160931899999994,127.02317749999999
구드래조각공원,충남 부여군,041-830-2880,"['걷기길', '관광지', '구드래조각공원', '산책길', '산책하기', '산책하기좋은곳']",https://cdn.visitkorea.or.kr/img/call?cmd=VIEW&id=b5e5692d-e2fb-4d8b-90d9-9c74981dd7d7&thumb,충청남도 부여군 부여읍 나루터로 60,36.287488399999994,126.9084646
구례포천사길,충남 태안군,041-672-9737,"['레포츠', '충청권', '태안해안국립공원', '트레킹']",https://cdn.visitkorea.or.kr/img/call?cmd=VIEW&id=5c5aa2eb-2cb7-4d1d-b0aa-b443e26a80be&thumb,충청남도 태안군 원북면 구례포길 47-20,36.8857202,126.19828020000001
구례포해수욕장,충남 태안군,041-670-2691,"['겨울여행', '관광지', '구례포해수욕장', '드라마촬영지', '바다풍경', '자연', '충청권']",https://cdn.visitkorea.or.kr/img/call?cmd=VIEW&id=dc0f95f5-c1c4-4299-b5b6-c48b88d43b6b&thumb,충청남도 태안군 원북면 황촌리,36.862858100000004,126.20480239999999
구름포해수욕장,충남 태안군,041-670-2691,"['가족여행', '관광지', '구름포해수욕장', '바다낚시', '바다풍경', '아이와함께']",https://cdn.visitkorea.or.kr/img/call?cmd=VIEW&id=12c5927f-55e1-4e88-8a59-2ad34d1eb296&thumb,충청남도 태안군 소원면 의항리,36.79790070000001,126.15191709999999
구절암(홍성),충남 홍성군,041-642-0702,"['관광지', '불교', '불교문화', '사찰', '사찰여행', '역사', '자연속으로', '자연환경']",https://cdn.visitkorea.or.kr/img/call?cmd=VIEW&id=undefined&thumb,충청남도 홍성군 구항면 거북로218번길 163,36.5691339,126.6257382
국립 망향의 동산,충남 천안시,041-557-7001,"['가족여행', '관광지', '국립망향의동산', '기념관', '아이와함께', '역사공부', '역사를품은곳']",https://cdn.visitkorea.or.kr/img/call?cmd=VIEW&id=c04eb04a-db1c-4acd-926e-3a51a2174dbe&thumb,충청남도 천안시 서북구 성거읍 망향로 372-8,36.8528484,127.1852545
국립 생태원,충남 서천군,041-950-5300,"['관광지', '국립생태원', '생태관광', '생태관광지', '전시관', '체험학습', '충청권']",https://cdn.visitkorea.or.kr/img/call?cmd=VIEW&id=50367f3e-a4e0-48c4-a869-b190cd1648c2&thumb,충청남도 서천군 마서면 금강로 1210,36.0276334,126.7200186
국립 오서산자연휴양림,충남 보령시,041-936-5465,"['가족여행', '관광지', '국립오서산자연휴양림', '나들이', '등산', '아이와함께']",https://cdn.visitkorea.or.kr/img/call?cmd=VIEW&id=2e75a96c-2deb-440c-8047-fea4d1d7e989&thumb,충청남도 보령시 청라면 오서산길 531,36.45471989999999,126.672206
국립 용현자연휴양림,충남 서산시,041-664-1978,"['가족여행', '걷기길', '관광지', '국립용현자연휴양림', '나들이', '여름여행', '연인과함께']",https://cdn.visitkorea.or.kr/img/call?cmd=VIEW&id=ba392762-23c5-4b46-9a8e-121942134b8d&thumb,충청남도 서산시 운산면 마애삼존불길 339,36.7504494,126.60887190000001
국립 희리산해송자연휴양림,충남 서천군,041-953-2230,"['걷기길', '관광지', '국립희리산해송자연휴양림', '등산로', '생태관광지', '숲치유']",https://cdn.visitkorea.or.kr/img/call?cmd=VIEW&id=d4a61b9f-844f-4290-beac-887f10e8107e&thumb,충청남도 서천군 종천면 희리산길 206,36.1130631,126.66572839999999
국립공주박물관,충남 공주시,041-850-6300,"['교과서속여행', '국립공주박물관', '기차여행', '문화시설', '미세먼지_피하는_실내여행']",https://cdn.visitkorea.or.kr/img/call?cmd=VIEW&id=f0a91da9-7179-4cb9-9319-dc67f2f0c0e4&thumb,충청남도 공주시 관광단지길 34,36.46552912,127.11217990000002
국립부여박물관,충남 부여군,041-833-8562,"['국립부여박물관', '기차여행', '문화시설', '박물관', '아이와함께', '전시관', '전통&역사문화체험']",https://cdn.visitkorea.or.kr/img/call?cmd=VIEW&id=bf581632-8780-484b-a994-51e2df85a17e&thumb,충청남도 부여군 부여읍 금성로 5,36.27564277,126.9178933
국립생태원(서천),충남 서천군,041-950-5300,"['가족여행', '관광지', '무더위_피해_실내여행', '서천국립생태원', '아이가_좋아하는_여행']",https://cdn.visitkorea.or.kr/img/call?cmd=VIEW&id=cb944c69-cbac-46e7-a081-e9eac1e3f67e&thumb,충청남도 서천군 마서면 금강로 1210,36.0276334,126.7200186
국립중앙청소년수련원,충남 천안시,041-620-7700,"['국립중앙청소년수련원', '레포츠', '청소년수련원', '충청권']",https://cdn.visitkorea.or.kr/img/call?cmd=VIEW&id=fff0768a-dce3-4659-83a3-77ec33d3a42a&thumb,충청남도 천안시 동남구 목천읍 서리4길 48,36.7931723,127.2249874
국립태안해양유물전시관,충남 태안군,041-419-7000,"['국립태안해양유물전시관', '문화시설', '아이와함께', '충남권', '태안가볼만한곳']",https://cdn.visitkorea.or.kr/img/call?cmd=VIEW&id=d5b3b401-5fdb-4ff6-8b48-72c4e3f51352&thumb,충청남도 태안군 근흥면 신진대교길 94-33,36.67719658,126.1514121
국립해양생물자원관,충남 서천군,041-950-0695,"['국립해양생물자원관', '무더위_피해_실내여행', '문화시설', '아이가_좋아하는_여행']",https://cdn.visitkorea.or.kr/img/call?cmd=VIEW&id=36ecd104-c377-45e3-95e7-01357c99047b&thumb,충청남도 서천군 장항읍 장산로101번길 75,36.01724498,126.6698206
국사봉과 천태산,충남 금산군,041-750-2626,"['관광지', '자연']",https://cdn.visitkorea.or.kr/img/call?cmd=VIEW&id=undefined&thumb,충청남도 금산군 제원면,36.1125373,127.5460902
군지폭포,충남 논산시,041-746-5114,"['관광지', '자연']",https://cdn.visitkorea.or.kr/img/call?cmd=VIEW&id=undefined&thumb,충청남도 논산시 벌곡면 수락계곡길,36.1513662,127.3100217
군창지,충남 부여군,041-830-2623,"['관광지', '역사', '역사공부', '역사를품은곳', '역사문화재', '역사속', '역사속으로']",https://cdn.visitkorea.or.kr/img/call?cmd=VIEW&id=8f4cc886-6de0-47f8-9935-bd2e48c32588&thumb,충청남도 부여군 부여읍 쌍북리,36.2858855,126.9241202
궁리포구,충남 홍성군,041-630-1224,"['관광지', '궁리포구', '일몰여행', '자연', '충청권', '포구']",https://cdn.visitkorea.or.kr/img/call?cmd=VIEW&id=83804651-01e0-4809-bde0-13bb26a33618&thumb,충청남도 홍성군 서부면 남당항로 853-5,36.588870799999995,126.457746
권율장군 이치대첩비,충남 금산군,041-750-2384,"['관광지', '역사', '역사공부', '역사관광지', '역사를품은곳', '역사문화재', '역사속']",https://cdn.visitkorea.or.kr/img/call?cmd=VIEW&id=f3fd4b0b-39d7-4dc6-9873-a33a72c95265&thumb,충청남도 금산군 진산면 대둔산로 191,36.132193900000004,127.3529368
권충민공순절비,충남 금산군,041-750-2384,"['관광지', '역사', '역사공부', '역사관광지', '역사를품은곳', '역사문화재', '역사속']",https://cdn.visitkorea.or.kr/img/call?cmd=VIEW&id=f73f4148-5b10-4e68-8ae4-2c177ff325e7&thumb,충청남도 금산군 제원면 저곡리,36.109281200000005,127.56190520000001
궐리사,충남 논산시,041-746-5412,"['관광지', '역사', '역사공부', '역사관광지', '역사를품은곳', '역사문화재', '역사속']",https://cdn.visitkorea.or.kr/img/call?cmd=VIEW&id=66b6e186-5777-486c-baac-36ba9cea323d&thumb,충청남도 논산시 노성면 교촌길 35,36.282405499999996,127.13309240000001
귀암사,충남 금산군,041-750-2384,"['관광지', '역사', '역사공부', '역사공부', '역사관광지', '역사를품은곳', '역사문화재']",https://cdn.visitkorea.or.kr/img/call?cmd=VIEW&id=415fdebf-c8b5-42f3-9632-14d0db5d5ad0&thumb,충청남도 금산군 부리면 평촌1길 2,36.07490429999999,127.56703279999999
그림이 있는 정원,충남 홍성군,041-641-1477,"['가족여행', '관광지', '그림이있는정원', '수목원', '연중무휴', '자연', '자연좋은곳']",https://cdn.visitkorea.or.kr/img/call?cmd=VIEW&id=edb6836c-0661-43c5-8cca-668614a1a46b&thumb,충청남도 홍성군 광천읍 충서로400번길 102-36,36.5189126,126.62918140000001
금강 농바우마을 [농촌전통테마마을],충남 금산군,041-753-0301,"['가족과함께', '관광지', '농촌마을', '농촌여행', '농촌체험', '농촌체험마을', '아이와함께']",https://cdn.visitkorea.or.kr/img/call?cmd=VIEW&id=ea653edc-46b6-489f-8921-ef17b4b9c8e9&thumb,충청남도 금산군 부리면 어재1길 2,36.083725,127.5945457
금강 문화관,충남 부여군,041-830-0613,"['관광지', '금강문화관', '아이와함께', '전망대', '전시관', '체험학습', '충청권']",https://cdn.visitkorea.or.kr/img/call?cmd=VIEW&id=5ecd64d1-abb2-42a4-b688-c0d1340f3933&thumb,충청남도 부여군 부여읍 북포로 451,36.316550299999996,126.9396445
금강아트센터,충남 공주시,041-856-6543,"['가족과함께', '가족체험', '공예체험', '공예품', '관광지', '도자기', '도자기공방']",https://cdn.visitkorea.or.kr/img/call?cmd=VIEW&id=95195f5a-8ccb-42aa-9ed2-0867c1dadc66&thumb,충청남도 공주시 반포면 왕흥장악로 837,36.4288398,127.20214890000001
금강암(보령),충남 보령시,041-931-7767,"['관광지', '불교', '불교문화', '사찰', '사찰여행', '역사', '자연속으로', '자연환경']",https://cdn.visitkorea.or.kr/img/call?cmd=VIEW&id=null&thumb,충청남도 보령시 미산면 보령호로 1139-102,36.26081920000001,126.65760790000002
금강온천,충남 공주시,041-856-0033,"['가족여행', '관광지', '금강온천', '목욕탕', '스파', '연중무휴', '온천', '충청권']",https://cdn.visitkorea.or.kr/img/call?cmd=VIEW&id=e7758d36-96f2-455e-b9ee-ad353493166c&thumb,충청남도 공주시 고마나루길 51-12,36.4630042,127.1073629
금강하구둑 관광지,충남 서천군,041-952-9525,"['가족여행', '관광지', '교육여행', '금강하구둑', '금강하구둑관광지', '나들이']",https://cdn.visitkorea.or.kr/img/call?cmd=VIEW&id=cf8fb3fa-310b-41bd-ae4a-3e54f698c593&thumb,충청남도 서천군 마서면 장산로855번길 56-2,36.0198945,126.73672590000001
금곡서원,충남 논산시,041-746-5412,"['관광지', '금곡서원', '역사', '역사공부', '역사관광지', '역사를품은곳', '역사문화재']",https://cdn.visitkorea.or.kr/img/call?cmd=VIEW&id=931d709d-f742-4ab4-bde9-e87506c0df79&thumb,충청남도 논산시 연무읍 왕릉로 170-35,36.1181336,127.0842544
금산 대원정사,충남 금산군,041-754-5830,"['관광지', '불교', '불교문화', '사찰&신사', '사찰여행', '역사', '전통사찰', '휴식하기좋은곳']",https://cdn.visitkorea.or.kr/img/call?cmd=VIEW&id=b8181f86-99d5-4634-8c57-e5f2fa270daf&thumb,충청남도 금산군 금산읍 비범3길 17,36.1085226,127.4916127
금산 바리실마을,충남 금산군,041-750-2031,"['가족체험', '가족체험', '관광지', '농촌마을', '농촌체험여행', '농촌체험학습']",https://cdn.visitkorea.or.kr/img/call?cmd=VIEW&id=f50ad573-114c-4355-9a47-a6fc8fb30291&thumb,충청남도 금산군 제원면 바리실길 206,36.1341777,127.5243147
금산 백령성,충남 금산군,041-750-2384,"['관광지', '금산백령성', '역사', '역사공부', '역사를품은곳', '역사문화재', '역사속']",https://cdn.visitkorea.or.kr/img/call?cmd=VIEW&id=d7fa0879-c098-4b38-bef7-898a9c75aedd&thumb,충청남도 금산군 남이면 역평리,36.060086,127.40856509999999
금산 천내리 용호석,충남 금산군,041-750-2384,"['관광지', '역사', '역사공부', '역사관광지', '역사를품은곳', '역사문화재', '역사속']",https://cdn.visitkorea.or.kr/img/call?cmd=VIEW&id=a7ccc50c-63fe-4d08-83ca-248f777973ca&thumb,충청남도 금산군 제원면 천내리,36.1181881,127.58942350000001
금산 천내리/용화리 고인돌,충남 금산군,041-750-2384,"['관광지', '금산용화리고인돌', '금산천내리고인돌', '문화재', '역사', '역사공부']",https://cdn.visitkorea.or.kr/img/call?cmd=VIEW&id=7cb8596e-19d8-4d52-92ca-671e6a81804a&thumb,충청남도 금산군 제원면 용화리,36.0949893,127.5912098
금산 충렬사,충남 금산군,041-750-2384,"['관광지', '역사', '역사공부', '역사를품은곳', '역사문화재', '역사속', '역사속으로']",https://cdn.visitkorea.or.kr/img/call?cmd=VIEW&id=c4900b34-3121-4c21-81f4-b5d4e13db634&thumb,충청남도 금산군 금성면 진산로 356-10,36.13048870000001,127.4563043
금산 칠백의총,충남 금산군,041-753-8701,"['가족여행', '관광지', '교과서속여행', '금산칠백의총', '아이와함께', '역사', '역사유적지']",https://cdn.visitkorea.or.kr/img/call?cmd=VIEW&id=0ac84d89-f9eb-41d7-8a16-bbf53c15bc02&thumb,충청남도 금산군 금성면 의총길 50,36.1299559,127.4917878
금산국제인삼시장,충남 금산군,041-750-2114,"['가족여행', '금산인삼국제시장', '나들이', '나홀로여행', '데이트코스', '먹거리']",https://cdn.visitkorea.or.kr/img/call?cmd=VIEW&id=7b31083b-9cc2-4746-a9c0-283f923281b8&thumb,충청남도 금산군 금산읍 인삼약초로 45,36.10191794,127.4983403
금산다락원,충남 금산군,041-750-4413,"['가족여행', '금산다락원', '데이트코스', '문화공간', '문화시설', '문화행사', '복합문화공간']",https://cdn.visitkorea.or.kr/img/call?cmd=VIEW&id=fcde5cf1-7492-4f26-8b8f-c9259e4eda0f&thumb,충청남도 금산군 금산읍 금산로 1559,36.11206663,127.4916388
금산생태숲,충남 금산군,041-753-5706,"['걷기길', '관광지', '금산생태숲', '생태관광지', '숲체험원', '자연', '자연좋은곳']",https://cdn.visitkorea.or.kr/img/call?cmd=VIEW&id=2f451152-3fd2-4b4f-b6bb-53bdd4bc44ff&thumb,충청남도 금산군 남이면 느티골길 200,36.0612309,127.37334009999998
금산인삼관,충남 금산군,041-750-2621,"['가족여행', '관광지', '금산인삼관', '박물관', '산업관광', '아이와함께', '연중무휴']",https://cdn.visitkorea.or.kr/img/call?cmd=VIEW&id=0764ae76-52ac-4679-b26e-14e672cafbb6&thumb,충청남도 금산군 금산읍 인삼광장로 30,36.1000256,127.50067309999999
금산인삼약령시장,충남 금산군,041-750-2012,"['가족여행', '금산인삼약령시장', '나들이', '나홀로여행', '데이트코스', '먹거리']",https://cdn.visitkorea.or.kr/img/call?cmd=VIEW&id=02fab1e7-b0a0-42c2-ad06-5f1ab204309f&thumb,충청남도 금산군 금산읍 인삼약초로 24,36.10010156,127.4964497
"금산장 (2, 7일)",충남 금산군,041-751-3384,"['금산장', '사계절', '쇼핑', '아이와함께', '재래시장', '전통시장', '전통시장투어']",https://cdn.visitkorea.or.kr/img/call?cmd=VIEW&id=6b8bb204-603d-45b8-af25-4f8246c1c0b7&thumb,충청남도 금산군 금산읍 건삼전길 11,36.09998743,127.4904622
금산향교,충남 금산군,041-750-2384,"['관광지', '역사', '역사공부', '역사관광지', '역사를품은곳', '역사문화재', '역사속']",https://cdn.visitkorea.or.kr/img/call?cmd=VIEW&id=7cb2b724-55ce-4b6a-a57c-6ce205eee097&thumb,충청남도 금산군 금산읍 비단로 298,36.110845399999995,127.4899472
금지암(부여),충남 부여군,041-834-5420,"['관광지', '불교', '불교문화', '사찰', '사찰여행', '역사', '자연속으로', '자연환경']",https://cdn.visitkorea.or.kr/img/call?cmd=VIEW&id=null&thumb,충청남도 부여군 내산면 월명산길 487,36.2557188,126.7198653
기지시 줄다리기 보존회,충남 당진시,041-355-8118,"['가족여행', '기념관', '기지시줄다리기보존회', '나들이', '문화시설', '아이와함께']",https://cdn.visitkorea.or.kr/img/call?cmd=VIEW&id=e8810058-ecc2-460e-96bf-806cb7134302&thumb,충청남도 당진시 송악읍 안틀모시길 11,36.89616228,126.6947633
기지포해수욕장,충남 태안군,041-670-2691,"['가족여행', '관광지', '기지포해수욕장', '바다풍경', '여름여행', '여름휴가', '연인과함께']",https://cdn.visitkorea.or.kr/img/call?cmd=VIEW&id=c6b3fa2a-30d4-4321-b90a-a5a17f301412&thumb,충청남도 태안군 안면읍 해안관광로 745-19,36.5631723,126.3237007
김공 휘 유경 효자문·김공 휘 홍익 충신문,충남 서산시,041-660-2247,"['관광지', '김공휘유경효자문', '김공휘홍익충신문', '역사', '역사공부', '역사관광지']",https://cdn.visitkorea.or.kr/img/call?cmd=VIEW&id=32c5a092-c280-41a7-932b-e565b90144d8&thumb,충청남도 서산시 음암면 유계리,36.756017799999995,126.519853
김좌진장군묘,충남 보령시,041-930-6553,"['관광지', '역사', '역사공부', '역사관광지', '역사를품은곳', '역사문화재', '역사속']",https://cdn.visitkorea.or.kr/img/call?cmd=VIEW&id=973ecf70-bac1-4784-9abd-7d3fd7590df8&thumb,충청남도 보령시 청소면 김좌진로 200,36.4568794,126.61606509999999
김좌진장군생가지,충남 홍성군,041-634-6952,"['관광지', '기념물', '김좌진장군생가지', '역사', '역사공부', '역사관광지', '역사를품은곳']",https://cdn.visitkorea.or.kr/img/call?cmd=VIEW&id=f9985dca-1039-49b2-9b05-d92c39e97e64&thumb,충청남도 홍성군 갈산면 백야로546번길 12,36.5976091,126.54717
김홍신 문학관,충남 논산시,041-733-2018,"['가족과함께', '문학체험', '문화시설', '아이와함께']",https://cdn.visitkorea.or.kr/img/call?cmd=VIEW&id=6e41177d-7f85-4b88-b37b-cf0ddf636187&thumb,충청남도 논산시 중앙로 146-23,36.1826818,127.10712920000002
꽃지해수욕장,충남 태안군,041-670-2691,"['관광지', '꽃지해수욕장', '바다풍경', '아이와함께', '연인과함께', '자연', '충청권']",https://cdn.visitkorea.or.kr/img/call?cmd=VIEW&id=dc6ad514-bc0a-482a-9373-17f42519c598&thumb,충청남도 태안군 안면읍 승언리,36.5144302,126.3529178
꽃지해안공원,충남 태안군,041-670-5937,"['관광지', '꽃지해안공원', '나들이', '데이트코스', '바다풍경', '사계절', '아이와함께']",https://cdn.visitkorea.or.kr/img/call?cmd=VIEW&id=696164bf-1088-4e86-a3ac-2b5dca3f97ee&thumb,충청남도 태안군 안면읍,36.520472,126.34449690000001
꾸지나무골해수욕장,충남 태안군,041-670-2691,"['경치좋은곳', '관광지', '꾸지나무골해수욕장', '바다낚시', '바다풍경', '여름여행']",https://cdn.visitkorea.or.kr/img/call?cmd=VIEW&id=90c920bf-0a9d-4f15-8278-f7fd86ebbf9f&thumb,충청남도 태안군 이원면 내리,36.9520615,126.2947774
낙화암,충남 부여군,041-830-2951,"['19_20한국관광100선', '경치좋은곳', '관광지', '낙화암', '부여백제유적지']",https://cdn.visitkorea.or.kr/img/call?cmd=VIEW&id=820d2575-fb33-4b04-b497-3475dd3085d9&thumb,충청남도 부여군 부여읍 북포로,36.3040934,126.93781499999999
난지섬해수욕장,충남 당진시,041-350-3592,"['관광지', '난지섬해수욕장', '바다', '여름피서지', '자연', '충청권']",https://cdn.visitkorea.or.kr/img/call?cmd=VIEW&id=01fff9eb-9906-469b-a108-3b6b99c67eb6&thumb,충청남도 당진시 석문면 난지1길 67,37.0477185,126.42491729999999
남당리 행복마을,충남 서천군,041-950-6544,"['관광지', '산책길', '산책하기좋은곳', '자연마을', '자연여행', '자연좋은곳', '자연풍경']",https://cdn.visitkorea.or.kr/img/call?cmd=VIEW&id=64c198f4-6847-4521-a928-e6b6ae363961&thumb,충청남도 서천군 비인면 남당길63번길 23-6,36.1713577,126.6159057
남당마을,충남 홍성군,041-634-2500,"['관광지', '자연']",https://cdn.visitkorea.or.kr/img/call?cmd=VIEW&id=cec244e1-4c87-4b43-9a97-05d22568934d&thumb,충청남도 홍성군 서부면 남당리,36.5435969,126.483456
남당항,충남 홍성군,041-630-1224,"['관광지', '남당항', '미식여행', '바다풍경', '자연', '충청권']",https://cdn.visitkorea.or.kr/img/call?cmd=VIEW&id=c9cd3b87-746f-4673-9a27-e9e39ca48ce5&thumb,충청남도 홍성군 서부면 남당리,36.5435969,126.483456
남산서원(부여),충남 부여군,041-830-2623,"['관광지', '역사', '역사공부', '역사관광지', '역사를품은곳', '역사문화재', '역사속']",https://cdn.visitkorea.or.kr/img/call?cmd=VIEW&id=null&thumb,충청남도 부여군 장암면 의자로 613,36.2312848,126.94640120000001
남양여관,충남 서산시,041-668-8053,"['교육여행', '문화공간', '문화시설', '복합문화공간', '서산가볼만한곳', '아이와함께']",https://cdn.visitkorea.or.kr/img/call?cmd=VIEW&id=ee05d849-6ec7-4d6c-aeea-bd78a5f815b2&thumb,충청남도 서산시 번화3길 8-1,36.78169442,126.4524863
남연군의묘,충남 예산군,041-339-7332,"['관광지', '역사', '역사공부', '역사관광지', '역사를품은곳', '역사문화재', '역사속']",https://cdn.visitkorea.or.kr/img/call?cmd=VIEW&id=2156bdab-40d1-43b5-9e24-35c88d8df7ef&thumb,충청남도 예산군 덕산면 상가리,36.717393900000005,126.62178700000001
남이자연휴양림,충남 금산군,041-753-5706,"['가족여행', '관광지', '나들이', '남이자연휴양림', '데이트코스', '아이와함께']",https://cdn.visitkorea.or.kr/img/call?cmd=VIEW&id=f4533a30-56cc-4144-99ce-c06eca37446b&thumb,충청남도 금산군 남이면 느티골길 200,36.0612309,127.37334009999998
남천리 산촌생태마을,충남 청양군,041-943-3663,"['관광지', '남천리산촌생태마을', '생태관광지', '자연마을', '자연여행', '자연좋은곳']",https://cdn.visitkorea.or.kr/img/call?cmd=VIEW&id=e7d71e70-d93d-4bc6-8caf-37b5b9e8ba1f&thumb,충청남도 청양군 정산면 면암로 288-184,36.4541479,126.9838207
남포관아문,충남 보령시,041-930-6553,"['관광지', '역사', '역사공부', '역사관광지', '역사를품은곳', '역사문화재', '역사속']",https://cdn.visitkorea.or.kr/img/call?cmd=VIEW&id=d8bdded4-4b8b-4745-bdf7-34f06df1ffda&thumb,충청남도 보령시 남포면 읍성향교길 19,36.305699600000004,126.6092007
남포방조제,충남 보령시,041-932-2023,"['가족여행', '관광지', '나들이', '나홀로여행', '남포방조제', '데이트코스', '바다풍경']",https://cdn.visitkorea.or.kr/img/call?cmd=VIEW&id=06410608-051d-4258-8ba4-9fe8b361df1b&thumb,충청남도 보령시 남포방조제로 154,36.2985941,126.52787690000001
남포읍성,충남 보령시,041-930-6553,"['관광지', '남포읍성', '역사', '역사공부', '역사관광지', '역사를품은곳', '역사문화재']",https://cdn.visitkorea.or.kr/img/call?cmd=VIEW&id=f0132452-ec13-4c73-bc45-027490683e5e&thumb,충청남도 보령시 남포면 읍성향교길 19,36.305699600000004,126.6092007
남포향교,충남 보령시,041-930-6553,"['관광지', '역사', '역사공부', '역사관광지', '역사를품은곳', '역사문화재', '역사속']",https://cdn.visitkorea.or.kr/img/call?cmd=VIEW&id=d39d3918-7906-45bd-8843-7ce86c909983&thumb,충청남도 보령시 남포면 읍성향교길 133,36.3050869,126.6190841
남포향교 대성전,충남 보령시,041-930-6553,"['관광지', '역사', '역사관광지', '역사를품은곳', '역사문화재', '역사문화재', '역사속']",https://cdn.visitkorea.or.kr/img/call?cmd=VIEW&id=2461afcd-3fb6-4886-9d3b-bac5c739a76c&thumb,충청남도 보령시 남포면 읍성향교길 133,36.3050869,126.6190841
낭산사,충남 부여군,041-830-2623,"['관광지', '역사', '역사공부', '역사관광지', '역사를품은곳', '역사문화재', '역사속']",https://cdn.visitkorea.or.kr/img/call?cmd=VIEW&id=null&thumb,충청남도 부여군 세도면 사동로 174-6,36.194118100000004,126.9314689
내원사(홍성),충남 홍성군,041-642-1809,"['관광지', '불교', '불교문화', '사찰', '사찰여행', '역사', '자연속으로', '자연환경']",https://cdn.visitkorea.or.kr/img/call?cmd=VIEW&id=null&thumb,충청남도 홍성군 장곡면 광성1길 53,36.4827922,126.67747759999999
내포보부상촌,충남 예산군,041-337-8830,"['가족과함께', '관광지', '교육여행', '산책하기좋은곳', '아이와함께', '역사공부']",https://cdn.visitkorea.or.kr/img/call?cmd=VIEW&id=d8299f74-8862-4959-b9e0-c3b719b4540d&thumb,충청남도 예산군 덕산면 온천단지1로 55,36.6938205,126.6560522
냉천골,충남 청양군,041-940-2493,"['관광지', '냉천골', '여름피서지', '자연', '충청권']",https://cdn.visitkorea.or.kr/img/call?cmd=VIEW&id=5e79c3fe-2301-43c8-b30b-06ecfbf22347&thumb,충청남도 청양군 정산면 칠갑산로,36.422749200000005,126.91922620000001
네이처월드,충남 태안군,041-675-9200,"['SNS감성사진', '감성사진', '관광지', '남녀노소', '데이트장소추천', '사진찍기좋은곳']",https://cdn.visitkorea.or.kr/img/call?cmd=VIEW&id=388fce6d-041d-4ef3-b860-d31cd5da40bb&thumb,충청남도 태안군 남면 마검포길 200,36.619632700000004,126.3058838
노강서원,충남 논산시,041-746-5412,"['관광지', '노강서원', '역사', '역사공부', '역사관광지', '역사를품은곳', '역사문화재']",https://cdn.visitkorea.or.kr/img/call?cmd=VIEW&id=275dd269-154d-4f29-bd0d-a31b62aac825&thumb,충청남도 논산시 광석면 오강길 56-5,36.2596698,127.0732142
노성향교,충남 논산시,041-746-5412,"['관광지', '노성향교', '역사', '역사공부', '역사관광지', '역사를품은곳', '역사문화재']",https://cdn.visitkorea.or.kr/img/call?cmd=VIEW&id=bf356d6c-d1ed-430e-9f99-49337f949454&thumb,충청남도 논산시 노성면 노성산성길 54,36.2820513,127.13060290000001
노은단,충남 홍성군,041-630-1688,"['강원권', '관광지', '교과서속여행', '노은단', '아이와함께', '역사', '역사공부']",https://cdn.visitkorea.or.kr/img/call?cmd=VIEW&id=cb4dc5a5-0450-400e-a8cf-e0ed0926cfc1&thumb,충청남도 홍성군 홍북면 노은리,36.64377,126.7254925
녹도,충남 보령시,041-932-2023,"['2020_휴가철찾아가고싶은_33섬', '가족과함께', '경치여행', '경치좋은곳']",https://cdn.visitkorea.or.kr/img/call?cmd=VIEW&id=6a661acb-e915-4a99-9b78-842f576e3cfe&thumb,충청남도 보령시 오천면 녹도2길 33-2,36.268933700000005,126.26511599999999
논산 노성산성,충남 논산시,041-746-5412,"['관광지', '역사', '역사공부', '역사관광지', '역사를품은곳', '역사문화재', '역사속']",https://cdn.visitkorea.or.kr/img/call?cmd=VIEW&id=19fb0517-6aad-4788-9efa-5bb9ca807dbd&thumb,충청남도 논산시 노성면 송당리,36.275867100000006,127.1134895
논산 딸기삼촌농장,충남 논산시,01-734-4349,"['가족과함께', '가족체험', '관광지', '농장체험', '딸기농장', '딸기삼촌농장', '아이와함께']",https://cdn.visitkorea.or.kr/img/call?cmd=VIEW&id=4301d350-7d24-4ad2-ab96-f47aa555baf4&thumb,충청남도 논산시 노성면 병사리,36.2772843,127.10120590000001
논산 선샤인스튜디오,충남 논산시,1811-7057,"['관광지', '남녀노소', '데이트장소추천', '드라마세트장', '드라마촬영장', '미스터선샤인']",https://cdn.visitkorea.or.kr/img/call?cmd=VIEW&id=7d84f232-699d-4aa5-9a1d-17776078776e&thumb,충청남도 논산시 연무읍 봉황로 90,36.1026102,127.1060206
논산 연산역 급수탑,충남 논산시,041-746-5412,"['관광지', '근대문화유산', '논산연산역급수탑', '등록문화재', '역사', '역사공부']",https://cdn.visitkorea.or.kr/img/call?cmd=VIEW&id=4ce9b117-ce6a-4529-ae9a-3648983eb4f9&thumb,충청남도 논산시 연산면 선비로275번길 31-2,36.212811,127.20208999999998
논산 황산벌참살이마을,충남 논산시,041-746-8735,"['관광지', '농촌', '농촌여행코스', '농촌체험', '농촌체험마을', '농촌체험여행']",https://cdn.visitkorea.or.kr/img/call?cmd=VIEW&id=bfda994d-7452-4d76-b7e4-638982256d26&thumb,충청남도 논산시 연산면 고정1길 43,36.1969477,127.1867741
논산명재고택,충남 논산시,041-746-5412,"['고택', '관광지', '교과서속여행', '논산명재고택', '문화재', '역사', '역사공부']",https://cdn.visitkorea.or.kr/img/call?cmd=VIEW&id=f17c3334-b0fb-4921-b0a4-6f7e3c243809&thumb,충청남도 논산시 노성면 노성산성길 50,36.2820378,127.13109840000001
논산문화예술회관,충남 논산시,041-746-5950,"['남녀노소', '논산', '무장애', '문화공간', '문화시설', '문화예술', '복합문화공간']",https://cdn.visitkorea.or.kr/img/call?cmd=VIEW&id=2d0a6c4c-b785-47f3-ae5d-1ed2cd5c013f&thumb,충청남도 논산시 시민로 270,36.19095382,127.0951436
농부마켓 & 농부밥상,충남 청양군,041-944-0900,"['농특산물', '로컬푸드', '쇼핑', '식당', '청양로컬푸드']",https://cdn.visitkorea.or.kr/img/call?cmd=VIEW&id=2da43257-2420-43e8-b9c0-1c6174183b6d&thumb,충청남도 청양군 대치면 칠갑산로 704-18,36.43849954,126.8493865
느린호수길,충남 예산군,041-339-8930,"['관광지', '산책길', '산책하기', '산책하기좋은곳', '자연속으로', '자연여행', '자연좋은곳']",https://cdn.visitkorea.or.kr/img/call?cmd=VIEW&id=91535153-279b-4048-9d26-e510f3d0e8ed&thumb,충청남도 예산군 응봉면,36.6586111,126.7611336
느티골산림욕장,충남 금산군,041-753-5706,"['걷기길', '관광지', '느티골산림욕장', '등산로', '생태관광지', '숲체험원', '숲치유']",https://cdn.visitkorea.or.kr/img/call?cmd=VIEW&id=6699a634-3084-4bf5-a228-c11583b08237&thumb,충청남도 금산군 남이면 느티골길 200,36.0612309,127.37334009999998
다라미자운영마을,충남 아산시,041-544-7429,"['관광지', '농촌전통테마마을', '농촌체험', '다라미자운영마을', '자연마을', '자연좋은곳']",https://cdn.visitkorea.or.kr/img/call?cmd=VIEW&id=5be2f517-7473-48e0-84c8-918d31111407&thumb,충청남도 아산시 송악면 평촌길 107-9,36.734396399999994,127.0012037
단호박올리고마을,충남 당진시,041-360-8501,"['가족체험', '관광지', '농촌마을', '농촌체험', '농촌체험마을', '단호박올리고마을']",https://cdn.visitkorea.or.kr/img/call?cmd=VIEW&id=c590dde3-a222-4bfb-814c-e52abfa11b7a&thumb,충청남도 당진시 신평면 동산절길 39,36.893481099999995,126.738092
당림미술관,충남 아산시,041-543-6969,"['당림미술관', '문화시설', '문화예술공간', '전시관']",https://cdn.visitkorea.or.kr/img/call?cmd=VIEW&id=f36a7ff3-f142-45bc-8082-a9874159a7f4&thumb,충청남도 아산시 송악면 외암로1182번길 34-19,36.74278397,127.0186953
당진 대호지,충남 당진시,041-360-8256,"['당진낚시터', '당진저수지', '레포츠', '민물낚시', '충남권']",https://cdn.visitkorea.or.kr/img/call?cmd=VIEW&id=undefined&thumb,충청남도 당진시 대호지면 대호로,36.9245417,126.51233149999999
당진 도비도항,충남 당진시,041-352-6862,['레포츠'],https://cdn.visitkorea.or.kr/img/call?cmd=VIEW&id=7d5ec5d1-0b84-4bda-89bd-4ebf3d2cd96d&thumb,충청남도 당진시 석문면 난지3길,37.0189533,126.4578757
당진 백석올미마을,충남 당진시,041-353-7541,"['가족과함께', '가족여행', '관광지', '아이와함께', '올미원', '이색체험', '전통&향토산업']",https://cdn.visitkorea.or.kr/img/call?cmd=VIEW&id=87c565da-9ed1-4398-8a6d-b9f60b1c222b&thumb,충청남도 당진시 순성면 매실로 246,36.8226333,126.69764199999999
당진 삽교호,충남 당진시,041-360-6680,"['가족여행', '관광지', '당진삽교호', '바다경치', '바다풍경', '삽교호', '아이와함께']",https://cdn.visitkorea.or.kr/img/call?cmd=VIEW&id=54893e59-4d09-4efa-9cb9-f5ec448cc322&thumb,충청남도 당진시 신평면,36.8852316,126.7735905
당진 안국사지 석탑,충남 당진시,041-350-3583,"['관광지', '보물', '안국사지석탑', '역사', '역사공부', '역사관광지', '역사를품은곳']",https://cdn.visitkorea.or.kr/img/call?cmd=VIEW&id=b0dbd89b-cbe5-4a6d-8a9d-6effaa1dfa4f&thumb,충청남도 당진시 정미면 원당골1길 188,36.8321488,126.55691570000002
당진 영전황토마을,충남 당진시,041-356-6766,"['가족과함께', '가족체험', '관광지', '농촌마을', '농촌체험', '농촌체험마을', '아이와함께']",https://cdn.visitkorea.or.kr/img/call?cmd=VIEW&id=69d8c1a3-f1b9-4232-ab1d-d1d169f99feb&thumb,충청남도 당진시 고대면 황토마을로 141,36.9666475,126.56221780000001
당진 오봉제,충남 당진시,041-360-8501,"['당진낚시터', '당진저수지', '레포츠', '민물낚시', '충남권']",https://cdn.visitkorea.or.kr/img/call?cmd=VIEW&id=8f947eee-0380-43bf-adf1-8cbd1c526535&thumb,충청남도 당진시 신평면,36.8852316,126.7735905
당진 장고항,충남 당진시,041-360-8202,"['가족여행', '당진장고항', '레포츠', '바지락잡기체험', '이색체험', '충청권']",https://cdn.visitkorea.or.kr/img/call?cmd=VIEW&id=82971d7d-3b60-44b8-b010-c3a598598b53&thumb,충청남도 당진시 석문면 장고항로,37.0230768,126.5569368
당진 초대리지,충남 당진시,041-360-8501,"['낚시', '당진 초대리지', '당진시', '레포츠', '저수지']",https://cdn.visitkorea.or.kr/img/call?cmd=VIEW&id=025b5f81-e743-44c4-b1e7-7987c69aed08&thumb,충청남도 당진시 신평면 새내큰말길,36.9062044,126.7410149
당진면천읍성,충남 당진시,041-350-3583,"['관광지', '면천읍성', '역사', '역사공부', '역사관광지', '역사를품은곳', '역사문화재']",https://cdn.visitkorea.or.kr/img/call?cmd=VIEW&id=5ee5b610-1dfb-45be-b5e3-cb4b56912799&thumb,충청남도 당진시 면천면 몽산길 14,36.818194500000004,126.66612179999998
당진문예의전당,충남 당진시,041-350-2911,"['가족여행', '당진문예의전당', '데이트코스', '문화공간', '문화시설', '문화행사']",https://cdn.visitkorea.or.kr/img/call?cmd=VIEW&id=bd180836-809b-4c11-b183-5f30a4d31fe2&thumb,충청남도 당진시 무수동2길 25-21,36.88972251,126.6374833
당진시 수산물 유통센터,충남 당진시,041-350-4271,"['가족여행', '기차여행', '나들이', '나홀로여행', '당진시수산물유통센터', '데이트코스']",https://cdn.visitkorea.or.kr/img/call?cmd=VIEW&id=ed5dbc28-877d-4de8-8f19-10f600ae86ee&thumb,충청남도 당진시 석문면 장고항로 334-48,37.03518716,126.5589845
"당진장 (5, 10일)",충남 당진시,041-357-8483,"['가족여행', '당진장', '사계절', '쇼핑', '시장맛집', '아이와함께', '어르신추천코스']",https://cdn.visitkorea.or.kr/img/call?cmd=VIEW&id=07c24538-85b1-4811-ac5e-bffd393634f4&thumb,충청남도 당진시 당진시장길 99,36.890457299999994,126.629377
당진전력문화홍보관,충남 당진시,070-5000-2031,"['관광지', '교육여행', '교육장', '교육체험', '교육프로그램', '당진전력문화홍보관']",https://cdn.visitkorea.or.kr/img/call?cmd=VIEW&id=405c9e2a-a5a8-44f7-b666-6b9368035674&thumb,충청남도 당진시 석문면 교로길 30,37.050748399999996,126.51248799999999
당진필경사,충남 당진시,041-350-3583,"['고택', '관광지', '당진필경사', '역사', '역사공부', '역사관광지', '역사를품은곳']",https://cdn.visitkorea.or.kr/img/call?cmd=VIEW&id=4db4dac0-ffbf-44dc-ae20-3e145cbe403f&thumb,충청남도 당진시 송악읍 상록수길 97,36.9521721,126.7714215
당진항만관광공사 (삽교호 함상공원),충남 당진시,041-363-6960,"['가족과함께', '관광지', '남녀노소', '당진항만관광공사', '아이와함께', '안보여행']",https://cdn.visitkorea.or.kr/img/call?cmd=VIEW&id=ee66c374-0518-464a-8079-05d120bef445&thumb,충청남도 당진시 신평면 삽교천3길 79,36.890770399999994,126.8242581
당진향교,충남 당진시,041-350-3583,"['관광지', '당진향교', '역사', '역사공부', '역사관광지', '역사를품은곳', '역사문화재']",https://cdn.visitkorea.or.kr/img/call?cmd=VIEW&id=e1c066f2-728d-40ff-9038-b8964568ed46&thumb,충청남도 당진시 교동2길 33-18,36.892629,126.63359779999999
대난지도,충남 당진시,041-350-3592,"['관광지', '자연']",https://cdn.visitkorea.or.kr/img/call?cmd=VIEW&id=c3e757bf-8aa0-4da8-b04c-1d475094d09f&thumb,충청남도 당진시 석문면 난지1길,37.0502631,126.43545900000001
대둔산도립공원(금산),충남 금산군,041-750-3411,"['관광지', '자연', '자연관광지', '자연속으로', '자연여행', '자연좋은곳', '자연풍경']",https://cdn.visitkorea.or.kr/img/call?cmd=VIEW&id=39c55349-b60c-4fa1-84e0-c658e84bc328&thumb,충남 금산군 진산면,36.144260100000004,127.37022649999999
대둔산도립공원(논산),충남 논산시,041-746-6156,"['관광지', '자연']",https://cdn.visitkorea.or.kr/img/call?cmd=VIEW&id=5f02d114-e5c1-4260-ae1d-59b4a92a779a&thumb,충청남도 논산시 벌곡면 수락계곡길,36.1513662,127.3100217
대둔산자연휴양림,충남 금산군,041-753-4242,"['관광지', '자연', '자연여행', '자연좋은곳', '자연풍경', '자연환경', '휴식여행']",https://cdn.visitkorea.or.kr/img/call?cmd=VIEW&id=d5852767-ef44-4602-afd7-3b2cc1025728&thumb,충청남도 금산군 진산면 대둔산로 6,36.122759499999994,127.34403049999999
대련사,충남 예산군,041-332-0408,"['관광지', '불교', '불교문화', '사찰', '사찰여행', '역사', '역사관광지', '자연속으로']",https://cdn.visitkorea.or.kr/img/call?cmd=VIEW&id=2fa646ce-ffea-4f26-95b0-5f49cad07610&thumb,충청남도 예산군 광시면 동산2길 119,36.58732379999999,126.78177959999998
대조사(부여),충남 부여군,041-833-2510,"['관광지', '대조사', '불교', '불교문화', '사찰', '사찰여행', '역사', '자연속으로']",https://cdn.visitkorea.or.kr/img/call?cmd=VIEW&id=38a87e76-5540-4ec2-9672-8f8f82f5da27&thumb,충청남도 부여군 임천면 성흥로197번길 112,36.1909331,126.90071709999998
대천 레일바이크,충남 보령시,070-7770-8770,"['가족여행', '경치좋은곳', '레일바이크', '레포츠', '바다경치', '바다풍경', '아이와함께']",https://cdn.visitkorea.or.kr/img/call?cmd=VIEW&id=977959ad-77b7-40a4-9160-ba52c72f7cc5&thumb,충청남도 보령시 옥마벚길 64,36.332,126.62299999999999
대천 짚트랙,충남 보령시,041-934-3003,"['레포츠', '복합레저스포츠', '연인과함께', '이색체험', '짚라인', '짚와이어', '짚트랙']",https://cdn.visitkorea.or.kr/img/call?cmd=VIEW&id=e79bb38a-f9e1-4572-b2b5-3720843d17df&thumb,충청남도 보령시 해수욕장10길 80,36.3186662,126.50820459999998
대천 필랜드,충남 보령시,041-932-9860,"['가족과함께', '관광지', '놀이기구', '놀이동산', '놀이시설', '대천해수욕장', '아이가_좋아하는_여행']",https://cdn.visitkorea.or.kr/img/call?cmd=VIEW&id=37a73521-db11-40ef-b9d4-595ae72123ba&thumb,충청남도 보령시 대해로 860,36.3079831,126.51960030000001
대천한내돌다리,충남 보령시,041-930-6553,"['관광지', '역사', '역사공부', '역사를품은곳', '역사문화재', '역사속', '역사속으로']",https://cdn.visitkorea.or.kr/img/call?cmd=VIEW&id=ecf2a1ca-b3db-4518-b423-a0b1d8f3a67a&thumb,충청남도 보령시 동대동,36.349708899999996,126.62210300000001
대천항,충남 보령시,041-932-2023,"['가족여행', '관광지', '대천항', '자연', '충청권', '항구']",https://cdn.visitkorea.or.kr/img/call?cmd=VIEW&id=38b09078-05f6-4724-91e5-d6fe9f8fc2df&thumb,충청남도 보령시 대천항중앙길 42,36.3271959,126.5093584
대천해수욕장,충남 보령시,041-933-7051,"['관광지', '대천해수욕장', '바다풍경', '자연', '충청권', '친구와함께', '힐링']",https://cdn.visitkorea.or.kr/img/call?cmd=VIEW&id=a4382017-df94-48dd-b059-e961096b4625&thumb,충청남도 보령시 머드로 123,36.3155199,126.5107767
대현수산,충남 당진시,041-353-6265,"['당진', '쇼핑', '수산물', '직판장']",https://cdn.visitkorea.or.kr/img/call?cmd=VIEW&id=4792f4c7-996c-44c0-81df-50d9892016a8&thumb,충청남도 당진시 석문면 대호만로 2888-14,37.02118498,126.4623744
대흥동헌,충남 예산군,041-339-7332,"['관광지', '역사', '역사공부', '역사관광지', '역사를품은곳', '역사문화재', '역사속']",https://cdn.visitkorea.or.kr/img/call?cmd=VIEW&id=979246b1-0460-4b4a-9ebe-31f2ce715dde&thumb,충청남도 예산군 대흥면 의좋은형제길 33,36.6066477,126.78843590000001
대흥향교,충남 예산군,041-339-7332,"['관광지', '역사', '역사공부', '역사관광지', '역사를품은곳', '역사문화재', '역사속']",https://cdn.visitkorea.or.kr/img/call?cmd=VIEW&id=f080609f-9d5b-45f6-b393-7ddd11c9722b&thumb,충청남도 예산군 대흥면 교촌향교길 88,36.611323299999995,126.78290559999999
덕산도립공원,충남 예산군,041-339-8930,"['가족여행', '관광지', '나들이', '덕산도립공원', '데이트코스', '등산', '등산로']",https://cdn.visitkorea.or.kr/img/call?cmd=VIEW&id=f4ccbb8c-0128-4014-ad5c-5673a81e566b&thumb,충청남도 예산군 덕산면,36.7013072,126.6652355
덕산사(금산),충남 금산군,041-750-2384,"['관광지', '역사', '역사공부', '역사관광지', '역사를품은곳', '역사문화재', '역사속']",https://cdn.visitkorea.or.kr/img/call?cmd=VIEW&id=1db99130-7f20-4e0d-94d9-b0a4bc1f2e09&thumb,충청남도 금산군 부리면 배정이길 37,36.060022700000005,127.5417436
덕산온천지구,충남 예산군,041-339-7303,"['가족여행', '관광지', '나들이', '덕산온천지구', '데이트코스', '스파', '아이와함께']",https://cdn.visitkorea.or.kr/img/call?cmd=VIEW&id=01c778b1-a50f-4071-882f-8e4440ca32e4&thumb,충청남도 예산군 덕산면,36.7013072,126.6652355
"덕산장 / 덕산시장 (4, 9일)",충남 예산군,041-339-7253,"['가족여행', '기차여행', '나들이', '나홀로여행', '덕산시장', '덕산장', '먹거리']",https://cdn.visitkorea.or.kr/img/call?cmd=VIEW&id=45037305-8fbc-4246-9389-70342c001ba7&thumb,충청남도 예산군 덕산면 읍내북문길 14,36.70513398,126.6680814
덕산향교,충남 예산군,041-339-7332,"['관광지', '역사', '역사공부', '역사관광지', '역사를품은곳', '역사문화재', '역사속']",https://cdn.visitkorea.or.kr/img/call?cmd=VIEW&id=648a7a10-e683-42c2-a460-a5e009195ec3&thumb,충청남도 예산군 덕산면 덕산향교길 88-34,36.7001375,126.657426
덕삼지,충남 당진시,041-360-8305,"['낚시', '당진시', '덕삼지', '레포츠', '저수지']",https://cdn.visitkorea.or.kr/img/call?cmd=VIEW&id=e6531ab8-9abe-4db4-b19d-92264ba51042&thumb,충청남도 당진시 정미면 덕삼리,36.832956599999996,126.5364973
덕숭산,충남 예산군,041-339-8930,"['관광지', '덕숭산', '등산', '자연', '충청권', '트레킹']",https://cdn.visitkorea.or.kr/img/call?cmd=VIEW&id=5e2cc144-206d-49fc-abf1-ee721f96113b&thumb,충청남도 예산군 덕산면,36.7013072,126.6652355
도강영당,충남 부여군,041-830-2623,"['관광지', '역사', '역사공부', '역사관광지', '역사를품은곳', '역사문화재', '역사속']",https://cdn.visitkorea.or.kr/img/call?cmd=VIEW&id=432c20bc-a3a9-4fe0-afd8-cab2a8f385af&thumb,충청남도 부여군 부여읍 부소로 15,36.2851899,126.9127733
도고글로리콘도 실내수영장,충남 아산시,041-541-7100,['레포츠'],https://cdn.visitkorea.or.kr/img/call?cmd=VIEW&id=1fc48f12-9c2a-4193-a8c8-c9b18e88dfa6&thumb,충청남도 아산시 도고면 도고온천로 124-23,36.765350500000004,126.8889175
도령서당,충남 공주시,041-854-3391,"['관광지', '다도체험', '문화프로그램', '아이가_좋아하는_여행', '아이와함께']",https://cdn.visitkorea.or.kr/img/call?cmd=VIEW&id=a75b36d7-63c3-44ea-bb86-566365844da8&thumb,충청남도 공주시 의당면 서당길 144-13,36.5556584,127.1411925
도림계곡,충남 청양군,041-940-2492,"['관광지', '도림계곡', '자연', '충청권', '휴양여행', '힐링']",https://cdn.visitkorea.or.kr/img/call?cmd=VIEW&id=85c97362-6446-4759-b6a9-9c1573dade66&thumb,충청남도 청양군 장평면,36.3418189,126.8931047
"도비도내수면어업계 카누,카약체험장",충남 당진시,041-353-6118,"['레포츠', '연중무휴', '체험프로그램', '카누', '카약']",https://cdn.visitkorea.or.kr/img/call?cmd=VIEW&id=ebf1a63c-6159-4980-99a7-2fcfe7c191eb&thumb,충청남도 당진시 석문면 대호만로 2881-16,37.051032,126.4335439
도정딸기마을,충남 논산시,041-741-5454,"['가족과함께', '가족체험', '관광지', '농촌마을', '농촌체험', '농촌체험여행', '아이와함께']",https://cdn.visitkorea.or.kr/img/call?cmd=VIEW&id=e290f174-bd58-4d73-82e6-02ef3324ed3e&thumb,충청남도 논산시 양촌면 황산벌로380번길 15,36.1345229,127.2438743
독대섬,충남 보령시,041-930-0980,"['관광지', '낚시', '독대섬', '섬', '자연', '충청권']",https://cdn.visitkorea.or.kr/img/call?cmd=VIEW&id=20d8e3b1-9038-4663-8ffd-55cb1b3c83e6&thumb,충청남도 보령시 웅천읍 독산리,36.2314854,126.54050600000001
독립기념관야영장,충남 천안시,041-560-0711,['레포츠'],https://cdn.visitkorea.or.kr/img/call?cmd=VIEW&id=dc02ff06-b7ac-4094-81f2-c5575317c0f7&thumb,충청남도 천안시 동남구 목천읍 독립기념관로 1,36.7834151,127.2231815
독산해수욕장(홀뫼해수욕장),충남 보령시,041-930-3901,"['관광지', '나들이', '데이트코스', '독산해수욕장', '바다풍경', '아이와함께', '여름여행']",https://cdn.visitkorea.or.kr/img/call?cmd=VIEW&id=ae71a147-e90b-4760-8ffe-22ed3bda87f7&thumb,충청남도 보령시 웅천읍 열린바다로 585,36.223408899999995,126.5316508
돈암서원 [유네스코 세계문화유산],충남 논산시,041-736-0096,"['관광지', '돈암서원', '사적', '역사', '역사공부', '역사관광지', '역사를품은곳']",https://cdn.visitkorea.or.kr/img/call?cmd=VIEW&id=5f6185b0-0ef8-47c0-913d-b59a218ddc9f&thumb,충청남도 논산시 연산면 임3길 26-14,36.2092251,127.18076289999999
동곡서원,충남 부여군,041-830-2623,"['관광지', '교과서속여행', '동곡서원', '문화재', '서원', '역사', '역사공부', '역사관광지']",https://cdn.visitkorea.or.kr/img/call?cmd=VIEW&id=ee3631cb-3e6b-4d9d-888a-4b3c5c2e49ac&thumb,충청남도 부여군 세도면 성흥로 479-9,36.1790209,126.92807890000002
동백꽃마을,충남 서천군,041-952-6737,"['가족과함께', '가족여행', '갯벌체험', '관광지', '농촌체험', '동백꽃마을', '자연마을']",https://cdn.visitkorea.or.kr/img/call?cmd=VIEW&id=ca495f80-9214-4788-959f-280629096d17&thumb,충청남도 서천군 마서면 합전길 77,36.0485626,126.6688209
동백정,충남 서천군,041-952-9525,"['가족여행', '경치좋은곳', '관광지', '동백정', '명소', '바다경치', '자연마을', '자연속으로']",https://cdn.visitkorea.or.kr/img/call?cmd=VIEW&id=ee3af9f9-daeb-4eb2-9262-b6ceb894d525&thumb,충청남도 서천군 서면 서인로235번길 103,36.1378613,126.49356340000001
동절사,충남 부여군,041-830-2623,"['관광지', '역사', '역사공부', '역사관광지', '역사를품은곳', '역사문화재', '역사속']",https://cdn.visitkorea.or.kr/img/call?cmd=VIEW&id=39c1e9b1-531c-442e-a31a-d09ff600006c&thumb,충청남도 부여군 남면 금천로318번길 37-29,36.1995523,126.79759409999998
동학사(공주),충남 공주시,042-825-2570,"['관광지', '교과서속여행', '기차여행', '나들이', '동학사', '사찰&산사', '아이와함께']",https://cdn.visitkorea.or.kr/img/call?cmd=VIEW&id=e16303f6-3f75-412d-b3e5-4db731a8b1a5&thumb,충청남도 공주시 반포면 동학사1로 462,36.3533,127.2196327
동학사계곡,충남 공주시,042-825-3002,"['가족여행', '경치좋은곳', '계곡', '관광지', '동학사계곡', '등산', '등산로', '봄꽃여행']",https://cdn.visitkorea.or.kr/img/call?cmd=VIEW&id=b370c367-57c9-45cf-90e2-07d9c670db08&thumb,충청남도 공주시 반포면 동학사1로,36.360386,127.2399926
동혈사,충남 공주시,041-854-2855,"['관광지', '동혈사', '불교', '불교문화', '사찰', '사찰여행', '역사', '자연속으로']",https://cdn.visitkorea.or.kr/img/call?cmd=VIEW&id=b1a8fec3-49fe-434b-ab9b-922dfa9dc4bc&thumb,충청남도 공주시 의당면 동혈사길 77,36.5557121,127.1594701
두마신원재,충남 계룡시,042-840-2403,"['관광지', '역사', '역사공부', '역사관광지', '역사를품은곳', '역사문화재', '역사속']",https://cdn.visitkorea.or.kr/img/call?cmd=VIEW&id=d6547be0-e17f-400e-969f-297ef936afa4&thumb,충청남도 계룡시 두마면 왕대2길 43,36.255202000000004,127.2703741
두여해수욕장,충남 태안군,041-670-2691,"['관광지', '자연']",https://cdn.visitkorea.or.kr/img/call?cmd=VIEW&id=30162fec-0b00-4fdb-998a-e32a63f81246&thumb,충청남도 태안군 안면읍 정당리 1313-1,36.550873700000004,126.35763259999999
두웅습지,충남 태안군,041-670-2114,"['가족여행', '걷기길', '관광지', '두웅습지', '생태관광지', '숲치유', '자연', '자연좋은곳']",https://cdn.visitkorea.or.kr/img/call?cmd=VIEW&id=09bd3406-b234-4003-b6a0-ca2293a87b35&thumb,충청남도 태안군 원북면 신두해변길 291-30,36.835767499999996,126.19590600000001
두웅습지,충남 태안군,041-670-2692,"['관광지', '구례포해수욕장', '두웅습지', '생태관광', '생태관광지', '습지보호지역']",https://cdn.visitkorea.or.kr/img/call?cmd=VIEW&id=ced22b98-8613-46b8-b854-a6f7553b0429&thumb,충청남도 태안군 원북면 신두해변길 291-30,36.835767499999996,126.19590600000001
류방택천문기상과학관,충남 서산시,041-669-8496,"['과학관', '무더위_피해_실내여행', '문화시설', '미세먼지_피하는_실내여행']",https://cdn.visitkorea.or.kr/img/call?cmd=VIEW&id=c1d7c3f9-99b6-4d13-896e-47d6115a4ad0&thumb,충청남도 서산시 인지면 무학로 1353-4,36.72737118,126.4131813
리각미술관,충남 천안시,041-565-3463,"['가족과함께', '남녀노소', '리각미술관', '문화시설', '미술관', '복합문화공간']",https://cdn.visitkorea.or.kr/img/call?cmd=VIEW&id=ef9b2565-680b-47af-9e62-7bdd05e8449a&thumb,충청남도 천안시 동남구 태조산길 245,36.82015665,127.186286
마검포해수욕장,충남 태안군,041-670-2691,"['가족여행', '관광지', '마검포해수욕장', '바다풍경', '여름여행', '여름휴가', '연인과함께']",https://cdn.visitkorea.or.kr/img/call?cmd=VIEW&id=7d2fbdc8-2ad9-42b6-9f9f-2fcd18287eb4&thumb,충청남도 태안군 남면 신온리,36.615126200000006,126.30149890000001
마곡사 천연송림욕장,충남 공주시,041-841-6220,"['관광지', '자연']",https://cdn.visitkorea.or.kr/img/call?cmd=VIEW&id=3107ef65-33da-4987-a477-e9fcce0df42a&thumb,충청남도 공주시 사곡면 마곡사로,36.52368870000001,127.02465829999998
마곡사[유네스코 세계문화유산],충남 공주시,041-841-6220,"['관광지', '교과서속여행', '기차여행', '나들이', '마곡사', '사찰&산사', '아이와함께']",https://cdn.visitkorea.or.kr/img/call?cmd=VIEW&id=127aab87-528c-4c2f-b83d-cfed87e4917b&thumb,충청남도 공주시 사곡면 마곡사로 966,36.5585432,127.0120353
마량 방파제,충남 서천군,041-950-4114,"['레포츠', '바다낚시', '서천낚시터', '서천바다낚시', '충남권']",https://cdn.visitkorea.or.kr/img/call?cmd=VIEW&id=d4268b59-9c10-4fbf-a836-faa41bd7008a&thumb,충청남도 서천군 서면 서인로 56,36.12936420000001,126.5036472
마량권 낚시터,충남 서천군,041-951-8104,"['낚시터', '레포츠', '이색체험', '충남권']",https://cdn.visitkorea.or.kr/img/call?cmd=VIEW&id=56dc66de-ef61-4927-98fb-2592b14335c3&thumb,충청남도 서천군 서면 서인로,36.1456481,126.5306555
만대어촌체험마을,충남 태안군,010-2637-4592,"['가족과함께', '관광지', '남녀노소', '어촌마을', '연인과함께', '이색체험', '체험']",https://cdn.visitkorea.or.kr/img/call?cmd=VIEW&id=000a4f7d-7348-4033-b96b-d99f458253fc&thumb,충청남도 태안군 이원면 내리 666-24,36.9520615,126.2947774
만리포해수욕장,충남 태안군,041-670-2691,"['가족여행', '관광지', '나들이', '데이트코스', '만리포해수욕장', '바다풍경', '아이와함께']",https://cdn.visitkorea.or.kr/img/call?cmd=VIEW&id=32aa1c84-43c5-4c02-96a0-5f858e54d427&thumb,충청남도 태안군 소원면 모항리 일원,36.7685619,126.14128459999999
만수산자연휴양림,충남 부여군,041-830-2348,"['관광지', '자연']",https://cdn.visitkorea.or.kr/img/call?cmd=VIEW&id=002e1cc3-4611-4fd6-aa49-43c3eee90df0&thumb,충청남도 부여군 외산면 휴양로 107,36.338309100000004,126.7111345
만해 한용운선생 생가지,충남 홍성군,041-630-9231,"['가족여행', '관광지', '교과서속여행', '만해한용운선생생가지', '아이와함께']",https://cdn.visitkorea.or.kr/img/call?cmd=VIEW&id=bd79dddc-756e-4bac-b9bf-0a1557c41943&thumb,충청남도 홍성군 결성면 만해로318번길 83,36.562794399999994,126.553611
망일사(서산),충남 서산시,041-663-8441,"['관광지', '망일사', '불교', '불교문화', '사찰', '사찰', '사찰여행', '역사', '자연속으로']",https://cdn.visitkorea.or.kr/img/call?cmd=VIEW&id=2b99e216-4711-49ca-add9-35dc0e7b84a6&thumb,충청남도 서산시 대산읍 망일산로 831-134,36.93772070000001,126.44672630000001
매화둠벙마을,충남 태안군,041-672-0109,"['가족과함께', '가족체험', '관광지', '농촌', '농촌마을', '농촌체험', '농촌체험마을']",https://cdn.visitkorea.or.kr/img/call?cmd=VIEW&id=e6b3193f-2dec-431a-a113-1288b277c734&thumb,충청남도 태안군 원북면 동해길 301-41,36.8123589,126.22668940000001
맨삽지(학성리 공룡발자국화석),충남 보령시,041-930-6582,"['관광지', '보령학성리공룡발자국화석', '충청남도기념물', '화석']",https://cdn.visitkorea.or.kr/img/call?cmd=VIEW&id=a66545bd-8203-4b27-b0cc-4aab7105c551&thumb,충청남도 보령시 천북면 학성리 산45,36.4528381,126.4844926
면천낚시터,충남 당진시,041-355-6050,"['당진낚시터', '당진저수지', '레포츠', '민물낚시', '충남권']",https://cdn.visitkorea.or.kr/img/call?cmd=VIEW&id=c1c3c70c-bb6b-45dc-b786-1846f243fb77&thumb,충청남도 당진시 면천면 면천로 844-5,36.81110200000001,126.68076229999998
면천향교,충남 당진시,041-350-3583,"['관광지', '면천향교', '역사', '역사공부', '역사관광', '역사관광지', '역사를품은곳']",https://cdn.visitkorea.or.kr/img/call?cmd=VIEW&id=55e2213f-b5ad-44db-b7c5-eaea2b46b768&thumb,충청남도 당진시 면천면 동문2길 36-7,36.8206558,126.6724308
명국삼장비,충남 공주시,041-840-8207,"['관광지', '명국삼장비', '역사', '역사공부', '역사관광지', '역사를품은곳', '역사문화재']",https://cdn.visitkorea.or.kr/img/call?cmd=VIEW&id=144ee1dc-25e3-4643-a8ac-891ae8d98df3&thumb,충청남도 공주시 금성동 10-2,36.461907399999994,127.1285748
명대골계곡,충남 보령시,041-932-2023,"['계곡', '관광지', '명대골계곡', '자연', '충청권', '피서']",https://cdn.visitkorea.or.kr/img/call?cmd=VIEW&id=f5fdc497-2ff7-4aa5-b60a-7f5af32d3abe&thumb,충청남도 보령시 청라면 장현리,36.438165399999995,126.6715324
명종대왕태실및비,충남 서산시,041-660-2247,"['역사', '역사공부', '역사관광', '역사관광지', '역사를품은곳', '역사문화재', '역사속']",https://cdn.visitkorea.or.kr/img/call?cmd=VIEW&id=0cdc8334-6550-444d-ab52-f87dd9eeae37&thumb,충청남도 서산시 운산면 태봉리,36.78117520000001,126.57604180000001
명탄서원,충남 공주시,041-840-8207,"['관광지', '명탄서원', '역사', '역사공부', '역사관광지', '역사를품은곳', '역사문화재']",https://cdn.visitkorea.or.kr/img/call?cmd=VIEW&id=5cf435e9-080b-4dde-94a1-dbfd95441ea8&thumb,충청남도 공주시 명탄서원길 48,36.4587516,127.15633290000001
모덕사,충남 청양군,041-940-4982,"['관광지', '역사', '역사공부', '역사관광지', '역사를품은곳', '역사문화재', '역사속']",https://cdn.visitkorea.or.kr/img/call?cmd=VIEW&id=fa5bc30a-430a-4720-881b-b5b54b3d1524&thumb,충청남도 청양군 목면 나분동길 12,36.4461209,127.0078095
모원재,충남 계룡시,042-840-2422,"['관광지', '모원재', '역사', '역사공부', '역사관광지', '역사를품은곳', '역사문화재']",https://cdn.visitkorea.or.kr/img/call?cmd=VIEW&id=1c8ec8f5-2b8b-481b-b3fb-39e4e6b5ceaa&thumb,충청남도 계룡시 두마면 왕대2길 6-10,36.2548516,127.2733551
목애당,충남 태안군,041-670-5937,"['관광지', '목애당', '역사', '역사관광지', '역사를품은곳', '역사문화재', '역사속']",https://cdn.visitkorea.or.kr/img/call?cmd=VIEW&id=f221321e-c9c8-4d32-8251-1a655ec23aff&thumb,충청남도 태안군 태안읍 백화로 54,36.757628499999996,126.2967205
목재문화·자연사체험관,충남 청양군,041-940-2841,"['곤충조립체험', '목재문화', '문화시설', '아이와 함께', '자연사체험관', '전시관']",https://cdn.visitkorea.or.kr/img/call?cmd=VIEW&id=8f9d6d93-eee2-485f-9aaf-4692d429f2ba&thumb,충청남도 청양군 대치면 칠갑산로 704-21,36.43895798,126.8504011
목천향교,충남 천안시,041-521-5163,"['관광지', '목천향교', '역사', '역사공부', '역사관광지', '역사를품은곳', '역사문화재']",https://cdn.visitkorea.or.kr/img/call?cmd=VIEW&id=c8360156-6a4c-4785-a2a5-6798c4179dd5&thumb,충청남도 천안시 동남구 목천읍 교촌6길 7,36.7996369,127.22909979999999
몽대포구,충남 태안군,041-670-2114,"['관광지', '몽대포구', '자연', '충청권', '포구', '항구']",https://cdn.visitkorea.or.kr/img/call?cmd=VIEW&id=12abae1a-f3fa-44ac-8173-d59b6d85ad6d&thumb,충청남도 태안군 남면 몽대로 495-71,36.6725828,126.27394509999999
몽산리석가여래좌상,충남 태안군,041-670-5937,"['관광지', '몽산리석가여래좌상', '불상', '역사', '역사공부', '역사관광지', '역사를품은곳']",https://cdn.visitkorea.or.kr/img/call?cmd=VIEW&id=21b42f72-0c7c-499d-8e5f-a9ec14682b13&thumb,충청남도 태안군 남면 몽산리,36.6869346,126.2740307
몽산포오토캠핑장,충남 태안군,010-5408-6868,"['가족여행', '갯벌체험', '레포츠', '몽산포해수욕장', '오토캠핑장']",https://cdn.visitkorea.or.kr/img/call?cmd=VIEW&id=21613ce4-a5ef-4ca4-a1cd-0d4159551103&thumb,충청남도 태안군 남면 몽산포길 65-27,36.6699444,126.28754779999998
몽산포해수욕장,충남 태안군,041-670-2691,"['가족여행', '관광지', '나들이', '데이트코스', '몽산포해수욕장', '바다풍경', '아이와함께']",https://cdn.visitkorea.or.kr/img/call?cmd=VIEW&id=69cbea43-6497-4acb-afe3-0631ba347b4e&thumb,충청남도 태안군 남면 신장리,36.6910869,126.29566229999999
무궁화학습원(괴목정),충남 계룡시,042-840-2403,"['가족과함께', '관광지', '괴목정', '산책길', '산책하기', '산책하기좋은곳', '신선객 이야기']",https://cdn.visitkorea.or.kr/img/call?cmd=VIEW&id=f6855f33-fd4b-4c97-8f44-819dfe6a191f&thumb,충청남도 계룡시 신도안면 남선리,36.3120446,127.2497621
무량사(부여),충남 부여군,041-836-5066,"['관광지', '부여무량사', '불교', '불교문화', '불교사찰', '사찰', '사찰여행', '역사']",https://cdn.visitkorea.or.kr/img/call?cmd=VIEW&id=b6f7e792-605e-4345-a8c8-155d85ed8634&thumb,충청남도 부여군 외산면 무량로 203,36.316984600000005,126.6929223
무상사(계룡),충남 계룡시,042-841-6084,"['관광지', '불교', '불교문화', '사찰', '사찰여행', '역사', '자연속으로', '자연여행']",https://cdn.visitkorea.or.kr/img/call?cmd=VIEW&id=549c7e82-23e0-4b0c-ab2f-aeae2f1e7cca&thumb,충청남도 계룡시 엄사면 향적산길 129,36.2916066,127.2122063
무진암(부여),충남 부여군,041-836-5023,"['관광지', '불교', '불교문화', '사찰', '사찰여행', '역사', '자연속으로', '자연환경']",https://cdn.visitkorea.or.kr/img/call?cmd=VIEW&id=null&thumb,충청남도 부여군 외산면 무량로 181-17,36.31416420000001,126.69295490000002
무창포 비체팰리스 스파,충남 보령시,041-939-5757,"['가족여행', '가족휴양', '관광지', '무창포비체팰리스스파', '뷰티&스파', '숙박']",https://cdn.visitkorea.or.kr/img/call?cmd=VIEW&id=1b5d57bf-1d53-4eaa-bb12-97a1f2c5953c&thumb,충청남도 보령시 웅천읍 열린바다1길 78,36.239439700000005,126.5315457
무창포 수산물시장,충남 보령시,041-934-8683,"['가족여행', '기차여행', '나들이', '나홀로여행', '데이트코스', '먹거리', '무창포수산물시장']",https://cdn.visitkorea.or.kr/img/call?cmd=VIEW&id=bda80816-a720-4861-95fd-850b5b3759e1&thumb,충청남도 보령시 웅천읍 열린바다2길 46,36.24844475,126.5370371
무창포어촌체험마을,충남 보령시,041-934-3504,"['가족여행', '관광지', '남녀노소', '무창포어촌체험마을', '어촌마을', '어촌체험마을']",https://cdn.visitkorea.or.kr/img/call?cmd=VIEW&id=e1be883e-bb29-46e3-952e-2e4ba16add54&thumb,충청남도 보령시 웅천읍 열린바다2길 46,36.2485451,126.5370439
무창포항,충남 보령시,041-936-3510,"['가족과함께', '경치좋은곳', '관광지', '낙조명소', '낙조풍경', '무창포해수욕장']",https://cdn.visitkorea.or.kr/img/call?cmd=VIEW&id=fdfc8aca-ca8f-453f-a2d3-afcfa11ca778&thumb,충청남도 보령시 웅천읍 열린바다2길 46,36.2485451,126.5370439
무창포해수욕장,충남 보령시,041-936-3561,"['가족여행', '관광지', '나들이', '데이트코스', '무창포해수욕장', '바다풍경', '아이와함께']",https://cdn.visitkorea.or.kr/img/call?cmd=VIEW&id=e55dd035-2475-49bd-963e-d1e1298f02fb&thumb,충청남도 보령시 웅천읍 열린바다1길 10,36.2445217,126.5365626
무형문화재복합전수관(서천),충남 서천군,041-950-4225,"['무형문화재', '무형문화재복합전수관', '문화시설', '박물관', '아이와함께', '전시관']",https://cdn.visitkorea.or.kr/img/call?cmd=VIEW&id=ab7b6553-ff62-4fa6-bbaf-8bded7c6c570&thumb,충청남도 서천군 한산면 충절로 1120,36.08036933,126.8024885
문수사(서산),충남 서산시,041-663-3925,"['관광지', '불교', '불교문화', '사찰', '사찰여행', '역사', '자연속으로', '자연환경']",https://cdn.visitkorea.or.kr/img/call?cmd=VIEW&id=cff0b58e-499a-447a-8576-2ebecbb58b3d&thumb,충청남도 서산시 운산면 문수골길 201,36.778841799999995,126.58950349999999
문헌서원,충남 서천군,041-953-5895,"['가족여행', '관광지', '문헌서원', '역사', '역사공부', '역사관광지', '역사를품은곳']",https://cdn.visitkorea.or.kr/img/call?cmd=VIEW&id=0e9483ee-3258-42c7-bdfd-19ce04fd90f0&thumb,충청남도 서천군 기산면 서원로172번길 66,36.0917124,126.785471
바람아래해수욕장,충남 태안군,041-670-2691,"['관광지', '바다풍경', '바람아래해수욕장', '자연', '충청권', '친구와함께']",https://cdn.visitkorea.or.kr/img/call?cmd=VIEW&id=1ada1fa1-9aa6-4bea-8526-5f357c02cac9&thumb,충청남도 태안군 고남면 장곡리,36.430993799999996,126.3780996
박동진 판소리전수관,충남 공주시,041-856-0045,"['가족과 함께', '문화시설', '박동진판소리전수관', '아이와 함께', '이색체험', '전통문화']",https://cdn.visitkorea.or.kr/img/call?cmd=VIEW&id=4cc3fc41-255d-4b37-b4d4-287cd6203aea&thumb,충청남도 공주시 무릉중말길 22-14,36.45818584,127.17096409999998
박문수묘,충남 천안시,041-521-5163,"['관광지', '역사', '역사공부', '역사관광지', '역사를품은곳', '역사문화재', '역사속']",https://cdn.visitkorea.or.kr/img/call?cmd=VIEW&id=244c07b4-101c-49c7-89bc-2d78023e59cc&thumb,충청남도 천안시 동남구 북면 은지리,36.782596000000005,127.27020149999998
반산서원,충남 부여군,041-830-2623,"['관광지', '역사', '역사공부', '역사관광지', '역사를품은곳', '역사문화재', '역사속']",https://cdn.visitkorea.or.kr/img/call?cmd=VIEW&id=e5a17698-0a8a-41f1-854a-02248ef6bf26&thumb,충청남도 부여군 임천면 충절로1001번길 22,36.1754609,126.89261299999998
반산저수지,충남 부여군,041-835-1997,"['낚시', '레포츠', '반산저수지', '부여군', '붕어']",https://cdn.visitkorea.or.kr/img/call?cmd=VIEW&id=fe29745a-c535-4af8-8065-26f9e2be3ba1&thumb,충청남도 부여군 규암면 호반로,36.2777217,126.8507675
밧개해수욕장,충남 태안군,041-670-2691,"['가족여행', '관광지', '바다풍경', '밧개해수욕장', '여름여행', '여름휴가', '연인과함께']",https://cdn.visitkorea.or.kr/img/call?cmd=VIEW&id=06ae526b-d4b2-4cd9-a1ec-319fa90bc24d&thumb,충청남도 태안군 안면읍 승언리,36.5144302,126.3529178
방갈마을,충남 태안군,041-674-7111,"['관광지', '자연']",https://cdn.visitkorea.or.kr/img/call?cmd=VIEW&id=f2203986-13ba-4060-b35a-2eb2d2ffeb13&thumb,충청남도 태안군 원북면 방갈리,36.8948887,126.2247896
방포해수욕장,충남 태안군,041-670-2691,"['가족여행', '관광지', '나들이', '데이트코스', '바다풍경', '방포해수욕장', '아이와함께']",https://cdn.visitkorea.or.kr/img/call?cmd=VIEW&id=afd0630e-2b72-4431-83a8-988be4c50244&thumb,충청남도 태안군 안면읍 방포1길 29-1,36.5088225,126.33323
백리포해수욕장,충남 태안군,041-670-2772,"['관광지', '자연']",https://cdn.visitkorea.or.kr/img/call?cmd=VIEW&id=866ac397-22ba-4cf7-a435-8459678e9b40&thumb,충청남도 태안군 소원면 의항리,36.79790070000001,126.15191709999999
백마강,충남 부여군,041-830-2880,"['가족여행', '관광지', '교과서속여행', '백마강', '아이와함께', '역사', '자연', '체험학습']",https://cdn.visitkorea.or.kr/img/call?cmd=VIEW&id=4bff47f3-23d6-4d51-a22d-93ed33f12ac2&thumb,충청남도 부여군 규암면 백제문로 553,36.3065588,126.9170575
백마강레저파크,충남 부여군,1833-8982,"['레포츠', '부여관광지', '부여여행', '수상레저', '오토캠핑장', '워터파크', '카라반']",https://cdn.visitkorea.or.kr/img/call?cmd=VIEW&id=6be91db8-466e-4f8f-9563-f5f0a6090966&thumb,충청남도 부여군 규암면 호암리 234-2,36.3020849,126.91593689999999
백사장항,충남 태안군,041-670-2885,"['관광지', '바다풍경', '백사장항', '섬여행', '자연', '지역특화주전부리', '충청권']",https://cdn.visitkorea.or.kr/img/call?cmd=VIEW&id=98be655e-d5a7-4b3a-89d0-51dae6ca806d&thumb,충청남도 태안군 안면읍 백사장1길 124,36.5856614,126.3153381
백사장해수욕장,충남 태안군,041-670-2691,"['가족여행', '관광지', '바다풍경', '백사장해수욕장', '여름여행', '여름휴가', '연인과함께']",https://cdn.visitkorea.or.kr/img/call?cmd=VIEW&id=74fa0277-140c-4a92-ab0a-882b1c72d14e&thumb,충청남도 태안군 안면읍 창기리,36.581711600000006,126.33903889999999
백야기념관,충남 홍성군,041-634-6952,"['가족과함께', '문화시설', '아이와함께', '역사공부', '역사를품은곳', '역사발자취']",https://cdn.visitkorea.or.kr/img/call?cmd=VIEW&id=06da3f5c-39c8-4aeb-ae7b-b4ee19635d17&thumb,충청남도 홍성군 갈산면 행산리,36.59538351,126.5552191
백운사(보령),충남 보령시,041-933-5569,"['관광지', '백운사', '불교', '불교문화', '역사', '역사관광지', '자연좋은곳', '자연환경']",https://cdn.visitkorea.or.kr/img/call?cmd=VIEW&id=13bc4e4d-57cd-4c00-a6bf-f87214bedf3f&thumb,충청남도 보령시 성주면 심원계곡로 259-200,36.352118100000006,126.67359640000002
백제 오천결사대 충혼탑,충남 부여군,041-830-2880,"['가족여행', '관광지', '교과서속여행', '기념탑', '나들이', '백제오천결사대충혼탑']",https://cdn.visitkorea.or.kr/img/call?cmd=VIEW&id=bcd6bbac-a7ca-4592-89b1-91b00b3f88fe&thumb,충남 부여군 부여읍 동남리,36.2724157,126.91437320000001
백제군사박물관,충남 논산시,041-746-8431,"['교과서속여행', '문화시설', '박물관', '백제군사박물관', '사계절', '실내여행지']",https://cdn.visitkorea.or.kr/img/call?cmd=VIEW&id=e5402631-e4eb-4021-826f-8a0c6b19ad6c&thumb,충청남도 논산시 부적면 충곡로 311-54,36.19238766,127.181588
백제문화단지,충남 부여군,041-408-7290,"['관광지', '교과서속여행', '드라마촬영지', '백제문화단지', '아이와함께', '역사관광지']",https://cdn.visitkorea.or.kr/img/call?cmd=VIEW&id=04c3384a-bb56-4a27-9d23-dd1436315050&thumb,충청남도 부여군 규암면 백제문로 455,36.3067451,126.9069269
백제문화체험박물관,충남 청양군,041-940-4871,"['교육여행', '문화시설', '백제문화', '백제문화체험박물관', '아이와 함께', '역사공부']",https://cdn.visitkorea.or.kr/img/call?cmd=VIEW&id=d4a8d8e1-52d5-421c-ae31-d8b63198624c&thumb,충청남도 청양군 대치면 장곡길 43-24,36.40606534,126.8454706
백제역사문화관,충남 부여군,041-408-7274,"['교과서속여행', '문화시설', '박물관', '백제역사문화관', '사계절', '실내여행지']",https://cdn.visitkorea.or.kr/img/call?cmd=VIEW&id=b28ceef2-706b-42c0-8fe2-6a7ba73c05d4&thumb,충청남도 부여군 규암면 백제문로 455,36.30757158,126.9084946
백제원,충남 부여군,041-832-0041,"['가족과함께', '남녀노소', '문화시설', '복합문화', '부여가볼만한곳', '아이와함께']",https://cdn.visitkorea.or.kr/img/call?cmd=VIEW&id=85430f3c-4aee-4730-8556-e840d096b715&thumb,충청남도 부여군 규암면 백제문로 553,36.3065313,126.9169635
백화산,충남 태안군,041-670-2772,"['관광지', '자연']",https://cdn.visitkorea.or.kr/img/call?cmd=VIEW&id=850b2bcf-39de-444f-8d14-b0f0b60b44f4&thumb,충청남도 태안군 태안읍 동문리 41-2 일대,36.7500035,126.30802390000001
벌말,충남 서산시,041-660-2411,"['낚시', '레포츠', '벌말', '충청권']",https://cdn.visitkorea.or.kr/img/call?cmd=VIEW&id=b7a550fd-752e-4b48-ad66-4d60165c0945&thumb,충청남도 서산시 대산읍 가로림로 972,36.961555499999996,126.3339824
벌천포해수욕장,충남 서산시,041-660-2601,"['관광지', '바다내음', '여름피서지', '자연관광지', '자연속으로', '자연여행', '자연좋은곳']",https://cdn.visitkorea.or.kr/img/call?cmd=VIEW&id=48806c1d-17c6-4489-8f99-82651ea77a41&thumb,충청남도 서산시 대산읍 오지리,36.957275200000005,126.3664187
보덕사(예산),충남 예산군,041-337-4350,"['관광지', '불교', '불교문화', '사찰', '사찰여행', '역사', '역사관광지', '자연속으로']",https://cdn.visitkorea.or.kr/img/call?cmd=VIEW&id=8db3682c-9e1f-498d-8c01-902d326e04c6&thumb,충청남도 예산군 덕산면 가야산로 400-74,36.7189971,126.6356209
보령 냉풍욕장,충남 보령시,041-932-2023,"['가족여행', '관광지', '냉풍욕장', '보령냉풍욕장', '여름여행', '여름피서지', '여름휴가']",https://cdn.visitkorea.or.kr/img/call?cmd=VIEW&id=e49bcde0-b3d7-4bde-bfa0-4990af6a788c&thumb,충청남도 보령시 청라면 냉풍욕장길 190,36.376395,126.671233
"보령 바다낚시(무창포,대천)",충남 보령시,041-930-4822,"['낚시', '대천', '레포츠', '무창포', '보령 바다낚시']",https://cdn.visitkorea.or.kr/img/call?cmd=VIEW&id=d9fc3d19-e64f-4e95-94f5-7a3f470405f1&thumb,충청남도 보령시 웅천읍 열린바다2길 46,36.2485451,126.5370439
보령 방자구이마을,충남 보령시,041-930-0804,"['관광지', '농촌체험', '방자구이마을', '이색체험', '자연마을', '자연환경', '체험']",https://cdn.visitkorea.or.kr/img/call?cmd=VIEW&id=4101a3ec-ea71-4189-937b-3fcf9ed316a7&thumb,충청남도 보령시 천북면 홍보로 793-12,36.504410899999996,126.51633629999999
보령 성주사지,충남 보령시,041-930-6553,"['관광지', '보령성주사지', '사적', '역사', '역사공부', '역사관광지', '역사를품은곳']",https://cdn.visitkorea.or.kr/img/call?cmd=VIEW&id=60be3db0-151f-423e-ba1d-85649bacd2b1&thumb,충청남도 보령시 성주면 심원계곡로 99,36.3434153,126.65568470000001
보령 시민탑광장,충남 보령시,041-930-6553,"['관광지', '구조물', '바다경치', '바다내음', '보령시민탑광장', '산책길', '산책하기']",https://cdn.visitkorea.or.kr/img/call?cmd=VIEW&id=957099e5-38b3-4cb5-a92c-f4242723cd6b&thumb,충청남도 보령시 해수욕장4길 7,36.3054077,126.51605159999998
보령 천북굴단지,충남 보령시,041-930-0980,"['가족여행', '관광지', '굴구이', '굴무침', '보령가볼만한곳', '보령천북굴단지']",https://cdn.visitkorea.or.kr/img/call?cmd=VIEW&id=d1c0ae1a-4f42-43d6-b8c1-53224a8089b1&thumb,충청남도 보령시 천북면,36.478695,126.52728090000001
보령 청소역,충남 보령시,041-930-6553,"['관광지', '역사', '역사공부', '역사관광지', '역사를품은곳', '역사문화재', '역사속']",https://cdn.visitkorea.or.kr/img/call?cmd=VIEW&id=4689e96b-e4d1-42c8-a8aa-d08cd7679a4f&thumb,충청남도 보령시 청소면 청소큰길 176,36.4459402,126.59073670000001
보령 충청수영성,충남 보령시,041-930-4072,"['가족여행', '관광지', '교과서속여행', '보령충청수영성', '아이와함께', '역사']",https://cdn.visitkorea.or.kr/img/call?cmd=VIEW&id=d486c6b5-761a-4fdb-acda-a23800143cb1&thumb,충청남도 보령시 오천면 충청수영로,36.433394299999996,126.54313
보령 해수욕장 관광특구,충남 보령시,041-932-2023,"['가족과함께', '경치좋은곳', '관광지', '남녀노소', '보령가볼만한곳', '부산경치']",https://cdn.visitkorea.or.kr/img/call?cmd=VIEW&id=787fdcec-7de8-401a-932d-328984891ccd&thumb,충청남도 보령시,36.3331629,126.61294409999999
보령문화예술회관,충남 보령시,041-930-3710,"['가족과함께', '남녀노소', '문화공간', '문화시설', '문화예술활동', '복합문화공간']",https://cdn.visitkorea.or.kr/img/call?cmd=VIEW&id=4a569f28-7991-438b-bfeb-13bf294c3aa8&thumb,충청남도 보령시 성주산로 101,36.33385815,126.6145824
보령방조제,충남 보령시,041-930-3114,"['관광지', '바다풍경', '보령방조제', '자연', '충청권', '힐링']",https://cdn.visitkorea.or.kr/img/call?cmd=VIEW&id=fe7ef677-34f4-4b72-a0d6-90b36c22d78c&thumb,충청남도 보령시 오천면,36.4383534,126.5224226
보령석탄박물관,충남 보령시,041-934-1902,"['가족체험여행', '관광지', '박물관', '보령석탄박물관', '산업관광', '석탄박물관']",https://cdn.visitkorea.or.kr/img/call?cmd=VIEW&id=1d47eeda-d9cc-4877-ae72-a8cd029ded07&thumb,충청남도 보령시 성주면 성주산로 508,36.325973700000006,126.6528805
보령성곽&보령관아문,충남 보령시,041-930-6553,"['관광지', '역사', '역사공부', '역사관광지', '역사를품은곳', '역사문화재', '역사속']",https://cdn.visitkorea.or.kr/img/call?cmd=VIEW&id=dcd26d59-5364-416a-acc0-7b0df8c0847e&thumb,충청남도 보령시 주포면 보령리,36.413625700000004,126.5929812
보령시 옥마산 패러글라이딩 체험,충남 보령시,010-3900-8926,"['레포츠', '옥마산', '충청권', '패러글라이딩', '활공장']",https://cdn.visitkorea.or.kr/img/call?cmd=VIEW&id=2d36c2b6-46e4-40ff-addd-626a48bb938a&thumb,충청남도 보령시 남포면 창동1길 233-25,36.313832899999994,126.6283981
보령시청소년수련관,충남 보령시,041-931-2336,"['레포츠', '복합문화시설', '청소년수련원', '충청권']",https://cdn.visitkorea.or.kr/img/call?cmd=VIEW&id=4e558772-949c-4309-822d-a42c843aec98&thumb,충청남도 보령시 성주면 성주산로 500,36.3265425,126.65106090000002
보령에너지월드(보령발전본부),충남 보령시,070-7511-2885,"['관광지', '교육여행', '보령발전본부', '보령에너지월드', '산업관광', '신재생에너지']",https://cdn.visitkorea.or.kr/img/call?cmd=VIEW&id=7ef451c4-3096-4968-bc83-281c830890d8&thumb,충청남도 보령시 오천면,36.4383534,126.5224226
보령향교,충남 보령시,041-930-6553,"['관광지', '역사', '역사공부', '역사관광지', '역사를품은곳', '역사문화재', '역사속']",https://cdn.visitkorea.or.kr/img/call?cmd=VIEW&id=f6e7f66f-0ad4-4bfb-b267-9b3769f55133&thumb,충청남도 보령시 주포면 향교말길 45,36.41135739999999,126.59497069999999
보령호,충남 보령시,041-933-4301,"['관광지', '자연']",https://cdn.visitkorea.or.kr/img/call?cmd=VIEW&id=2e1f146e-69f4-4f93-aa24-5cd9d54ca8fb&thumb,충청남도 보령시 미산면 보령호로 819,36.2456373,126.6608726
보석사(금산),충남 금산군,041-753-1523,"['관광지', '금산보석사', '금산보석사목조석가여래삼존좌상', '금산보석사은행나무']",https://cdn.visitkorea.or.kr/img/call?cmd=VIEW&id=42fffa5e-de56-4e24-9117-d8944fe0fe7b&thumb,충청남도 금산군 남이면 보석사1길 30,36.0544053,127.4758335
봉곡사,충남 아산시,041-543-4004,"['고찰', '관광지', '봉곡사', '불교', '불교문화', '불교사찰', '사찰', '사찰여행', '역사']",https://cdn.visitkorea.or.kr/img/call?cmd=VIEW&id=2ff81775-b751-436c-ac3a-83441e120fee&thumb,충청남도 아산시 송악면 도송로632번길 138,36.6987411,126.9664775
봉곡서원,충남 논산시,041-746-5412,"['관광지', '봉곡서원', '역사', '역사공부', '역사관광지', '역사를품은곳', '역사문화재']",https://cdn.visitkorea.or.kr/img/call?cmd=VIEW&id=2fc16c61-a975-43e7-901e-f4a2e05c2250&thumb,충청남도 논산시 연무읍 황화로 290,36.0983909,127.0934255
봉서사(서천),충남 서천군,041-951-0255,"['관광지', '불교', '불교문화', '사찰', '사찰여행', '역사', '자연속으로', '자연환경']",https://cdn.visitkorea.or.kr/img/call?cmd=VIEW&id=e0f255e0-480a-423a-80d4-44646a725bb5&thumb,충청남도 서천군 한산면 건지산길 113,36.0882838,126.7916862
봉선저수지,충남 서천군,041-950-6460,"['관광지', '자연']",https://cdn.visitkorea.or.kr/img/call?cmd=VIEW&id=5011c676-2087-4be2-84b1-7388f0460d09&thumb,충청남도 서천군 시초면 봉선리 226,36.1193227,126.7765362
봉수산 자연휴양림,충남 예산군,041-339-8936,"['가족여행', '걷기길', '관광지', '나들이', '봉수산', '봉수산자연휴양림', '숲', '여름여행']",https://cdn.visitkorea.or.kr/img/call?cmd=VIEW&id=6c788490-be6f-446c-9197-c55591dfed53&thumb,충청남도 예산군 대흥면 임존성길 153,36.5988799,126.78253000000001
봉재낚시터,충남 아산시,041-531-3196,"['낚시터', '레포츠', '봉재낚시터', '충남권']",https://cdn.visitkorea.or.kr/img/call?cmd=VIEW&id=3ac5f3cb-77c1-416d-b91c-79ac545dd6ad&thumb,충청남도 아산시 둔포면 충무로 1258-32,36.8831057,127.03209240000001
부사방조제,충남 서천군,041-952-9525,"['관광지', '자연']",https://cdn.visitkorea.or.kr/img/call?cmd=VIEW&id=920f803b-8942-4f47-a22e-2275fc748abf&thumb,충청남도 서천군 서면 부사리,36.1665664,126.55257399999999
부산각서석,충남 부여군,041-830-2623,"['관광지', '문화재', '부산각서석', '역사', '역사공부', '역사관광지', '역사를품은곳']",https://cdn.visitkorea.or.kr/img/call?cmd=VIEW&id=34771187-9dae-4c82-bc86-85b486a1baea&thumb,충청남도 부여군 규암면,36.2752985,126.88418329999999
부산서원,충남 부여군,041-830-2623,"['관광지', '역사', '역사공부', '역사관광지', '역사를품은곳', '역사문화재', '역사속']",https://cdn.visitkorea.or.kr/img/call?cmd=VIEW&id=undefined&thumb,충청남도 부여군 규암면 진변로136번길 11-5,36.283969299999995,126.8943528
부석사(서산),충남 서산시,041-662-3824,"['관광지', '문화재', '부석사', '불교', '불교문화', '불교사찰', '사찰', '사찰여행']",https://cdn.visitkorea.or.kr/img/call?cmd=VIEW&id=bb99720c-bbbb-4303-8f28-bab74e2eecd9&thumb,충청남도 서산시 부석면 부석사길 243,36.703733899999996,126.41237859999998
부여 가림성,충남 부여군,041-830-2880,"['SNS감성사진', '관광지', '사진찍기', '사진찍기좋은곳', '사진촬영', '사진촬영명소']",https://cdn.visitkorea.or.kr/img/call?cmd=VIEW&id=d2822a21-6c27-40ea-bb20-5dfbfe4264c9&thumb,충청남도 부여군 임천면 성흥로97번길 167,36.1953003,126.89961310000001
부여 군수리 사지,충남 부여군,041-830-2623,"['관광지', '교과서속여행', '군수리사지', '문화재', '역사', '역사공부', '역사관광지']",https://cdn.visitkorea.or.kr/img/call?cmd=VIEW&id=e5b67eae-f1f8-485e-a6eb-24950a21b3ba&thumb,충청남도 부여군 부여읍,36.27554779999999,126.91123710000001
부여 나성 [유네스코 세계문화유산],충남 부여군,041-830-2623,"['관광지', '교과서속여행', '부여나성', '아이와함께', '역사', '역사공부', '역사관광지']",https://cdn.visitkorea.or.kr/img/call?cmd=VIEW&id=02a7bb27-9978-4704-aa21-2d6dce90b3b0&thumb,충청남도 부여군 부여읍 동문로142번길 100-11,36.2554235,126.943154
부여 능산리 고분군 [유네스코 세계유산],충남 부여군,041-830-2890,"['가족여행', '관광지', '부여능산리고분군', '사적', '역사', '역사공부', '역사관광지']",https://cdn.visitkorea.or.kr/img/call?cmd=VIEW&id=7d64faa0-a24c-4edb-9d68-75345e013c6e&thumb,충청남도 부여군 부여읍 왕릉로 61,36.2761461,126.94210790000001
부여 능안골 고분군,충남 부여군,041-830-2880,"['관광지', '부여능안골고분군', '사적', '사적지', '역사', '역사공부', '역사관광지']",https://cdn.visitkorea.or.kr/img/call?cmd=VIEW&id=2e806bba-fe71-4075-8e0b-356c3e7b6dc1&thumb,충청남도 부여군 부여읍 능산리,36.2750794,126.96155590000001
부여 롯데아울렛,충남 부여군,041-435-2500,"['부여롯데아울렛', '쇼핑', '아울렛', '충청권']",https://cdn.visitkorea.or.kr/img/call?cmd=VIEW&id=3140f65d-bbdd-4f88-a338-171df93b3dce&thumb,충청남도 부여군 규암면 백제문로 387,36.30721422,126.9019655
부여 반교마을,충남 부여군,041-830-2330,"['관광지', '남녀노소', '돌담길', '산책하기좋은곳', '아이와함께', '연인과함께']",https://cdn.visitkorea.or.kr/img/call?cmd=VIEW&id=a06fb514-5237-49e5-93be-5217e2ffe9ff&thumb,충청남도 부여군 외산면 반교동로 9-8,36.28375,126.71761670000001
부여 산직리지석묘,충남 부여군,041-830-2880,"['관광지', '역사', '역사공부', '역사관광지', '역사를품은곳', '역사문화재', '역사속']",https://cdn.visitkorea.or.kr/img/call?cmd=VIEW&id=80d36c90-d400-4d96-a7ba-c7c0d3f46483&thumb,충청남도 부여군 초촌면 산직리,36.256175899999995,127.0466014
부여 산직지,충남 부여군,041-830-6808,"['낚시', '레포츠', '부여군', '산직지', '지석묘']",https://cdn.visitkorea.or.kr/img/call?cmd=VIEW&id=bb121d02-8b99-4cbd-83d2-386f2d9ec0d7&thumb,충청남도 부여군 초촌면 선사로 286,36.2609278,127.0410666
부여 상천지,충남 부여군,041-830-2880,"['레포츠', '민물낚시', '부여낚시터', '부여저수지', '저수지', '충남권']",https://cdn.visitkorea.or.kr/img/call?cmd=VIEW&id=undefined&thumb,충청남도 부여군 홍산면 삽티로,36.2362661,126.75414040000001
부여 세탑리오층석탑,충남 부여군,041-830-2330,"['관광지', '역사', '역사공부', '역사관광지', '역사를품은곳', '역사문화재', '역사속']",https://cdn.visitkorea.or.kr/img/call?cmd=VIEW&id=4e5cb47d-3ce4-455e-b130-a487e383f495&thumb,충청남도 부여군 초촌면 금백로 909-70,36.2773436,127.0183933
부여 송국리 유적,충남 부여군,041-830-2880,"['관광지', '문화재', '부여송국리유적', '역사', '역사공부', '역사관광지', '역사를품은곳']",https://cdn.visitkorea.or.kr/img/call?cmd=VIEW&id=88272981-32ca-4359-8489-f0703979d952&thumb,충청남도 부여군 초촌면 선사로225번길 54,36.265867799999995,127.03517350000001
부여 신암친환경마을,충남 부여군,041-830-2914,"['관광지', '농촌마을', '농촌여행', '농촌체험', '신암친환경마을', '이색체험', '자연마을']",https://cdn.visitkorea.or.kr/img/call?cmd=VIEW&id=db5dbae0-b118-4e23-ba20-1d0df91592e2&thumb,충청남도 부여군 초촌면 신암로 178,36.2791141,126.986899
부여 정림사지 오층석탑 [유네스코 세계유산],충남 부여군,041-830-2880,"['가족여행', '가족체험여행', '관광지', '교과서속여행', '부여정림사지', '부여정림사지오층석탑']",https://cdn.visitkorea.or.kr/img/call?cmd=VIEW&id=dfeb9f6f-dcd6-47f6-a129-1cf45216c54b&thumb,충청남도 부여군 부여읍 정림로 83,36.2787109,126.91425009999999
부여 중앙시장,충남 부여군,041-835-7710,"['가족여행', '기차여행', '나들이', '나홀로여행', '데이트코스', '먹거리', '부여중앙시장']",https://cdn.visitkorea.or.kr/img/call?cmd=VIEW&id=5f263711-50c3-42df-9f84-0f7f866f75f2&thumb,충청남도 부여군 부여읍 중앙로 15,36.28079731,126.91217379999999
부여 청마산성,충남 부여군,041-830-2623,"['관광지', '역사', '역사공부', '역사관광지', '역사를품은곳', '역사문화재', '역사속']",https://cdn.visitkorea.or.kr/img/call?cmd=VIEW&id=8809151e-02b5-4556-baf5-17864d860bf0&thumb,충청남도 부여군 부여읍 능산리,36.2750794,126.96155590000001
부여군 청소년수련원,충남 부여군,041-835-5502,"['레포츠', '부여숙소', '숙박', '청소년수련원']",https://cdn.visitkorea.or.kr/img/call?cmd=VIEW&id=2ce58266-4c79-4206-8024-82785fd7c982&thumb,충청남도 부여군 충화면 충신로 618,36.160055299999996,126.8195001
부여금사리성당,충남 부여군,041-832-5355,"['관광지', '역사', '역사공부', '역사관광지', '역사를품은곳', '역사문화재', '역사속']",https://cdn.visitkorea.or.kr/img/call?cmd=VIEW&id=b2d92d9e-c58b-4ecd-a01c-4fc2dd5ae865&thumb,충청남도 부여군 구룡면 성충로1342번길 21,36.2494494,126.7981618
부여기와마을,충남 부여군,041-834-8253,"['가족체험여행', '관광지', '농촌마을', '농촌여행', '농촌체험', '농촌체험마을']",https://cdn.visitkorea.or.kr/img/call?cmd=VIEW&id=7790e78e-bc5b-49b5-b1ee-687e26c2d638&thumb,충청남도 부여군 부여읍 월함로 277,36.3040182,126.9373413
"부여장 (5, 10일) / 백마강달밤야시장",충남 부여군,041-837-0112,"['가족여행', '부여장', '사계절', '쇼핑', '시장맛집', '아이와함께', '어르신추천코스']",https://cdn.visitkorea.or.kr/img/call?cmd=VIEW&id=87af0fa2-1192-4720-92d6-0f13a6287015&thumb,충청남도 부여군 부여읍 성왕로173번길 12,36.28149441,126.9075581
부여청소년수련원,충남 부여군,041-835-5502,"['교육프로그램', '레포츠', '부여청소년수련원', '충남권']",https://cdn.visitkorea.or.kr/img/call?cmd=VIEW&id=eb4339db-f7c6-4218-83ac-236ea31affaa&thumb,충청남도 부여군 충화면 충신로 618,36.160055299999996,126.8195001
부여향교,충남 부여군,041-830-2623,"['관광지', '역사', '역사공부', '역사관광지', '역사를품은곳', '역사문화재', '역사속']",https://cdn.visitkorea.or.kr/img/call?cmd=VIEW&id=0bbea306-e548-43bb-874a-11ff4fdd2bd9&thumb,충청남도 부여군 부여읍 의열로 21-4,36.280473799999996,126.91505490000002
부풍사,충남 부여군,041-830-2252,"['관광지', '역사', '역사공부', '역사관광지', '역사를품은곳', '역사문화재', '역사속']",https://cdn.visitkorea.or.kr/img/call?cmd=VIEW&id=null&thumb,충청남도 부여군 규암면 백제문로 7,36.276510200000004,126.88555659999999
비인 선도리 쌍도해안,충남 서천군,041-952-9525,"['관광지', '자연']",https://cdn.visitkorea.or.kr/img/call?cmd=VIEW&id=20d3f20e-d2de-40c0-9579-a8c7f5ba98fe&thumb,충청남도 서천군 비인면 선도리,36.1331671,126.59182120000001
"비인장 (4, 9일)",충남 서천군,041-950-4125,"['가족여행', '비인장', '사계절', '쇼핑', '시장맛집', '아이와함께', '재래시장', '전통시장']",https://cdn.visitkorea.or.kr/img/call?cmd=VIEW&id=ddb4a7f0-284f-44c6-ae36-08a628761330&thumb,충청남도 서천군 비인면 비인로149번길 12,36.13941303,126.60378870000001
비인향교,충남 서천군,041-950-4741,"['관광지', '역사', '역사공부', '역사관광지', '역사를품은곳', '역사문화재', '역사속']",https://cdn.visitkorea.or.kr/img/call?cmd=VIEW&id=ebc5c868-bc02-4c12-acfc-8262ab3e5a64&thumb,충청남도 서천군 비인면 비인로136번길 68,36.1401832,126.6082928
사목해수욕장,충남 태안군,041-670-2691,"['관광지', '자연']",https://cdn.visitkorea.or.kr/img/call?cmd=VIEW&id=c790ee0a-e15d-4293-a0b3-f20b90b416d5&thumb,충청남도 태안군 이원면 내리,36.9520615,126.2947774
사비도성 가상체험관,충남 부여군,041-830-2930,"['가족이색체험', '문화시설', '사비도성가상체험관', '이색체험']",https://cdn.visitkorea.or.kr/img/call?cmd=VIEW&id=dc084bf7-18c7-4c32-a34d-cd4ebbd8f5a9&thumb,충청남도 부여군 부여읍 부소로 15,36.28548643,126.9133514
산혜암(홍성),충남 홍성군,041-632-3196,"['관광지', '불교', '불교문화', '사찰', '사찰여행', '역사', '자연속으로', '자연환경']",https://cdn.visitkorea.or.kr/img/call?cmd=VIEW&id=null&thumb,충청남도 홍성군 홍성읍 홍덕서로 185-22,36.6092566,126.6258973
삼길포,충남 서산시,041-662-0819,"['낚시체험', '낚시터', '레포츠', '삼길포', '충청권']",https://cdn.visitkorea.or.kr/img/call?cmd=VIEW&id=66aac7aa-bf08-4e4f-a6e0-3e1025a224f1&thumb,충청남도 서산시 대산읍 삼길포1로 59,37.0030381,126.4521436
삼길포항,충남 서산시,041-662-0819,"['관광지', '낚시', '삼길포항', '자연', '충청권', '항구']",https://cdn.visitkorea.or.kr/img/call?cmd=VIEW&id=f88e2d5f-b597-4297-89ab-7ac3e7e8491f&thumb,충청남도 서산시 대산읍 삼길포1로 1-15,36.9990379,126.45107879999999
삼봉해수욕장,충남 태안군,041-670-2691,"['가족여행', '관광지', '나들이', '데이트코스', '바다풍경', '삼봉해수욕장', '아이와함께']",https://cdn.visitkorea.or.kr/img/call?cmd=VIEW&id=49e4081c-ad13-4bc7-8762-c30e2fab747e&thumb,충청남도 태안군 안면읍,36.520472,126.34449690000001
삼원승마클럽,충남 서산시,041-663-1111,"['가족과함께', '레포츠', '승마', '승마레슨', '승마장', '승마체험', '승마캠프', '승마트레킹']",https://cdn.visitkorea.or.kr/img/call?cmd=VIEW&id=3ce129c0-fce8-40ed-bd6a-59c6ed753c93&thumb,충청남도 서산시 팔봉면 진장서낭골길 204,36.7775109,126.35139879999998
삽교호(아산),충남 아산시,041-536-8686,['레포츠'],https://cdn.visitkorea.or.kr/img/call?cmd=VIEW&id=2d0e96b6-13d3-49ba-b7a9-413f681a5c0f&thumb,충청남도 아산시 인주면 아산만로 1363,36.8526333,126.85456640000001
삽시도,충남 보령시,041-930-3520,"['관광지', '자연']",https://cdn.visitkorea.or.kr/img/call?cmd=VIEW&id=fcb5739f-06de-4af4-ab26-ec5d77a40496&thumb,충청남도 보령시 오천면 삽시도,36.340923,126.35622959999999
상가리미륵불,충남 예산군,041-339-7332,"['관광지', '역사', '역사공부', '역사관광지', '역사를품은곳', '역사문화재', '역사속']",https://cdn.visitkorea.or.kr/img/call?cmd=VIEW&id=7ea876ed-63ef-420e-a1e3-563290fb8d69&thumb,충청남도 예산군 덕산면 상기리,36.7013072,126.6652355
상록리조트 눈썰매장,충남 천안시,041-560-9114,"['겨울스포츠', '눈썰매장', '레포츠', '복합레저스포츠', '상록리조트', '상록리조트 눈썰매장']",https://cdn.visitkorea.or.kr/img/call?cmd=VIEW&id=2f0a256d-86bc-4a15-a36d-59eda10685b5&thumb,충청남도 천안시 동남구 수신면 수신로 576,36.74204279999999,127.28732079999999
상양관광농원,충남 보령시,041-931-1817,"['가족과함께', '관광지', '아이와함께', '오토캠핑장', '이색체험', '자연좋은곳']",https://cdn.visitkorea.or.kr/img/call?cmd=VIEW&id=0ce60268-95e5-4a58-a91b-79df8d7d870c&thumb,충청남도 보령시 주교면 문화마을길 178-58,36.36970720000001,126.59207849999999
상화원,충남 보령시,041-933-4750,"['가족과함께', '감성사진', '관광지', '사진찍기좋은곳', '사진촬영', '연인과함께']",https://cdn.visitkorea.or.kr/img/call?cmd=VIEW&id=a7ff332c-a95d-4638-9fdc-9aca08b2182f&thumb,충청남도 보령시 남포면 남포방조제로 408-52,36.277336600000005,126.53767649999999
샛별해수욕장,충남 태안군,041-670-2691,"['가족여행', '관광지', '바다풍경', '샛별해수욕장', '여름여행', '연인과함께', '자연']",https://cdn.visitkorea.or.kr/img/call?cmd=VIEW&id=bbf0b614-7f83-4da4-9ab1-71ff6b1ffc46&thumb,충청남도 태안군 안면읍 샛별길 184-2,36.44851129999999,126.33609750000001
서광사(서산),충남 서산시,041-664-2002,"['관광지', '불교', '불교문화', '사찰', '사찰여행', '역사', '자연속으로', '자연환경']",https://cdn.visitkorea.or.kr/img/call?cmd=VIEW&id=59e5415c-7560-41d9-b0b8-f964e4ac5903&thumb,충청남도 서산시 부춘산1로 44,36.7917299,126.44539920000001
서대산,충남 금산군,041-750-2626,"['관광지', '자연']",https://cdn.visitkorea.or.kr/img/call?cmd=VIEW&id=4aac47a7-6cdf-4118-ac5c-c447c9e89314&thumb,충청남도 금산군 추부면,36.1948535,127.4760206
서대산드림리조트수영장(실외),충남 금산군,1666-0588,['레포츠'],https://cdn.visitkorea.or.kr/img/call?cmd=VIEW&id=undefined&thumb,충청남도 금산군 추부면 성당로 247,36.23500720000001,127.5340153
서동공원과 궁남지,충남 부여군,041-830-2953,"['19_20한국관광100선', '가족여행', '관광지', '부여백제유적지', '서동공원과궁남지']",https://cdn.visitkorea.or.kr/img/call?cmd=VIEW&id=90fc40dc-2c6e-4f73-9bcd-26843def07b0&thumb,충청남도 부여군 부여읍 궁남로 52,36.2695673,126.9122129
서동요 테마파크,충남 부여군,041-832-9913,"['SNS감성사진', '가족여행', '관광지', '놀이동산&테마파크', '사진찍기', '사진촬영']",https://cdn.visitkorea.or.kr/img/call?cmd=VIEW&id=76fcaab4-fada-4e45-96e9-09a129cc947b&thumb,충청남도 부여군 충화면 충신로 616,36.1453932,126.8235523
서산 경주김씨 고택,충남 서산시,041-660-2247,"['경주김씨고택', '관광지', '국가민속문화재', '서산김기현가옥', '역사', '역사공부']",https://cdn.visitkorea.or.kr/img/call?cmd=VIEW&id=9203414c-aaba-4e05-b895-afbb3d5fa0f3&thumb,충청남도 서산시 음암면 한다리길 45,36.7410307,126.5193237
서산 꽃송아리마을,충남 서산시,041-660-3450,"['경치좋은곳', '관광지', '산책길', '산책하기', '산책하기좋은곳', '자연마을', '자연좋은곳']",https://cdn.visitkorea.or.kr/img/call?cmd=VIEW&id=c799238e-c037-4934-b272-3350ee145fcc&thumb,충청남도 서산시 팔봉면 한월당로 704,36.8084841,126.3985581
서산 덕송지,충남 서산시,041-662-6301,"['덕송지', '레포츠', '충청권', '풍경좋은곳']",https://cdn.visitkorea.or.kr/img/call?cmd=VIEW&id=a90e4663-371e-4a1f-bd6d-91953f09c483&thumb,충청남도 서산시 팔봉면 덕송리,36.8254594,126.34601509999999
서산 버드랜드,충남 서산시,041-661-8054,"['겨울방학가볼만한곳', '관광지', '버드랜드', '생태관광', '생태관광지', '서산버드랜드']",https://cdn.visitkorea.or.kr/img/call?cmd=VIEW&id=04cb3974-2031-4bad-bd5a-86d1076b3aa3&thumb,충청남도 서산시 부석면 천수만로 655-73,36.6313291,126.3783564
서산 보원사지,충남 서산시,041-660-2247,"['관광지', '보원사지', '사적', '역사', '역사를품은곳', '역사문화재', '역사속', '역사속으로']",https://cdn.visitkorea.or.kr/img/call?cmd=VIEW&id=8637700c-3b00-4acd-9632-b0c284948681&thumb,충청남도 서산시 운산면 용현리,36.7562622,126.6028203
서산 용현리 마애여래삼존상,충남 서산시,041-660-2538,"['관광지', '국보', '서산용현리마애여래삼존상', '역사', '역사공부', '역사관광지']",https://cdn.visitkorea.or.kr/img/call?cmd=VIEW&id=38471ffd-ac26-4248-be4b-d877f98e920f&thumb,충청남도 서산시 운산면 마애삼존불길 65-13,36.7737667,126.605246
서산 유기방가옥,충남 서산시,041-663-4326,"['관광지', '역사', '역사공부', '역사관광지', '역사를품은곳', '역사문화재', '역사속']",https://cdn.visitkorea.or.kr/img/call?cmd=VIEW&id=6ce28c64-5119-42c6-be8d-69e384d83914&thumb,충청남도 서산시 운산면 이문안길 72-10,36.8246941,126.57342620000001
서산 해미읍성,충남 서산시,041-661-8005,"['가족여행', '관광지', '교과서속여행', '서산해미읍성', '아이와함께', '야간관광100선']",https://cdn.visitkorea.or.kr/img/call?cmd=VIEW&id=1db7582c-ccae-4ca1-bfd0-1e4a1a271a23&thumb,충청남도 서산시 해미면 남문2로 143,36.713120399999994,126.54917040000001
서산 회포마을,충남 서산시,070-8802-6635,"['가족과함께', '가족체험', '관광지', '농촌마을', '농촌체험', '농촌체험마을', '아이와함께']",https://cdn.visitkorea.or.kr/img/call?cmd=VIEW&id=af27b0dc-7228-4619-b121-3c7445b8f611&thumb,충청남도 서산시 대산읍 윤산리,36.953137299999995,126.4678827
서산A지구방조제,충남 서산시,,"['관광지', '자연']",https://cdn.visitkorea.or.kr/img/call?cmd=VIEW&id=9dd3d959-a49a-4d41-8250-c9dc734578a8&thumb,충청남도 홍성군 서부면 남당항로,36.559028600000005,126.4729063
서산객사,충남 서산시,041-660-2247,"['관광지', '서산객사', '역사', '역사공부', '역사관광지', '역사를품은곳', '역사문화재']",https://cdn.visitkorea.or.kr/img/call?cmd=VIEW&id=51d21e1d-5988-4437-a749-a3fbd0dd8037&thumb,충청남도 서산시 동헌로 149,36.782754499999996,126.4504693
서산관광농원,충남 서산시,041-665-4330,"['가족과함께', '관광지', '산책길', '산책하기', '산책하기좋은곳', '아이와함께']",https://cdn.visitkorea.or.kr/img/call?cmd=VIEW&id=30d3aceb-2757-4982-9027-90c900791428&thumb,충청남도 서산시 수석1길 32,36.76988370000001,126.49031140000001
서산관아문 및 외동헌,충남 서산시,041-660-2247,"['관광지', '서산관아문', '역사', '역사공부', '역사관광지', '역사를품은곳', '역사문화재']",https://cdn.visitkorea.or.kr/img/call?cmd=VIEW&id=9852382a-4dc6-4cec-b398-dcd67b16947c&thumb,충청남도 서산시 관아문길 1,36.7844396,126.45012609999999
서산동문동 오층석탑 및 당간지주,충남 서산시,041-660-3023,"['관광지', '역사', '역사공부', '역사관광지', '역사를품은곳', '역사문화재', '역사속']",https://cdn.visitkorea.or.kr/img/call?cmd=VIEW&id=842c54b2-5066-4e28-a1c6-8c5f206c2593&thumb,충청남도 서산시 탑동2로 15,36.7866131,126.4534511
서산동부시장,충남 서산시,041-665-5478,"['가족여행', '나들이', '나홀로여행', '데이트코스', '먹거리', '서산동부시장', '쇼핑']",https://cdn.visitkorea.or.kr/img/call?cmd=VIEW&id=371205c2-c0d0-4d22-b6c7-baae0badab40&thumb,충청남도 서산시 시장3길 5-6,36.78261626,126.45561029999999
서산버드랜드,충남 서산시,041-661-8054,"['관광지', '교육여행', '먹거리', '생태관광지', '서산가볼만한곳', '서산버드랜드']",https://cdn.visitkorea.or.kr/img/call?cmd=VIEW&id=9d64123a-8414-4363-bafc-8935a8ee6c92&thumb,충청남도 서산시 부석면 천수만로 655-73,36.6313291,126.3783564
서산시 천수만,충남 서산시,041-664-7455,"['관광지', '박물관', '보령시', '생태관광', '생태관광지', '서산버드랜드', '안면읍']",https://cdn.visitkorea.or.kr/img/call?cmd=VIEW&id=32bf1b98-564d-434a-b2d9-88d335d2735f&thumb,충청남도 서산시 부석면 간월도1길 119-29,36.6036534,126.41120900000001
서산시 청소년문화의집,충남 서산시,041-688-7320,"['문화시설', '복합문화공간', '사계절', '서산시청소년문화의집', '이색체험', '체험학습']",https://cdn.visitkorea.or.kr/img/call?cmd=VIEW&id=cf0f4b74-5ecf-40b4-8eb8-5d10ccc81411&thumb,충청남도 서산시 해미면 성지3길 33,36.71009171,126.5425933
서산시문화회관,충남 서산시,041-661-8031,"['공연', '무장애', '문화공간', '문화시설', '문화예술공간', '서산시', '전시회']",https://cdn.visitkorea.or.kr/img/call?cmd=VIEW&id=e236cb57-d14c-4e98-ad99-924852014326&thumb,충청남도 서산시 문화로 54,36.78615258,126.4481269
서산여미리석불입상,충남 서산시,041-660-2247,"['관광지', '불상', '서산여미리석불입상', '역사', '역사공부', '역사관광지', '역사를품은곳']",https://cdn.visitkorea.or.kr/img/call?cmd=VIEW&id=ed4e18e5-2630-4c16-855f-85bc46ee43fa&thumb,충청남도 서산시 운산면 여미리,36.8221626,126.57138640000001
서산창작예술촌,충남 서산시,041-660-3378,"['공예체험', '관광지', '도자기체험', '문화공간', '복합문화공간', '서산창작예술촌']",https://cdn.visitkorea.or.kr/img/call?cmd=VIEW&id=abf8fca5-ae2a-437b-aa1b-b90ca7f6f434&thumb,충청남도 서산시 지곡면 중왕1길 87-5,36.874014,126.3869879
서산해미읍성회화나무,충남 서산시,041-660-2499,"['가족여행', '관광지', '서산해미읍성회화나무', '아이와함께', '충청권', '충청남도기념물']",https://cdn.visitkorea.or.kr/img/call?cmd=VIEW&id=169ce7b9-afe5-4131-8d70-23d4306261c3&thumb,충청남도 서산시 해미면 동문1길 36-1,36.712126299999994,126.5516044
서산향교,충남 서산시,041-660-2247,"['관광지', '서산향교', '역사', '역사관광지', '역사를품은곳', '역사문화재', '역사속']",https://cdn.visitkorea.or.kr/img/call?cmd=VIEW&id=130a9bbc-fbc0-4b6f-9d20-358088da6344&thumb,충청남도 서산시 향교1로 26,36.790898,126.4565916
서산향교은행나무,충남 서산시,041-660-2499,"['관광지', '서산향교은행나무', '자연', '충청권', '충청남도기념물']",https://cdn.visitkorea.or.kr/img/call?cmd=VIEW&id=1319193b-9c22-4472-9a66-521c39dde0af&thumb,충청남도 서산시 향교1로 26,36.790898,126.4565916
서천 달고개모시마을,충남 서천군,041-950-6380,"['가족여행', '관광지', '달고개모시마을', '산업관광', '서천달고개모시마을', '아이와함께']",https://cdn.visitkorea.or.kr/img/call?cmd=VIEW&id=6bdfbcf1-470c-424b-9da9-707dc5cc3bd9&thumb,충청남도 서천군 화양면 화한로504번길 5,36.065720899999995,126.8213308
서천 동자북마을,충남 서천군,041-951-7743,"['관광지', '농촌마을', '동자북문화역사마을', '이색체험', '자연좋은곳', '전통&역사문화체험']",https://cdn.visitkorea.or.kr/img/call?cmd=VIEW&id=69d16076-6ccb-4ff0-be3b-bc41617e4d13&thumb,충청남도 서천군 한산면 신성로 36-16,36.0842085,126.8131551
서천 마량리 동백나무 숲,충남 서천군,041-952-7999,"['가족여행', '관광지', '봄꽃여행', '사진찍기좋은곳', '서천마량리동백나무숲']",https://cdn.visitkorea.or.kr/img/call?cmd=VIEW&id=6a69d9bc-5237-4aa8-9985-63d71c86cd02&thumb,충청남도 서천군 서면 서인로235번길 103,36.1378613,126.49356340000001
서천 성북리 오층석탑,충남 서천군,041-950-4741,"['관광지', '역사', '역사공부', '역사관광지', '역사를품은곳', '역사문화재', '역사속']",https://cdn.visitkorea.or.kr/img/call?cmd=VIEW&id=72e3c7e1-a489-42c2-a1c8-8e53fc17ed53&thumb,충청남도 서천군 비인면 서인로1243번길,36.1473552,126.59756100000001
서천 이하복 고택,충남 서천군,041-950-4741,"['관광지', '역사', '역사공부', '역사를품은곳', '역사문화재', '역사속', '역사속으로']",https://cdn.visitkorea.or.kr/img/call?cmd=VIEW&id=e53aab68-317c-4126-ac10-f24a8d0e0205&thumb,충청남도 서천군 기산면 신막로57번길 32-3,36.0809383,126.75936270000001
서천 한산소곡주 양조장,충남 서천군,041-951-0290,"['관광지', '무형문화재', '산업관광', '서천한산소곡주양조장', '양조장', '이색체험']",https://cdn.visitkorea.or.kr/img/call?cmd=VIEW&id=efad6fcd-32c3-43cf-8239-3e346e1ffb07&thumb,충청남도 서천군 한산면 충절로 1118,36.0798898,126.80210990000002
서천국민체육센터,충남 서천군,041-950-4766,['레포츠'],https://cdn.visitkorea.or.kr/img/call?cmd=VIEW&id=6b5b95da-6986-4204-bab4-e28e828e0afc&thumb,충청남도 서천군 마서면 마서로 400,36.062447799999994,126.6621736
서천군 조류 생태 전시관,충남 서천군,041-956-4002,"['10월추천가볼만한곳', '11월추천가볼만한곳', '관광지', '금강하구', '생태관광']",https://cdn.visitkorea.or.kr/img/call?cmd=VIEW&id=7bf3871e-19fe-40de-ab25-a8677d5bcccd&thumb,충청남도 서천군 마서면 장산로 916,36.0227534,126.7427377
서천식물예술원,충남 서천군,041-951-0020,"['관광지', '자연']",https://cdn.visitkorea.or.kr/img/call?cmd=VIEW&id=f5dd85a5-f126-448d-86b7-73cb6e0e1f49&thumb,충청남도 서천군 기산면 화출길42번길 17,36.0773763,126.769295
서천이색체험마을,충남 서천군,041-951-1442,"['관광지', '농촌마을', '농촌여행', '농촌체험', '농촌체험마을', '농촌체험여행']",https://cdn.visitkorea.or.kr/img/call?cmd=VIEW&id=20b513a3-ccce-4624-bc3c-9244f9d29215&thumb,충청남도 서천군 기산면 화출길42번길 2-10,36.0758372,126.76825990000002
"서천장 / 서천 수산물특화시장 (2, 7일)",충남 서천군,041-951-1445,"['가족여행', '기차여행', '나들이', '나홀로여행', '먹거리', '서천장', '서천특화시장']",https://cdn.visitkorea.or.kr/img/call?cmd=VIEW&id=eb4cf255-7672-4545-8531-045033706e62&thumb,충청남도 서천군 서천읍 충절로 42,36.07502119,126.6868202
서천향교,충남 서천군,041-952-9525,"['관광지', '역사', '역사공부', '역사관광지', '역사를품은곳', '역사문화', '역사문화재']",https://cdn.visitkorea.or.kr/img/call?cmd=VIEW&id=79a10347-64f8-4160-85e5-7ca05bc11179&thumb,충청남도 서천군 서천읍 서천향교길 53-5,36.0797669,126.6968821
서천황새마을,충남 서천군,041-952-9525,"['관광지', '농촌마을', '농촌여행', '농촌전통테마마을', '농촌체험', '자연마을']",https://cdn.visitkorea.or.kr/img/call?cmd=VIEW&id=0ec8ba27-77a1-4b77-9382-99341f9b20de&thumb,충청남도 서천군 마서면 계동길24번길 22-6,36.065293100000005,126.7040219
석대도,충남 보령시,041-932-2023,"['관광지', '자연']",https://cdn.visitkorea.or.kr/img/call?cmd=VIEW&id=ecb3c078-fe50-4487-8873-5af1b282cbf9&thumb,충청남도 보령시 웅천읍 관당리,36.246464,126.5455865
석련사(홍성),충남 홍성군,041-632-7506,"['관광지', '불교', '불교문화', '사찰', '사찰여행', '역사', '자연속으로', '자연환경']",https://cdn.visitkorea.or.kr/img/call?cmd=VIEW&id=null&thumb,충청남도 홍성군 구항면 구성북로160번길 76,36.604591799999994,126.6181395
석성향교,충남 부여군,041-830-2623,"['관광지', '역사', '역사공부', '역사관광지', '역사를품은곳', '역사문화재', '역사속']",https://cdn.visitkorea.or.kr/img/call?cmd=VIEW&id=1a925a12-dd78-449f-b5ec-92d7308113bd&thumb,충청남도 부여군 석성면 석성향교길 18,36.2279092,126.990453
석장리박물관,충남 공주시,041-840-8924,"['겨울방학가볼만한곳', '교과서속여행', '문화시설', '박물관', '석장리박물관']",https://cdn.visitkorea.or.kr/img/call?cmd=VIEW&id=defd9718-c124-422e-9143-c708fb4cfee4&thumb,충청남도 공주시 금벽로 990,36.44795203,127.1875876
선도리갯벌체험마을,충남 서천군,041-952-5212,"['가족여행', '갯벌체험', '관광지', '생태체험학습장', '선도리갯벌체험마을', '자연속으로']",https://cdn.visitkorea.or.kr/img/call?cmd=VIEW&id=e93accc3-56ee-4796-a264-255e81571aa1&thumb,충청남도 서천군 비인면 갯벌체험로 428-13,36.132836,126.5828062
선림사(보령),충남 보령시,041-932-4180,"['관광지', '불교', '불교문화', '사찰', '사찰여행', '역사', '자연속으로', '자연환경']",https://cdn.visitkorea.or.kr/img/call?cmd=VIEW&id=null&thumb,충청남도 보령시 오천면 충청수영로 521-64,36.4378976,126.5501207
선샤인랜드,충남 논산시,041-746-8480,"['가족나들이', '관광지', '논산가볼만한곳', '이색체험', '체험관광지']",https://cdn.visitkorea.or.kr/img/call?cmd=VIEW&id=30474c05-7d93-4e62-9848-d0b7869b8430&thumb,충청남도 논산시 연무읍 봉황로 102,36.0942201,127.1104456
선화당(공주),충남 공주시,041-840-8207,"['관광지', '역사', '역사공부', '역사관광지', '역사를품은곳', '역사문화', '역사문화재']",https://cdn.visitkorea.or.kr/img/call?cmd=VIEW&id=fc010c12-898a-4192-84f3-ed61ff4e3689&thumb,충청남도 공주시 관광단지길 30-8,36.465579,127.1096564
설화산,충남 아산시,1577-6611,"['경치좋은곳', '관광지', '눈꽃&설경여행', '등산', '등산로', '설화산', '자연', '자연좋은곳']",https://cdn.visitkorea.or.kr/img/call?cmd=VIEW&id=fcc81e79-939e-44a8-982e-39a352c3542c&thumb,충청남도 아산시 송악면 외암로,36.7008375,126.99920120000002
성거산,충남 천안시,1577-3900,"['관광지', '자연']",https://cdn.visitkorea.or.kr/img/call?cmd=VIEW&id=undefined&thumb,충청남도 천안시 동남구 목천읍 송전1길 98,36.834202000000005,127.2226379
성곡사,충남 공주시,041-853-3355,"['가족여행', '관광지', '교과서속여행', '불교', '불교사찰', '사찰', '사찰&산사']",https://cdn.visitkorea.or.kr/img/call?cmd=VIEW&id=05eb91c5-3671-4794-bf8f-3877685f4f7e&thumb,충청남도 공주시 우성면 성곡길 371,36.5063054,127.07007970000001
성불사(천안),충남 천안시,041-565-4567,"['관광지', '불교', '불교사찰', '사찰', '사찰여행', '역사', '자연속으로', '자연좋은곳']",https://cdn.visitkorea.or.kr/img/call?cmd=VIEW&id=e5c9b70e-d0bc-40b9-bb6b-698de03b1f6c&thumb,충청남도 천안시 동남구 성불사길 144,36.828361799999996,127.19699550000001
성암서원,충남 서산시,041-660-2247,"['관광지', '역사', '역사공부', '역사관광지', '역사를품은곳', '역사문화재', '역사속']",https://cdn.visitkorea.or.kr/img/call?cmd=VIEW&id=undefined&thumb,충청남도 서산시 성암1로 45,36.782142799999995,126.4441982
성주산자연휴양림,충남 보령시,041-934-7133,"['걷기길', '관광지', '등산로', '성주산자연휴양림', '숲치유', '자연', '자연좋은곳']",https://cdn.visitkorea.or.kr/img/call?cmd=VIEW&id=b05f0e10-33bc-4968-9a3a-7d2670656598&thumb,충청남도 보령시 성주면 화장골길 57-228,36.336812200000004,126.65551640000001
"성환장 (1, 6일) / 성환이화시장",충남 천안시,041-521-5158,"['가족여행', '기차여행', '나들이', '나홀로여행', '먹거리', '성환이화시장', '성환장']",https://cdn.visitkorea.or.kr/img/call?cmd=VIEW&id=94649c29-a4c9-4ed8-a81f-b02a370a8f3b&thumb,충청남도 천안시 서북구 성환읍 성환시장길 12,36.9185394,127.13003159999998
세계꽃식물원,충남 아산시,041-544-0746,"['관광지', '데이트코스', '미세먼지_피하는_실내여행', '생태관광', '세계꽃식물원']",https://cdn.visitkorea.or.kr/img/call?cmd=VIEW&id=a1f77de9-12b8-4488-8ab8-f23c4e09c476&thumb,충청남도 아산시 도고면 아산만로 37-37,36.7509658,126.8596183
세심사(아산),충남 아산시,041-543-2696,"['관광지', '불교', '불교문화', '불교사찰', '사찰', '사찰여행', '역사', '자연속으로']",https://cdn.visitkorea.or.kr/img/call?cmd=VIEW&id=bd3a6de9-80ab-4918-86fe-2401a6be1e6d&thumb,충청남도 아산시 염치읍 산양길 180,36.8420748,126.92690379999999
