name,region,tel,keyword,photo,address,lat,lon
LH 토지주택박물관,경남 진주시,055-922-5432,"['LH', 'LH토지주택박물관', '경상권', '관광지', '박물관', '산업관광', '아이와함께']",https://cdn.visitkorea.or.kr/img/call?cmd=VIEW&id=0b2126ec-d389-416d-b2fe-bff04d807fab&thumb,경상남도 진주시 충의로 19,35.1785185,128.1463982
가고파 꼬부랑길 벽화마을,경남 창원시,055-220-5690,"['가고파꼬부랑길벽화마을', '가족여행', '감성사진', '경상권', '관광지', '데이트장소추천']",https://cdn.visitkorea.or.kr/img/call?cmd=VIEW&id=5cb3ea2b-f6a1-4d74-ac3a-c20580da7048&thumb,경상남도 창원시 마산합포구 성호서7길 15-8,35.2077494,128.5696471
가라산,경남 거제시,055-639-4321,"['가라산', '경상권', '관광지', '자연', '전망좋은곳', '트레킹']",https://cdn.visitkorea.or.kr/img/call?cmd=VIEW&id=d212b500-35e2-4f3a-927c-fe20bd1d8940&thumb,경상남도 거제시 남부면 다대리,34.7468501,128.6297621
가뫼골마을,경남 진주시,055-746-2214,"['관광지', '농촌마을', '농촌여행', '농촌체험', '농촌체험여행', '아이와함께', '이색체험']",https://cdn.visitkorea.or.kr/img/call?cmd=VIEW&id=0c2716d6-a46d-49ac-8346-d4ce6cbb855a&thumb,경상남도 진주시 명석면 관덕길 174,35.2586428,128.0324095
가배량성,경남 거제시,055-639-3000,"['관광지', '역사', '역사공부', '역사관광지', '역사를품은곳', '역사문화재', '역사속']",https://cdn.visitkorea.or.kr/img/call?cmd=VIEW&id=7c0fefa2-35d6-4a58-8b82-a0df59541838&thumb,경상남도 거제시 동부면 가배리,34.772718,128.5596687
가선정,경남 거창군,055-940-3431,"['가선정', '경상권', '관광지', '역사', '역사공부', '역사관광지', '역사를품은곳']",https://cdn.visitkorea.or.kr/img/call?cmd=VIEW&id=d80d72b5-ea00-467a-bcf7-b8b02d7c82e5&thumb,경상남도 거창군 북상면 송계로 731-42,35.7790316,127.8159141
가섭암지 마애여래삼존입상,경남 거창군,055-940-3431,"['가섭암지마애여래삼존입상', '경상권', '관광지', '보물', '역사', '역사공부', '역사관광지']",https://cdn.visitkorea.or.kr/img/call?cmd=VIEW&id=9bf72221-ebb9-4b08-b678-d951143c6727&thumb,경상남도 거창군 위천면 상천리,35.7303489,127.7929043
가야산 소리길,경남 합천군,055-930-8000,"['관광지', '레포츠', '산책길', '산책코스', '산책하기', '산책하기좋은곳', '연인과함께']",https://cdn.visitkorea.or.kr/img/call?cmd=VIEW&id=5e4b4dc2-cb78-4cba-8587-5942f149f6d5&thumb,경상남도 합천군 가야면 가야산로 1783,35.7911008,128.0908755
가야산국립공원,경남 합천군,055-930-8000,"['가야산', '가야산국립공원', '경상권', '관광지', '농산정', '단풍여행', '봄꽃여행']",https://cdn.visitkorea.or.kr/img/call?cmd=VIEW&id=0d0f9b63-919e-4d80-8aab-7179c00e3e89&thumb,경상남도 합천군 가야면 가야산로 1200,35.7678166,128.1324164
"가야산국립공원(홍류동,청량동지구)",경남 합천군,055-930-8000,"['가야산국립공원', '가족여행', '경상권', '관광지', '등산', '생태관광', '연인과함께']",https://cdn.visitkorea.or.kr/img/call?cmd=VIEW&id=8ecd489d-89be-4aa4-9dee-0467e85b67b1&thumb,경상남도 합천군 가야면 가야산로 1200,35.7678166,128.1324164
가야의 거리,경남 김해시,055-338-1330,"['관광지', '금관가야', '대가야', '대가야국', '산책길', '산책하기', '산책하기좋은곳']",https://cdn.visitkorea.or.kr/img/call?cmd=VIEW&id=74d71ab1-7b93-4c78-a2af-696dfd66eb85&thumb,경상남도 김해시 봉황동,35.2287539,128.876911
가야진사,경남 양산시,055-392-2555,"['관광지', '역사', '역사공부', '역사관광지', '역사를품은곳', '역사문화재', '역사속']",https://cdn.visitkorea.or.kr/img/call?cmd=VIEW&id=ed3d1a1f-d8ad-4963-ba75-501d14bbc6bc&thumb,경상남도 양산시 원동면 용당들길 43-62,35.3677289,128.9023566
가조 백두산천지온천,경남 거창군,055-941-0721,"['가조백두산천지온천', '가족과함께', '경상권', '관광지', '목욕탕', '스파', '아이와함께']",https://cdn.visitkorea.or.kr/img/call?cmd=VIEW&id=b1bac009-62ea-4d4a-8ee5-3032b41093fa&thumb,경상남도 거창군 가조면 온천길 161,35.6984525,128.0229597
가지산도립공원(밀양),경남 밀양시,055-359-5357,"['가족여행', '가지산도립공원', '경상권', '경치좋은곳', '관광지', '명소', '자연']",https://cdn.visitkorea.or.kr/img/call?cmd=VIEW&id=9a62e397-f1cb-4b83-89fd-a3514e327bbd&thumb,경상남도 밀양시 산내면 삼양리,35.5962414,128.9811468
가천 다랭이마을,경남 남해군,010-4590-4642,"['15_16한국관광100선', '가족여행', '가천다랭이마을', '경남', '경상권', '경상권']",https://cdn.visitkorea.or.kr/img/call?cmd=VIEW&id=2f50ccea-ec3f-4784-a4e7-a6198c11cbf0&thumb,경남 남해군 남면 홍현리 남면로 679번길 21,34.7275136,127.8940684
가호서원,경남 진주시,055-749-8579,"['가호서원', '경상권', '관광지', '교과서속여행', '문화재', '서원', '역사', '역사공부']",https://cdn.visitkorea.or.kr/img/call?cmd=VIEW&id=efe36ad4-34a1-4225-b5bb-006ffb82d640&thumb,경상남도 진주시 이반성면 용암길 59-2,35.1667272,128.3325054
각사산촌행태체험마을,경남 합천군,055-930-4041,"['관광지', '농촌', '농촌체험', '농촌체험마을', '농촌체험여행', '자연마을', '자연좋은곳']",https://cdn.visitkorea.or.kr/img/call?cmd=VIEW&id=3abc4708-e0d9-4b5e-a785-9d042f0830fe&thumb,경상남도 합천군 가야면 야천로 101,35.7723585,128.1398093
각산,경남 사천시,055-831-3425,"['각산', '경상권', '경치좋은곳', '관광지', '등산객', '등산여행', '산책길', '산책하기']",https://cdn.visitkorea.or.kr/img/call?cmd=VIEW&id=ee18b7c1-1167-41c2-92a2-9993e4ffa9e8&thumb,경상남도 사천시 수도골안길 24,34.9395168,128.075028
갈계리삼층석탑,경남 거창군,055-940-3431,"['관광지', '역사', '역사공부', '역사관광지', '역사를품은곳', '역사문화재', '역사속']",https://cdn.visitkorea.or.kr/img/call?cmd=VIEW&id=5f34c9c9-4370-46d8-b762-4054adfa95e7&thumb,경상남도 거창군 북상면 갈계리,35.7935113,127.8149498
갈계숲,경남 거창군,055-940-3420,"['갈계숲', '거창군천연보호림', '경상권', '관광지', '숲여행', '자연']",https://cdn.visitkorea.or.kr/img/call?cmd=VIEW&id=58024074-6905-4ac0-b3e8-87b4c69e9f31&thumb,경상남도 거창군 북상면 묵계길 44-4,35.7817366,127.8183204
갈모봉 산림욕장,경남 고성군,055-670-2671,"['가족과함께', '관광지', '아이와함께', '자연', '자연관광지', '자연발생', '자연좋은곳']",https://cdn.visitkorea.or.kr/img/call?cmd=VIEW&id=67237676-153f-4f58-9329-2ef24ee90adf&thumb,경상남도 고성군 고성읍 이당리,34.9781602,128.2727529
갈천서당,경남 거창군,055-940-3431,"['갈천서당', '경상권', '경상남도유형문화재', '관광지', '역사', '역사공부', '역사관광']",https://cdn.visitkorea.or.kr/img/call?cmd=VIEW&id=bb70bc9b-dc5b-4dc0-ab39-eab7efdeed37&thumb,경상남도 거창군 북상면 송계로 767-34,35.7807533,127.815992
갈천서원,경남 고성군,055-670-2224,"['관광지', '역사', '역사공부', '역사관광지', '역사를품은곳', '역사문화재', '역사속']",https://cdn.visitkorea.or.kr/img/call?cmd=VIEW&id=02a80b3c-8088-4df8-bc5c-b8fddb4d3242&thumb,경상남도 고성군 대가면 갈천로 620,35.047851,128.2509376
감악산(거창),경남 거창군,055-940-3420,"['감악산', '경상권', '관광지', '연수사', '자연']",https://cdn.visitkorea.or.kr/img/call?cmd=VIEW&id=5c091eae-5085-4ef9-a36e-df050989bb9f&thumb,경상남도 거창군 남상면 무촌리,35.6335662,127.9103388
감암산,경남 합천군,055-930-3114,"['관광지', '자연']",https://cdn.visitkorea.or.kr/img/call?cmd=VIEW&id=undefined&thumb,경상남도 합천군 가회면 대기2길,35.462849,127.9984328
강구안,경남 통영시,055-645-3805,"['강구안', '경상권', '관광지', '연중무휴', '자연', '항구']",https://cdn.visitkorea.or.kr/img/call?cmd=VIEW&id=ac2cbe47-6d5c-4bee-b43b-9ad16d4e2e8f&thumb,경상남도 통영시 중앙동,34.8465818,128.4269332
강양향교,경남 합천군,055-930-3178,"['강양향교', '경상권', '경상권', '경상남도문화재자료', '관광지', '역사', '역사공부']",https://cdn.visitkorea.or.kr/img/call?cmd=VIEW&id=fbadf6f7-7eaa-41c0-815e-2f5153504c61&thumb,경상남도 합천군 합천읍 충효로1길 5-14,35.563531,128.1613073
강주연못,경남 진주시,055-749-7449,"['강주연못', '경상권', '관광지', '연못', '자연', '힐링']",https://cdn.visitkorea.or.kr/img/call?cmd=VIEW&id=4eb81096-8551-4dc4-9572-0a4d397e67a3&thumb,경상남도 진주시 정촌면 예하리,35.1205292,128.1002615
개평한옥마을,경남 함양군,055-960-4537,"['개평한옥마을', '경상권', '고택', '관광지', '문화재', '역사', '역사공부', '역사관광지']",https://cdn.visitkorea.or.kr/img/call?cmd=VIEW&id=8e24b9ad-e6d9-4a3f-98e4-c28ea2d2789b&thumb,경상남도 함양군 지곡면 개평길 59,35.5656633,127.7673255
거가대교,경남 거제시,055-639-4178,"['SNS감성사진', '거가대교', '관광지', '데이트장소추천', '드라이브여행', '드라이브코스']",https://cdn.visitkorea.or.kr/img/call?cmd=VIEW&id=64780e29-137c-40af-b990-8f7f74dcf152&thumb,경상남도 거제시 장목면 유호리,35.023595,128.7130773
거류산&거류산성,경남 고성군,055-670-2234,['관광지'],https://cdn.visitkorea.or.kr/img/call?cmd=VIEW&id=8d77d243-8f97-43ab-9566-8ab043d5b12e&thumb,경상남도 고성군 거류면 거산리,35.0104942,128.3646395
거림계곡,경남 산청군,055-972-7771,"['관광지', '자연']",https://cdn.visitkorea.or.kr/img/call?cmd=VIEW&id=91060bad-5f8a-4ee6-ad67-6d089ca30349&thumb,경상남도 산청군 시천면 세석길,35.2843778,127.7258728
거열산성군립공원,경남 거창군,055-940-3420,"['관광지', '자연']",https://cdn.visitkorea.or.kr/img/call?cmd=VIEW&id=be340397-8035-43ef-97f9-88a96b2c4339&thumb,경상남도 거창군 거창읍 거안로 1173-47,35.6927816,127.8785935
거제 계도어촌체험마을,경남 거제시,055-632-2515,"['가족체험', '관광지', '아이와함께', '어촌', '어촌마을', '어촌체험', '자연마을']",https://cdn.visitkorea.or.kr/img/call?cmd=VIEW&id=3c213d9c-f0a4-4ef4-8bc5-55d7173a9897&thumb,경상남도 거제시 사등면 가조로 837,34.9748638,128.5175347
거제 관광모노레일,경남 거제시,055-639-0650,"['거제가볼만한곳', '거제여행코스', '경치여행', '경치좋은곳', '관광모노레일']",https://cdn.visitkorea.or.kr/img/call?cmd=VIEW&id=87cb3ee2-e211-447a-bc87-98bb98fa0de3&thumb,경상남도 거제시 계룡로 61,34.8765244,128.6244494
거제 구조라관광어촌마을,경남 거제시,055-681-2749,"['가족여행', '가족휴양', '거제구조라관광어촌마을', '경상권', '관광지', '아이와함께']",https://cdn.visitkorea.or.kr/img/call?cmd=VIEW&id=198d8240-fdb2-45f9-8787-66b33701a27e&thumb,경상남도 거제시 일운면 구조라로4길 3-1,34.8052923,128.6944706
거제 대우조선해양 옥포조선소,경남 거제시,055-735-2397,"['견학', '경상권', '관광지', '대우조선해양', '대우조선해양옥포조선소', '산업관광']",https://cdn.visitkorea.or.kr/img/call?cmd=VIEW&id=0cae40d1-47b1-437c-9762-4ca43751f3da&thumb,경상남도 거제시 거제대로 3370,34.8753569,128.6898688
거제 둔덕기성.사등성지.오량성,경남 거제시,055-639-3402,"['관광지', '역사', '역사공부', '역사관광지', '역사를품은곳', '역사문화재', '역사속']",https://cdn.visitkorea.or.kr/img/call?cmd=VIEW&id=7d6fd0cf-e0cc-4364-a053-75318fa93dc3&thumb,경상남도 거제시 둔덕면 거림리,34.8606417,128.5050623
거제 명진리 느티나무,경남 거제시,055-639-4178,"['거제명진리느티나무', '경상권', '경상남도기념물', '관광지', '자연']",https://cdn.visitkorea.or.kr/img/call?cmd=VIEW&id=dcb4049e-fedb-401c-8099-9ac28dbf51e1&thumb,경상남도 거제시 거제면 명진리 220,34.84512,128.6115073
거제 쌍근어촌체험마을,경남 거제시,010-9719-4115,"['가족과함께', '가족체험', '관광지', '바다낚시', '바다내음', '바다전망', '바다체험']",https://cdn.visitkorea.or.kr/img/call?cmd=VIEW&id=3051e097-fb9d-4a62-af1c-4f52b41fc49e&thumb,경상남도 거제시 남부면 남부해안로 1094,34.7624057,128.5894745
거제 알로에테마파크,경남 거제시,055-632-9907,"['거제알로에테마파크', '경상권', '관광지', '기념품판매', '놀이동산&테마파크']",https://cdn.visitkorea.or.kr/img/call?cmd=VIEW&id=ef8ab564-ef13-4fea-a994-c4d4d8c2a442&thumb,경상남도 거제시 거제면 거제남서로 3937,34.8417241,128.5604586
거제 어구낚시마을,경남 거제시,055-634-0440,"['경상권', '관광지', '아이와함께', '어구낚시마을', '어촌', '어촌마을', '어촌체험']",https://cdn.visitkorea.or.kr/img/call?cmd=VIEW&id=44321358-e01a-4f1d-9b49-df41d05451d4&thumb,경상남도 거제시 둔덕면 어구길 2-3,34.8206153,128.5061036
거제 외간리 동백나무,경남 거제시,055-639-4178,"['거제외간리동백나무', '경상권', '경상남도기념물', '관광지', '자연']",https://cdn.visitkorea.or.kr/img/call?cmd=VIEW&id=be1de8f8-57ad-4189-9e67-946176faac84&thumb,경상남도 거제시 거제면 외간1길 52,34.860879,128.5730899
거제 학동리 동백나무 숲 및 팔색조 번식지,경남 거제시,055-639-4178,"['가족여행', '거제학동리동백나무숲', '경상권', '관광지', '자연', '자연관광지']",https://cdn.visitkorea.or.kr/img/call?cmd=VIEW&id=78ec4af8-4a0d-42e0-b8db-f276af9dc6da&thumb,경남 거제시 동부면 학동리,34.773122,128.6345503
거제대교,경남 거제시,055-639-4178,"['거제대교', '거제도가볼만한곳', '건축물', '경치좋은곳', '관광지', '대교', '드라이브여행']",https://cdn.visitkorea.or.kr/img/call?cmd=VIEW&id=null&thumb,경상남도 거제시 사등면 덕호리,34.8812329,128.4817992
거제도,경남 거제시,055-639-4178,"['관광지', '자연']",https://cdn.visitkorea.or.kr/img/call?cmd=VIEW&id=d12b5350-c33b-4b00-9c45-f9756f9bdad1&thumb,경상남도 거제시 거제면 거제도,34.8509916,128.5903982
거제도 포로수용소 유적공원,경남 거제시,055-639-0625,"['가족과함께', '거제도포로수용소유적공원', '관광지', '교과서속여행', '아이와함께']",https://cdn.visitkorea.or.kr/img/call?cmd=VIEW&id=2bc56c2d-f614-4aa9-ae9e-eaca28ce23bb&thumb,경상남도 거제시 계룡로 61,34.8765244,128.6244494
거제도 해금강,경남 거제시,055-639-4178,"['가족여행', '거제도해금강', '경상권', '관광지', '자연']",https://cdn.visitkorea.or.kr/img/call?cmd=VIEW&id=4bc0d09c-58ff-4ee2-8d42-bd636412887b&thumb,경상남도 거제시 남부면 갈곶리,34.7473193,128.6435177
거제도해수보양온천,경남 거제시,055-638-3000,"['가족과함께', '관광지', '연인과함께', '연인과함께', '온천', '온천물', '해수욕']",https://cdn.visitkorea.or.kr/img/call?cmd=VIEW&id=eb4bc626-45b7-4f8b-b70d-9354314dc8da&thumb,경상남도 거제시 수양로 507,34.8916555,128.6345165
거제맹종죽테마공원,경남 거제시,055-637-0067,"['가족여행', '거제맹종죽테마공원', '경상권', '관광지', '숲체험원', '아이와함께']",https://cdn.visitkorea.or.kr/img/call?cmd=VIEW&id=59576753-2de2-4c94-8936-b58cf745ba21&thumb,경상남도 거제시 하청면 거제북로 700,34.9656044,128.6547548
거제생태문화탐방로(천주교순례길)1,경남 거제시,055-639-4353,"['거제몽돌해안', '거제생태문화탐방로', '걷기길', '걷기여행', '공곶이', '관광지']",https://cdn.visitkorea.or.kr/img/call?cmd=VIEW&id=98f71565-c490-4ec7-86e9-02d46fa96c52&thumb,경상남도 거제시 일운면 와현리 예구선착장,34.8117936,128.7047599
거제생태탐방로(양지암등대길),경남 거제시,055-639-4353,"['거제생태탐방로', '걷기길', '걷기여행', '경상권', '관광지', '생태관광', '생태관광지']",https://cdn.visitkorea.or.kr/img/call?cmd=VIEW&id=cf851e37-f29e-4a28-abe1-bc59b49f258c&thumb,경상남도 거제시 일운면 와현리 예구선착장,34.8117936,128.7047599
거제시농업개발원,경남 거제시,055-639-6421,"['가족체험여행', '거재농업개발원', '경상권', '관광지', '교육체험', '교육프로그램']",https://cdn.visitkorea.or.kr/img/call?cmd=VIEW&id=80025b38-a1b9-4152-a874-1967d2d0b728&thumb,경상남도 거제시 거제면 거제남서로 3577,34.8564049,128.5792114
거제자연예술랜드,경남 거제시,055-633-0002,"['가족여행', '거제자연예술랜드', '경상권', '관광지', '연중무휴', '예술', '자연']",https://cdn.visitkorea.or.kr/img/call?cmd=VIEW&id=8d5218f3-1098-48a5-ae3c-a8928c28a885&thumb,경남 거제시 동부면 구천리,34.8081048,128.6340293
거제자연휴양림,경남 거제시,055-639-8115,"['거제자연휴양림', '경상권', '관광지', '자연', '자연휴양림', '휴양여행', '힐링']",https://cdn.visitkorea.or.kr/img/call?cmd=VIEW&id=ac7a8cec-ea9d-429a-8aef-058104899fd4&thumb,경상남도 거제시 동부면 거제중앙로 325,34.7856971,128.625968
거제정글돔,경남 거제시,055-639-6991,"['가족과함께', '거제여행', '거제여행코스', '거제정글돔', '관광지', '아이와함께']",https://cdn.visitkorea.or.kr/img/call?cmd=VIEW&id=9ea513fe-4234-46c0-933d-9c5fd7133eca&thumb,경상남도 거제시 거제면 거제남서로 3595,34.8579041,128.5790021
거제향교,경남 거제시,055-639-3402,"['거제향교', '경상권', '경상남도유형문화재', '관광지', '역사', '역사공부', '역사관광지']",https://cdn.visitkorea.or.kr/img/call?cmd=VIEW&id=5e4ec07c-f20e-48d8-a26c-9d38084ebaab&thumb,경상남도 거제시 거제면 기성로7길 10,34.8524296,128.5898555
거제현 관아,경남 거제시,055-639-3399,"['관광지', '역사', '역사공부', '역사관광지', '역사를품은곳', '역사문화재', '역사속']",https://cdn.visitkorea.or.kr/img/call?cmd=VIEW&id=ebdd3f85-bfd3-4bfa-b58b-7be3e41dc2fa&thumb,경상남도 거제시 거제면 읍내로2길 22,34.8509189,128.5909437
거창 Y자형 출렁다리,경남 거창군,055-940-3420,"['Y자형', '가족과함께', '거창가볼만한곳', '경치여행', '경치좋은곳', '관광지', '아이와함께']",https://cdn.visitkorea.or.kr/img/call?cmd=VIEW&id=3123e5c0-8e88-4491-bfeb-1bea29a0c326&thumb,경상남도 거창군 가조면 의상봉길 830,35.7366408,128.0409598
거창 갈계리 임씨고가,경남 거창군,055-940-3431,"['갈계리임씨고가', '경상권', '경상남도민속문화재', '관광지', '역사', '역사공부']",https://cdn.visitkorea.or.kr/img/call?cmd=VIEW&id=ecb0e11f-410f-4c58-a36f-18c9350b2b85&thumb,경상남도 거창군 북상면 샘골길 6,35.7803329,127.8187274
거창 감악사지 부도,경남 거창군,055-940-3431,"['감악사지부도', '경상권', '경상남도유형문화재', '관광지', '역사', '역사공부']",https://cdn.visitkorea.or.kr/img/call?cmd=VIEW&id=c08fc9c0-f85b-47f4-9822-58bf8bc5c3f6&thumb,경상남도 거창군 신원면,35.567741,127.925164
거창 강남사지 석조여래입상,경남 거창군,055-940-3431,"['강남사지석조여래입상', '경상권', '경상남도유형문화재', '관광지', '역사', '역사공부']",https://cdn.visitkorea.or.kr/img/call?cmd=VIEW&id=0c2702a7-5190-463e-b89e-271dadb2ed97&thumb,경상남도 거창군 위천면 강남불1길 23-55,35.7405564,127.8157197
거창 거기리 성황단,경남 거창군,055-940-3431,"['거기리성황단', '경상권', '경상남도민속문화재', '관광지', '역사', '역사공부']",https://cdn.visitkorea.or.kr/img/call?cmd=VIEW&id=44ef438e-988c-414c-a23f-257faa0999bb&thumb,경상남도 거창군 주상면 거기리,35.7474882,127.9511203
거창 내오리 지석묘,경남 거창군,055-940-3431,"['경상권', '경상남도기념물', '관광지', '내오리지석묘', '역사', '역사공부', '역사관광지']",https://cdn.visitkorea.or.kr/img/call?cmd=VIEW&id=be70422f-3087-493f-9534-001ff2bff042&thumb,경상남도 거창군 주상면 내오리,35.780066,127.8932495
거창 농산리 석조여래입상,경남 거창군,055-940-3431,"['거창농산리석조여래입상', '경상권', '관광지', '보물', '역사', '역사공부', '역사관광지']",https://cdn.visitkorea.or.kr/img/call?cmd=VIEW&id=9fdd1492-1e14-44e4-b060-88c6aebb3202&thumb,경상남도 거창군 북상면 농산리,35.7732655,127.807218
거창 당동당산,경남 거창군,055-940-3431,"['경상권', '경상남도민속문화재', '관광지', '당동당산', '역사', '역사공부', '역사관광지']",https://cdn.visitkorea.or.kr/img/call?cmd=VIEW&id=2ea562ed-77f0-4bcf-aca5-8d0b8c465fc9&thumb,경상남도 거창군 가조면 장군봉1길 439-42,35.7176648,128.012563
거창 동계 종택(정온선생고택),경남 거창군,055-940-3431,"['경상권', '관광지', '교과서속여행', '동계종택', '문화재', '역사', '역사공부', '역사관광지']",https://cdn.visitkorea.or.kr/img/call?cmd=VIEW&id=593ee836-9062-4053-824e-e71dbd2f6a10&thumb,경상남도 거창군 위천면 강동1길 13,35.755183,127.8288039
거창 동호리 이씨고가,경남 거창군,055-940-3431,"['경상권', '경상남도문화재자료', '관광지', '동호리이씨고가', '역사', '역사공부']",https://cdn.visitkorea.or.kr/img/call?cmd=VIEW&id=3a1db27a-a540-41a7-9c39-2f886cd75092&thumb,경상남도 거창군 웅양면 동호1길 217,35.7990586,127.9273434
거창 둔마리 벽화 고분,경남 거창군,055-940-3431,"['관광지', '역사', '역사공부', '역사관광지', '역사를품은곳', '역사문화재', '역사속']",https://cdn.visitkorea.or.kr/img/call?cmd=VIEW&id=c708d986-948c-481a-8e9a-ff3999403ad0&thumb,경상남도 거창군 남하면 대촌1길,35.7152181,127.9646676
거창 무릉리 정씨고가,경남 거창군,055-940-3431,"['경상권', '경상남도유형문화재', '고택', '관광지', '무릉리정씨고가', '역사', '역사공부']",https://cdn.visitkorea.or.kr/img/call?cmd=VIEW&id=3d64fd80-12b8-444f-b131-1d44e1cef4f1&thumb,경상남도 거창군 남하면 무릉3길 19-16,35.6641548,127.9459699
거창 서변마을,경남 거창군,055-940-3951,"['가족체험', '경상권', '관광지', '농촌', '농촌체험', '농촌체험학습', '서변마을']",https://cdn.visitkorea.or.kr/img/call?cmd=VIEW&id=2d3fde92-81a6-4e54-ac04-407f156a0f87&thumb,경상남도 거창군 거창읍 모곡2길 22,35.7151327,127.9170504
거창 솔향기돌담마을,경남 거창군,,"['가족과함께', '관광지', '농촌마을', '농촌여행', '농촌체험마을', '농촌체험여행']",https://cdn.visitkorea.or.kr/img/call?cmd=VIEW&id=0863b3c9-0be5-4671-a916-da32728abb59&thumb,경상남도 거창군 웅양면 동호3길 20,35.7986426,127.9250901
거창 수승대,경남 거창군,055-940-8530,"['가족여행', '거창수승대', '경상권', '관광지', '역사', '역사공부', '역사를품은곳']",https://cdn.visitkorea.or.kr/img/call?cmd=VIEW&id=5697f179-ccaa-4d93-8daa-42677ecc0eee&thumb,경상남도 거창군 위천면 은하리길 2,35.7610682,127.8335222
거창 요수정,경남 거창군,055-940-3431,"['경상권', '경상남도유형문화재', '관광지', '역사', '역사공부', '역사관광지', '역사를품은곳']",https://cdn.visitkorea.or.kr/img/call?cmd=VIEW&id=720413c7-7ad1-42c3-a2e4-e06729b37561&thumb,경상남도 거창군 위천면 은하리길 100,35.7627086,127.8309033
거창 황금원숭이마을,경남 거창군,055-943-5025,"['거창가볼만한곳', '관광지', '아이와함께', '이색체험', '자연마을', '자연여행']",https://cdn.visitkorea.or.kr/img/call?cmd=VIEW&id=f49203b8-4efd-4c60-ac37-6ead463e47ab&thumb,경상남도 거창군 위천면 상천길 50-159,35.7475876,127.8190836
거창 황산리 신씨고가,경남 거창군,055-940-3431,"['관광지', '역사', '역사공부', '역사관광지', '역사를품은곳', '역사문화재', '역사속']",https://cdn.visitkorea.or.kr/img/call?cmd=VIEW&id=483a92a5-5073-473a-8150-8d435bc1447b&thumb,경상남도 거창군 위천면 황산1길 109-5,35.7630354,127.8370912
거창 황산마을 옛 담장,경남 거창군,055-940-3431,"['경상권', '관광지', '등록문화재', '역사', '역사공부', '역사관광지', '역사를품은곳']",https://cdn.visitkorea.or.kr/img/call?cmd=VIEW&id=1ee1abde-676a-4e38-a2a1-5b1f919d4803&thumb,경상남도 거창군 위천면 황산1길 109-5,35.7630354,127.8370912
거창사건추모공원,경남 거창군,055-940-8510,"['거창사건추모공원', '걷기길', '경상권', '관광지', '교과서속으로', '근대문화유산']",https://cdn.visitkorea.or.kr/img/call?cmd=VIEW&id=6cebb721-2496-4b42-b90c-15bb1b641c29&thumb,경상남도 거창군 신원면 신차로 2924,35.5555309,127.9260956
거창향교,경남 거창군,055-940-3431,"['거창향교', '경상권', '경상남도유형문화재', '관광지', '역사', '역사공부', '역사관광지']",https://cdn.visitkorea.or.kr/img/call?cmd=VIEW&id=41231548-6d10-4f5c-bad9-e2ffa476566f&thumb,경상남도 거창군 거창읍 성산길 34,35.6926431,127.9038345
건계정,경남 거창군,055-940-3431,"['건계정', '경상권', '경상남도문화재자료', '관광지', '역사', '역사공부', '역사관광지']",https://cdn.visitkorea.or.kr/img/call?cmd=VIEW&id=f8caed40-4fad-4910-aa77-723d93f38503&thumb,경상남도 거창군 거창읍 거안로 1173-21,35.6926306,127.8790446
경남 하동 악양 [슬로시티],경남 하동군,055-880-2370,"['가족과함께', '관광지', '슬로시티', '아이와함께', '역사', '자연마을', '자연환경']",https://cdn.visitkorea.or.kr/img/call?cmd=VIEW&id=2eebc89d-0097-4a0d-8d11-e731b13d3d52&thumb,경상남도 하동군 악양면 악양서로 357,35.1623104,127.7089189
경백사,경남 사천시,055-831-2717,"['경백사', '경상권', '경상남도문화재자료', '관광지', '역사', '역사공부', '역사관광지']",https://cdn.visitkorea.or.kr/img/call?cmd=VIEW&id=b47c46d6-3638-44e1-8f6d-1e750a45f4b5&thumb,경상남도 사천시 용현면 온정2길 42,35.0283367,128.0578935
경상남도수목원,경남 진주시,055-254-3811,"['가족여행', '경상남도수목원', '관광지', '생태관광지', '수목원', '자연', '자연좋은곳']",https://cdn.visitkorea.or.kr/img/call?cmd=VIEW&id=59d0ee25-43d0-4d6c-bf46-c4bf042cd980&thumb,경상남도 진주시 이반성면 수목원로 386,35.15928,128.2928355
경충사(정기룡장군유허지),경남 하동군,055-882-3733,"['관광지', '불교', '불교사찰', '사찰', '사찰여행', '역사', '자연속으로', '자연좋은곳']",https://cdn.visitkorea.or.kr/img/call?cmd=VIEW&id=48f51240-660b-49db-ba76-7e19221d1bc8&thumb,경상남도 하동군 금남면 경충로 503-14,34.9837156,127.8954745
경호강,경남 산청군,055-970-7201,"['관광지', '자연']",https://cdn.visitkorea.or.kr/img/call?cmd=VIEW&id=9551d2c4-d05d-4ca6-aa19-412217298232&thumb,경상남도 산청군 산청읍 산청대로,35.4140121,127.8881042
경화역 벚꽃길,경남 창원시,055-289-8815,"['감성사진', '경상권', '경화역벚꽃길', '관광지', '데이트코스', '벚꽃명소', '사진찍기']",https://cdn.visitkorea.or.kr/img/call?cmd=VIEW&id=d1cc6d87-9bc9-4339-ac65-f52ee2fbbf7a&thumb,경상남도 창원시 진해구 진해대로 649,35.1279791,128.7449228
계룡산,경남 거제시,055-639-4321,"['경상권', '계롱산', '관광지', '자연', '전망좋은곳', '트레킹']",https://cdn.visitkorea.or.kr/img/call?cmd=VIEW&id=08696be9-9e95-4d0c-bb9b-024b731a1d26&thumb,경상남도 거제시 신현읍,34.8824091,128.6231029
계룡산 온천,경남 거제시,055-638-0002,"['가족여행', '경상권', '계룡산온천', '관광지', '부모님과함께', '스파', '연중무휴']",https://cdn.visitkorea.or.kr/img/call?cmd=VIEW&id=null&thumb,경상남도 거제시 거제중앙로 1779-1,34.8776215,128.6282862
계승사(고성),경남 고성군,055-673-0281,"['관광지', '불교', '불교문화', '사찰', '사찰여행', '역사', '자연속으로', '자연환경']",https://cdn.visitkorea.or.kr/img/call?cmd=VIEW&id=undefined&thumb,경상남도 고성군 영현면 대법3길 236,35.0529506,128.2241778
계원사(양산),경남 양산시,055-385-4148,"['관광지', '불교', '불교문화', '사찰', '사찰여행', '역사', '자연속으로', '자연환경']",https://cdn.visitkorea.or.kr/img/call?cmd=VIEW&id=undefined&thumb,경상남도 양산시 중앙우회로 66-64,35.3409546,129.0442985
고견사(거창),경남 거창군,055-942-1333,"['관광지', '불교', '불교문화', '불교사찰', '사찰', '사찰여행', '역사', '자연속으로']",https://cdn.visitkorea.or.kr/img/call?cmd=VIEW&id=null&thumb,경상남도 거창군 가조면 의상봉길 1049,35.7456062,128.0393314
고려동유적지,경남 함안군,055-580-2573,"['경상권', '경상남도기념물', '고려동유적지', '관광지', '역사', '역사유적지']",https://cdn.visitkorea.or.kr/img/call?cmd=VIEW&id=74d286b8-1879-4a1b-b439-186543ba9244&thumb,경상남도 함안군 산인면 모곡2길 53,35.2763872,128.4599687
고성 덕명리 공룡과 새발자국 화석 산지,경남 고성군,1600-0064,"['관광지', '자연']",https://cdn.visitkorea.or.kr/img/call?cmd=VIEW&id=74cab541-4953-4a7a-ae7f-c733bf2a6d37&thumb,경상남도 고성군 하이면 덕명5길 65,34.9089933,128.1547574
고성 송학동 고분군,경남 고성군,055-670-2224,"['관광지', '역사', '역사공부', '역사관광지', '역사를품은곳', '역사문화재', '역사속']",https://cdn.visitkorea.or.kr/img/call?cmd=VIEW&id=80142e9c-782a-48db-ac02-753f579a1c1c&thumb,경상남도 고성군 고성읍 송학고분로,34.9802732,128.30798
고성 자란만,경남 고성군,055-670-2114,"['관광지', '자연']",https://cdn.visitkorea.or.kr/img/call?cmd=VIEW&id=ef6df036-cea0-459f-b539-417fc219258d&thumb,경상남도 고성군 하일면 용태1길,34.9416179,128.2104312
고성 학동마을 옛 담장,경남 고성군,055-670-2224,"['경상권', '관광지', '등록문화재', '역사', '역사공부', '역사를품은곳', '역사문화재']",https://cdn.visitkorea.or.kr/img/call?cmd=VIEW&id=49035d95-2498-4a0c-88df-40348fff9c7e&thumb,경상남도 고성군 하일면 학동돌담길 11-5,34.9490073,128.1923585
고성유람선,경남 고성군,055-672-1775,"['가족과함께', '경치좋은곳', '관광지', '자연관광지', '자연속으로', '자연여행']",https://cdn.visitkorea.or.kr/img/call?cmd=VIEW&id=null&thumb,경상남도 고성군 고성읍 공룡로 3083,34.9574403,128.3226103
고성장산리허씨고가,경남 고성군,055-670-2224,"['관광지', '역사', '역사공부', '역사를품은곳', '역사문화재', '역사속', '역사속으로']",https://cdn.visitkorea.or.kr/img/call?cmd=VIEW&id=9f94ae9a-14ce-48ee-ab84-425752a5dfa3&thumb,경상남도 고성군 마암면 장산길 21,35.0601771,128.3241058
고성향교,경남 고성군,055-670-2224,"['경상권', '경상남도유형문화재', '고성향교', '관광지', '역사', '역사공부', '역사관광지']",https://cdn.visitkorea.or.kr/img/call?cmd=VIEW&id=e3b7b446-455a-4a98-be1b-349915a87adb&thumb,경상남도 고성군 고성읍 교사3길 41,34.9760374,128.3090928
고운동계곡,경남 산청군,055-970-7201,"['관광지', '자연']",https://cdn.visitkorea.or.kr/img/call?cmd=VIEW&id=d54d270d-d2c3-4983-9736-16c3b0933866&thumb,경상남도 산청군 시천면 반천로,35.2378853,127.7975117
고현리 공룡발자국화석,경남 창원시,055-225-3673,"['경치좋은곳', '공룡발자국', '공룡화석', '공룡화석지', '관광지', '남녀노소', '바다경치']",https://cdn.visitkorea.or.kr/img/call?cmd=VIEW&id=16f2b12d-2b6b-4dcc-b49f-1a35db729be9&thumb,경상남도 창원시 마산합포구 진동면 고현장터길 39,35.1027709,128.4790798
고현성,경남 거제시,055-639-3000,"['관광지', '역사', '역사공부', '역사관광지', '역사를품은곳', '역사문화재', '역사속']",https://cdn.visitkorea.or.kr/img/call?cmd=VIEW&id=b20c45da-82be-4944-9cc6-caf48e251471&thumb,경상남도 거제시 고현동,34.8824091,128.6231029
곤양향교,경남 사천시,055-831-2717,"['가족여행', '경상권', '경상남도유형문화재', '곤양향교', '관광지', '역사', '역사공부']",https://cdn.visitkorea.or.kr/img/call?cmd=VIEW&id=74bdfa52-a53e-499a-a0cb-03d0959526d2&thumb,경상남도 사천시 곤양면 향교길 43-31,35.061091,127.9689505
공곶이,경남 거제시,055-639-4178,"['가족과함께', '관광지', '산책길', '산책하기', '산책하기좋은곳', '자연관광', '자연관광지']",https://cdn.visitkorea.or.kr/img/call?cmd=VIEW&id=c4c7e61f-d535-4c00-8338-652bb3575d66&thumb,경상남도 거제시 일운면 와현로 257,34.7998652,128.7147542
관룡사,경남 창녕군,055-521-1747,"['가족여행', '경상권', '관광지', '관룡사', '불교', '불교사찰', '사찰', '사찰여행']",https://cdn.visitkorea.or.kr/img/call?cmd=VIEW&id=0c960e22-abae-44e5-82c8-5b33815a9fe1&thumb,경상남도 창녕군 창녕읍 화왕산관룡사길 171,35.5327205,128.5535308
관산서당,경남 창녕군,055-530-1473,"['경상권', '경상남도문화재자료', '관광지', '관산서당', '역사', '역사공부', '역사관광지']",https://cdn.visitkorea.or.kr/img/call?cmd=VIEW&id=0598b547-c55f-4faf-99fe-505156dd853d&thumb,경상남도 창녕군 고암면 월미상월길 115,35.5709482,128.522249
관음사(창녕),경남 창녕군,055-521-1874,"['관광지', '불교', '불교문화', '사찰', '사찰여행', '역사', '자연속으로', '자연환경']",https://cdn.visitkorea.or.kr/img/call?cmd=VIEW&id=7bb46c36-000e-456b-acf9-7f20557cbfc8&thumb,경상남도 창녕군 도천면 영산도천로 11-14,35.4054249,128.5063271
관음정사(김해),경남 김해시,055-345-4741,"['관광지', '불교', '불교문화', '사찰', '사찰여행', '역사', '자연속으로', '자연환경']",https://cdn.visitkorea.or.kr/img/call?cmd=VIEW&id=43cf365b-a3b2-46e7-94a9-1b31665bcbb9&thumb,경상남도 김해시 진례면 평지길 299,35.2216513,128.73103
관해정,경남 창원시,055-225-3673,"['경상권', '경상남도문화재자료', '관광지', '관해정', '역사', '역사공부', '역사관광지']",https://cdn.visitkorea.or.kr/img/call?cmd=VIEW&id=196f78cf-0bc9-4117-9a61-51c9b7354f28&thumb,경상남도 창원시 마산합포구 관해정길 17,35.2112578,128.5617164
광산서당,경남 창녕군,055-530-1473,"['경상권', '경상남도문화재자료', '관광지', '광산서당', '역사', '역사공부', '역사관광지']",https://cdn.visitkorea.or.kr/img/call?cmd=VIEW&id=16dbe4fa-d41f-414c-9f82-1b2c1ed11660&thumb,경상남도 창녕군 유어면 유어장마로 415,35.4894929,128.4400115
광심정,경남 함안군,055-580-2573,"['관광지', '역사', '역사공부', '역사관광지', '역사를품은곳', '역사문화재', '역사속']",https://cdn.visitkorea.or.kr/img/call?cmd=VIEW&id=865ff44a-6158-4ba1-8f3d-20284dd5bee4&thumb,경상남도 함안군 칠북면 봉촌2길 277,35.3765628,128.558597
광제서원,경남 진주시,055-749-8579,"['경상권', '경상남도문화재자료', '관광지', '광제서원', '역사', '역사공부', '역사관광지']",https://cdn.visitkorea.or.kr/img/call?cmd=VIEW&id=33b5f262-87b2-40aa-8f4c-7f6740ce9f74&thumb,경상남도 진주시 명석면 광제산로685번길 116,35.2753934,128.0310949
광천서원,경남 밀양시,055-359-5788,"['관광지', '역사', '역사공부', '역사관광지', '역사를품은곳', '역사문화재', '역사속']",https://cdn.visitkorea.or.kr/img/call?cmd=VIEW&id=6b25bcc2-1d93-4436-87a1-f86dd858ca17&thumb,경상남도 밀양시 부북면 사포중앙1안길 7,35.4730835,128.7355509
구계서원,경남 사천시,055-831-2717,"['경상권', '경상남도문화재자료', '관광지', '구계서원', '역사', '역사공부', '역사관광지']",https://cdn.visitkorea.or.kr/img/call?cmd=VIEW&id=cfb1531c-4dc8-4654-aad9-4cc0a2c6a22b&thumb,경상남도 사천시 사천읍 구암두문로 361-17,35.0909683,128.1253468
구곡산,경남 산청군,055-970-6911,"['관광지', '자연']",https://cdn.visitkorea.or.kr/img/call?cmd=VIEW&id=undefined&thumb,경상남도 산청군 시천면 지리산대로,35.2888009,127.7739882
구니서당,경남 창녕군,055-530-1473,"['경상권', '경상남도문화재자료', '관광지', '구니서당', '역사', '역사공부', '역사관광지']",https://cdn.visitkorea.or.kr/img/call?cmd=VIEW&id=eefae807-0e7d-4c9f-978e-99381c770abe&thumb,경상남도 창녕군 고암면 창밀로 506-30,35.5804886,128.5248784
구만계곡(밀양),경남 밀양시,055-359-5357,"['관광지', '자연']",https://cdn.visitkorea.or.kr/img/call?cmd=VIEW&id=cdc30596-c2d4-49f2-9b1d-37d00417a209&thumb,경남 밀양시 산내면 봉의2안길,35.5948592,128.8811444
구복마을,경남 창원시,055-225-3691,"['관광지', '자연']",https://cdn.visitkorea.or.kr/img/call?cmd=VIEW&id=e12c6df6-fe7f-4b71-aeb1-21d569a32bbd&thumb,경남 창원시 마산합포구 구산면 구복리,35.0637186,128.5535994
구암서원(창원),경남 창원시,055-225-3673,"['관광지', '역사', '역사공부', '역사관광지', '역사를품은곳', '역사문화재', '역사속']",https://cdn.visitkorea.or.kr/img/call?cmd=VIEW&id=f7720692-1821-420c-a975-eeaf2ba34e13&thumb,경상남도 창원시 마산회원구 구암북4길 7-10,35.2518335,128.5917232
구연서원,경남 거창군,055-940-3431,"['경상권', '경상남도유형문화재', '관광지', '구연서원', '역사', '역사공부', '역사관광지']",https://cdn.visitkorea.or.kr/img/call?cmd=VIEW&id=2f0ce67b-da73-46f3-a314-f05caef5e305&thumb,경상남도 거창군 위천면 은하리길 100,35.7627086,127.8309033
구영해수욕장,경남 거제시,055-1330,"['가족여행', '경상권', '관광지', '구영해수욕장', '여름여행', '자연', '피서여행']",https://cdn.visitkorea.or.kr/img/call?cmd=VIEW&id=9696cb49-93c2-47e6-a46d-618c690b002f&thumb,경남 거제시 장목면 거제북로,35.0069943,128.6887229
구조라해수욕장,경남 거제시,055-639-4244,"['가족여행', '경상권', '관광지', '구조라해수욕장', '바다풍경', '여름방학가볼만한곳']",https://cdn.visitkorea.or.kr/img/call?cmd=VIEW&id=a49666d7-753b-434e-be60-3d38d7ffffcd&thumb,경상남도 거제시 일운면,34.8296765,128.7031452
구천댐(구천저수지),경남 거제시,055-639-4178,"['경상권', '경치좋은곳', '관광지', '구천댐', '구천저수지', '자연', '자연경관', '자연관광']",https://cdn.visitkorea.or.kr/img/call?cmd=VIEW&id=f0f350a9-afdd-4db4-af21-89648dcc42a7&thumb,경상남도 거제시 동부면 구천리,34.8081048,128.6340293
구천서원(김해),경남 김해시,055-338-1330,"['관광지', '역사', '역사공부', '역사관광지', '역사를품은곳', '역사문화재', '역사속']",https://cdn.visitkorea.or.kr/img/call?cmd=VIEW&id=071c53f9-9057-44ef-b6c8-53b55d84b485&thumb,경상남도 김해시 상동면 상동로 274-12,35.302628,128.9007822
구천서원(함양),경남 함양군,055-960-4537,"['관광지', '역사', '역사공부', '역사관광지', '역사를품은곳', '역사문화재', '역사속']",https://cdn.visitkorea.or.kr/img/call?cmd=VIEW&id=a8810027-400e-4865-b39f-a1efcf9a05f7&thumb,경상남도 함양군 수동면 효리길 30-17,35.5547702,127.7868639
구천암(김해),경남 김해시,055-335-8633,"['관광지', '불교', '불교문화', '사찰', '사찰여행', '역사', '자연속으로', '자연환경']",https://cdn.visitkorea.or.kr/img/call?cmd=VIEW&id=null&thumb,경상남도 김해시 생림면 마사로229번길 58-175,35.3554187,128.8307299
국립 3·15 민주묘지,경남 창원시,055-253-9315,"['경상권', '관광지', '교과서속여행', '국립3·15민주묘지', '아이와함께', '역사']",https://cdn.visitkorea.or.kr/img/call?cmd=VIEW&id=d5a450d6-a907-4bce-8dc9-b0e19ad81863&thumb,경상남도 창원시 마산회원구 3·15성역로 75,35.2526858,128.5875481
국립 남해편백자연휴양림,경남 남해군,055-867-7881,"['가족과함께', '경상권', '관광지', '국립남해편백자연휴양림', '숲치유', '아이와함께']",https://cdn.visitkorea.or.kr/img/call?cmd=VIEW&id=f2a2b3c0-098b-428a-9c8c-ff82de93431a&thumb,경상남도 남해군 삼동면 금암로 658,34.7521356,128.0201607
국립 지리산자연휴양림,경남 함양군,055-963-8133,"['가족여행', '걷기길', '경상권', '관광지', '국립지리산자연휴양림', '나들이', '여름여행']",https://cdn.visitkorea.or.kr/img/call?cmd=VIEW&id=c0c62987-91ef-4cd1-8a69-bac0f0c64740&thumb,경상남도 함양군 마천면 음정길 152,35.347852,127.6431363
국사봉(거제),경남 거제시,055-639-4321,"['관광지', '자연']",https://cdn.visitkorea.or.kr/img/call?cmd=VIEW&id=null&thumb,경상남도 거제시 수월동,34.887888,128.6621174
국사봉(의령),경남 의령군,055-570-3730,"['관광지', '자연']",https://cdn.visitkorea.or.kr/img/call?cmd=VIEW&id=undefined&thumb,경상남도 의령군 부림면 여배로,35.5020701,128.3380651
국산서원,경남 고성군,055-670-2224,"['관광지', '역사', '역사공부', '역사관광지', '역사를품은곳', '역사문화재', '역사속']",https://cdn.visitkorea.or.kr/img/call?cmd=VIEW&id=7e584108-5b3c-4c8c-a161-5bf927dddc29&thumb,경상남도 고성군 동해면 외곡1길 151-44,35.0148578,128.4066647
군항마을 역사길,경남 창원시,055-225-3691,"['관광지', '군항마을', '근대건축물', '근대역사', '산책하기좋은곳', '아이와함께']",https://cdn.visitkorea.or.kr/img/call?cmd=VIEW&id=85ce92aa-8184-415c-aec8-6b2b4968ae11&thumb,경상남도 창원시 진해구 충장로 71,35.1534537,128.6601497
굿데이뮤지엄,경남 창원시,070-7576-2017,"['경상권', '관광지', '굿데이뮤지엄', '무학소주', '박물관', '복합문화공간', '산업관광']",https://cdn.visitkorea.or.kr/img/call?cmd=VIEW&id=bf2c052d-ab38-4605-a5cd-6e7111a729b2&thumb,경상남도 창원시 마산회원구 봉암공단2길 22,35.2185886,128.5975738
궁임마을,경남 거제시,055-639-6009,"['관광지', '자연']",https://cdn.visitkorea.or.kr/img/call?cmd=VIEW&id=197aba79-70a1-4da0-a787-7009cc84ed49&thumb,경상남도 거제시 장목면 거제북로 2547,35.0083611,128.7039876
금대암(함양),경남 함양군,055-962-5500,"['관광지', '불교', '불교문화', '사찰', '사찰여행', '역사', '자연속으로', '자연환경']",https://cdn.visitkorea.or.kr/img/call?cmd=VIEW&id=null&thumb,경상남도 함양군 마천면 가흥리,35.3991138,127.66748
금봉암(거창),경남 거창군,055-944-7381,"['관광지', '불교', '불교문화', '사찰', '사찰여행', '역사', '자연속으로', '자연환경']",https://cdn.visitkorea.or.kr/img/call?cmd=VIEW&id=null&thumb,경상남도 거창군 고제면 용초길 310-428,35.8781081,127.8545237
금산 보리암(남해),경남 남해군,055-860-5800,"['가족여행', '관광지', '금산보리암', '불교', '불교문화', '사찰', '사찰&산사', '사찰여행']",https://cdn.visitkorea.or.kr/img/call?cmd=VIEW&id=019d2e36-ffdb-4390-aaa3-6d4a898794ca&thumb,경상남도 남해군 상주면 보리암로 665,34.7538571,127.9830251
금산(남해),경남 남해군,055-860-8601,"['경상권', '관광지', '금산', '자연', '전망좋은곳', '트레킹']",https://cdn.visitkorea.or.kr/img/call?cmd=VIEW&id=1b241476-18b9-4199-b216-074f417bb390&thumb,경상남도 남해군 이동면 보리암로 586,34.755231,127.9913524
금성산(합천),경남 합천군,055-930-3114,"['관광지', '자연']",https://cdn.visitkorea.or.kr/img/call?cmd=VIEW&id=undefined&thumb,경상남도 합천군 대병면,35.52118,128.0142613
금왕사,경남 남해군,055-862-3794,"['관광지', '불교', '불교문화', '사찰', '사찰여행', '역사', '자연마을', '자연속으로']",https://cdn.visitkorea.or.kr/img/call?cmd=VIEW&id=58174a24-115a-418f-8a30-1d2133da37ab&thumb,경상남도 남해군 이동면 보리암로 65-23,34.7789078,127.9686392
금원산,경남 거창군,055-940-3390,"['가족과함께', '경상권', '관광지', '금원산', '자연', '트레킹', '풍경좋은곳']",https://cdn.visitkorea.or.kr/img/call?cmd=VIEW&id=cdb8b16d-ddf1-4b4f-98e0-a5d5866fd88c&thumb,경상남도 거창군 북상면 창성리,35.7568234,127.7742507
금원산자연휴양림,경남 거창군,055-254-3971,"['관광지', '자연', '자연관광지', '자연속으로', '자연여행', '자연좋은곳', '자연풍경']",https://cdn.visitkorea.or.kr/img/call?cmd=VIEW&id=46a6c08a-13fd-49d5-a8e8-d48d53537485&thumb,경상남도 거창군 위천면 금원산길 412,35.7288969,127.7895449
금호재,경남 창녕군,055-530-1473,"['관광지', '역사', '역사공부', '역사관광지', '역사를품은곳', '역사문화재', '역사속']",https://cdn.visitkorea.or.kr/img/call?cmd=VIEW&id=d7570225-33fb-4622-a0f5-fd167949532e&thumb,경상남도 창녕군 대합면 대동길 33,35.6112075,128.455386
금호지,경남 진주시,055-749-5321,"['경상권', '관광지', '금호지', '자연', '저수지']",https://cdn.visitkorea.or.kr/img/call?cmd=VIEW&id=c8aeabbe-fe5e-46f8-b2dc-46c9dd3f1d5e&thumb,경상남도 진주시 금산면 금산순환로587번길,35.2116655,128.1556277
기강서원,경남 의령군,055-570-2531,"['경상권', '관광지', '기강서원', '역사', '역사공부', '역사관광지', '역사를품은곳']",https://cdn.visitkorea.or.kr/img/call?cmd=VIEW&id=f1f55de7-4b18-42b6-9fa0-9a4bf41f098a&thumb,경상남도 의령군 지정면,35.3825245,128.3860659
기백산,경남 함양군,055-960-5756,"['관광지', '자연']",https://cdn.visitkorea.or.kr/img/call?cmd=VIEW&id=5cc4c266-75a4-4df5-9f09-6664764d9aa4&thumb,경상남도 함양군 안의면,35.6286663,127.8112809
기백산 용추계곡과 용추폭포,경남 함양군,055-960-5756,"['경상권', '관광지', '기백산', '용추계곡', '용추폭포', '자연']",https://cdn.visitkorea.or.kr/img/call?cmd=VIEW&id=b1c4af78-b6e1-4fe1-b283-a3bfa2f4ccb8&thumb,경상남도 함양군 안의면 상원리,35.6904382,127.7573219
기양서원,경남 함안군,055-580-2573,"['경상권', '관광지', '교과서속여행', '기양서원', '문화재', '서원', '역사', '역사공부']",https://cdn.visitkorea.or.kr/img/call?cmd=VIEW&id=fbdb94d6-0196-44ab-a6a3-cd8232f032db&thumb,경상남도 함안군 칠원읍 무기1길 33,35.2990028,128.5390218
기회송림,경남 밀양시,,"['경상권', '관광지', '기회송림', '산책길', '산책하기', '산책하기좋은곳', '야영객']",https://cdn.visitkorea.or.kr/img/call?cmd=VIEW&id=2d7d2e90-2cbb-443f-a5dd-218a33cb77f2&thumb,경상남도 밀양시 산외면 남기리,35.5140613,128.7913894
김상옥 생가,경남 통영시,055-650-4514,"['경상권', '관광지', '김상옥생가', '생가', '역사', '역사공부', '역사관광지', '역사를품은곳']",https://cdn.visitkorea.or.kr/img/call?cmd=VIEW&id=5e07c7b8-dac5-4a76-8834-7c011a39d035&thumb,경상남도 통영시 항남1번가길 13,34.843062,128.4222544
김숙자사당,경남 거창군,055-940-3431,"['경상권', '경상남도문화재자료', '관광지', '김숙자사당', '역사', '역사공부', '역사관광지']",https://cdn.visitkorea.or.kr/img/call?cmd=VIEW&id=548a8021-b4e2-4b7a-a742-e249ef7163c7&thumb,경상남도 거창군 남상면 한산1길 132-7,35.6411541,127.9373074
김영삼 전 대통령 생가,경남 거제시,055-639-3402,"['경상권', '관광지', '교과서속여행', '김영삼전대통령생가', '역사', '역사공부']",https://cdn.visitkorea.or.kr/img/call?cmd=VIEW&id=b64e8518-49ab-4f11-a99d-b97dbad4b269&thumb,경상남도 거제시 장목면 옥포대첩로 743-1,34.931467,128.7152676
김해 구지봉,경남 김해시,055-331-0086,"['경상권', '관광지', '구지봉', '사적', '역사', '역사공부', '역사관광지', '역사문화재']",https://cdn.visitkorea.or.kr/img/call?cmd=VIEW&id=617d9a9f-eeaa-405a-af3c-1035444c748e&thumb,경상남도 김해시 구산동,35.2532104,128.8708521
김해 대성동 고분군,경남 김해시,055-330-3934,"['경상권', '관광지', '대성동고분군', '사적', '역사', '역사공부', '역사관광지', '역사를품은곳']",https://cdn.visitkorea.or.kr/img/call?cmd=VIEW&id=a8b81699-9b59-4537-a6af-6067d9b12675&thumb,경상남도 김해시 가야의길 126,35.236059,128.8730958
김해 롯데워터파크,경남 김해시,1661-2000,"['가족여행', '관광지', '김해롯데워터파크', '남녀노소', '당일치기여행', '여름여행']",https://cdn.visitkorea.or.kr/img/call?cmd=VIEW&id=80fe4fcc-5348-485e-ae7c-4490e1866b00&thumb,경상남도 김해시 장유로 555,35.2049606,128.8118572
김해 봉황동 유적,경남 김해시,055-330-3934,"['경상권', '관광지', '봉황동유적', '사적', '역사', '역사공부', '역사관광지', '역사를품은곳']",https://cdn.visitkorea.or.kr/img/call?cmd=VIEW&id=47cd86e8-fa52-4e23-8f75-a0f46acfaed2&thumb,경상남도 김해시 가락로63번길 50,35.2320872,128.876382
김해 부경동물원,경남 김해시,055-338-5250,"['경상권', '관광지', '김해부경동물원', '동물원', '아이가_좋아하는_여행', '아이와함께']",https://cdn.visitkorea.or.kr/img/call?cmd=VIEW&id=9bcc99a0-119d-44fb-942a-643c899a729c&thumb,경상남도 김해시 유하로226번길 70,35.2203219,128.8198099
김해 분산성,경남 김해시,055-330-3243,"['가족여행', '경상권', '관광지', '김해분산성', '만장대', '역사', '역사공부', '역사관광지']",https://cdn.visitkorea.or.kr/img/call?cmd=VIEW&id=a987a6f4-605d-44d7-8265-f5ebf8f0dfa3&thumb,경상남도 김해시 어방동,35.2426033,128.9010575
김해 수로왕비릉,경남 김해시,055-338-1330,"['걷기길', '경상권', '관광지', '김해수로왕비릉', '수로왕비릉', '아이와함께', '역사']",https://cdn.visitkorea.or.kr/img/call?cmd=VIEW&id=e47176f6-8e5d-4167-aa82-9a31fdb846aa&thumb,경상남도 김해시 가락로190번길 1,35.2431857,128.8779144
김해 양동리 고분군,경남 김해시,055-338-1330,"['관광지', '역사', '역사공부', '역사관광지', '역사를품은곳', '역사문화재', '역사속']",https://cdn.visitkorea.or.kr/img/call?cmd=VIEW&id=353692d8-a45f-4b53-8d3e-3f40c1b43183&thumb,경상남도 김해시 주촌면 서부로1341번길 22,35.2225155,128.8107619
김해 예안리 고분군,경남 김해시,055-330-3934,"['경상권', '관광지', '김해예안리고분군', '사적', '역사', '역사공부', '역사관광지']",https://cdn.visitkorea.or.kr/img/call?cmd=VIEW&id=c6603bb5-5845-44db-9017-f59daccda650&thumb,경상남도 김해시 대동면 예안리,35.2617888,128.9546369
김해가야테마파크,경남 김해시,055-340-7900,"['가족여행', '경상권', '관광지', '교과서속여행', '글램핑', '놀이동산', '아이와함께']",https://cdn.visitkorea.or.kr/img/call?cmd=VIEW&id=92b83078-2acb-45c8-b9db-56a8d694810f&thumb,경상남도 김해시 가야테마길 161,35.2571164,128.8923319
김해생태체험학교 참빛,경남 김해시,055-337-4421,"['가족과함께', '경상권', '관광지', '김해생태체험학교참빛', '생태체험', '생태체험학교']",https://cdn.visitkorea.or.kr/img/call?cmd=VIEW&id=69ff3af2-c53a-4328-b2ad-78bd016f642d&thumb,경상남도 김해시 한림면 가동로103번길 44-16,35.3317728,128.7598787
김해천문대,경남 김해시,055-337-3785,"['가족과함께', '경상권', '관광지', '교육여행', '김해가볼만한곳', '김해천문대']",https://cdn.visitkorea.or.kr/img/call?cmd=VIEW&id=5a0fdda3-4acf-4be3-b7cc-d32f6864961b&thumb,경상남도 김해시 가야테마길 254,35.2515188,128.889307
김해향교,경남 김해시,055-330-3934,"['경상권', '경상남도유형문화재', '관광지', '김해향교', '역사', '역사공부', '역사관광지']",https://cdn.visitkorea.or.kr/img/call?cmd=VIEW&id=fdd356be-466d-411b-b99a-25906099b3b5&thumb,경상남도 김해시 가락로150번길 21,35.2396997,128.881553
낙동강 레일파크,경남 김해시,1544-1555,"['경치여행', '경치좋은곳', '관광지', '낙동강레일파크', '연인과함께', '자연환경']",https://cdn.visitkorea.or.kr/img/call?cmd=VIEW&id=03e80e51-6ede-4393-9145-b91cd33bbd2a&thumb,경상남도 김해시 생림면 마사로473번길 41,35.3718421,128.8209123
남가람문화거리,경남 진주시,055-749-8586,"['경상권', '경치좋은곳', '관광지', '남가람문화거리', '복합문화공간', '역사', '연인과함께']",https://cdn.visitkorea.or.kr/img/call?cmd=VIEW&id=6e8c2c66-be86-4a79-98f8-50cfcab47899&thumb,"경상남도 진주시 망경동,칠암동 일대",35.1807582,128.0846784
남강댐 물 문화관,경남 진주시,055-760-1266,"['경상권', '관광지', '남강댐', '남강댐물문화관', '물문화관', '아이와함께', '이색체험']",https://cdn.visitkorea.or.kr/img/call?cmd=VIEW&id=ce060d63-13d6-4cfb-a045-462f64ac5ccb&thumb,경상남도 진주시 내동면 삼계로 455-46,35.1625336,128.030458
남강서원(양산),경남 양산시,055-392-2555,"['관광지', '역사']",https://cdn.visitkorea.or.kr/img/call?cmd=VIEW&id=a1858d49-36a0-4d51-8e92-54b156d94830&thumb,경상남도 양산시 용주로 300,35.4313037,129.1579739
남강서원(함안),경남 함안군,055-580-2573,"['관광지', '역사', '역사공부', '역사관광지', '역사를품은곳', '역사문화재', '역사속']",https://cdn.visitkorea.or.kr/img/call?cmd=VIEW&id=b4859476-f868-4594-a92e-d59b581985b1&thumb,경상남도 함안군 군북면 소포5길 82,35.2772485,128.3490043
남계서원,경남 밀양시,055-359-5637,"['관광지', '역사', '역사공부', '역사관광지', '역사를품은곳', '역사문화재', '역사속']",https://cdn.visitkorea.or.kr/img/call?cmd=VIEW&id=undefined&thumb,경상남도 밀양시 청도면 두곡3길 43-16,35.5539401,128.6167712
남계서원 [유네스코 세계문화유산],경남 함양군,055-960-4537,"['관광지', '역사', '역사공부', '역사관광지', '역사를품은곳', '역사문화재', '역사속']",https://cdn.visitkorea.or.kr/img/call?cmd=VIEW&id=85b1fb48-9cf7-4ab2-888f-445c3cf51d0a&thumb,경상남도 함양군 수동면 남계서원길 8-11,35.5484929,127.7832519
남망산 조각공원,경남 통영시,055-650-4681,"['걷기길', '경상권', '관광지', '남망산조각공원', '산책길', '산책하기', '산책하기좋은곳']",https://cdn.visitkorea.or.kr/img/call?cmd=VIEW&id=d5c0c61d-d49e-4e7d-9f89-a4ca31ad29da&thumb,경상남도 통영시 남망길 139,34.8393527,128.4296257
남사예담촌,경남 산청군,070-8199-7107,"['가족여행', '경상권', '관광지', '남사예담촌', '농촌전통테마마을', '역사', '역사공부']",https://cdn.visitkorea.or.kr/img/call?cmd=VIEW&id=952ec3ef-fb0f-4f91-ad76-a899b368e4f4&thumb,경상남도 산청군 단성면 지리산대로2897번길 10,35.2742367,127.9363746
남산공원(고성),경남 고성군,055-670-2663,"['가족여행', '경상권', '경치좋은곳', '관광지', '남산공원', '산책길', '산책코스']",https://cdn.visitkorea.or.kr/img/call?cmd=VIEW&id=a2f84180-832e-4bac-b8a8-91982e617db5&thumb,경상남도 고성군 고성읍 동외로47번길 70,34.9673136,128.3271586
남악서원,경남 진주시,055-749-8579,"['관광지', '역사', '역사공부', '역사관광지', '역사를품은곳', '역사문화재', '역사속']",https://cdn.visitkorea.or.kr/img/call?cmd=VIEW&id=24a02365-aed2-45d4-889d-8f3f8b38c545&thumb,경상남도 진주시 금곡면 죽곡길 102,35.076682,128.1781064
남일대해수욕장,경남 사천시,055-831-3137,"['가족여행', '관광지', '남일대해수욕장', '바다풍경', '아이와함께', '여름방학가볼만한곳']",https://cdn.visitkorea.or.kr/img/call?cmd=VIEW&id=89163250-acbf-493b-b2a0-d23d1230e984&thumb,경상남도 사천시 향촌동,34.9338156,128.0932951
남해 가인리 화석산지,경남 남해군,055-860-8631,"['관광지', '자연']",https://cdn.visitkorea.or.kr/img/call?cmd=VIEW&id=4f5a64ea-9ba0-4c20-ab61-4c0de41d9705&thumb,경상남도 남해군 창선면 가인리 산60-20,34.8860312,128.0488839
남해 가천 해변과 암수바위,경남 남해군,1588-3415,"['관광지', '자연']",https://cdn.visitkorea.or.kr/img/call?cmd=VIEW&id=75a41793-0e65-475e-8ef0-db8648aeee78&thumb,경상남도 남해군 남면 남면로679번길,34.7275794,127.8944558
남해 관음포 이충무공 유적,경남 남해군,055-860-8633,"['가족여행', '경상권', '관광지', '교과서속여행', '나들이', '남해관음포이충무공유적']",https://cdn.visitkorea.or.kr/img/call?cmd=VIEW&id=363c0a21-1c98-4b26-8647-7a09d66d8ae0&thumb,경상남도 남해군 고현면 남해대로 3829,34.9133657,127.8572682
남해 금산 봉수대,경남 남해군,055-860-8636,"['경상권', '경상남도기념물', '관광지', '금산봉수대', '역사', '역사공부', '역사관광지']",https://cdn.visitkorea.or.kr/img/call?cmd=VIEW&id=85fea068-e2e1-4e81-a5f0-6399d3477ff4&thumb,경상남도 남해군 상주면 보리암로 691,34.7514245,127.9805768
남해 냉천갯벌체험장,경남 남해군,055-867-5220,"['갯벌', '갯벌체험', '갯벌체험장', '경치좋은곳', '관광지', '바다경치', '아이와함께']",https://cdn.visitkorea.or.kr/img/call?cmd=VIEW&id=6ddef255-8444-412e-a51f-d1997b4ed086&thumb,경상남도 남해군 창선면 동부대로 2810-13,34.9021099,128.025269
남해 다초지(장평지),경남 남해군,1588-3415,"['관광지', '자연']",https://cdn.visitkorea.or.kr/img/call?cmd=VIEW&id=cbd76e49-6134-4461-91ab-da8b3ab0891f&thumb,경상남도 남해군 이동면 초음리,34.823212,127.9324621
남해 문항어촌체험마을,경남 남해군,055-863-4787,"['가족여행', '경상권', '관광지', '낚시체험', '남해문항어촌체험마을', '아이와함께']",https://cdn.visitkorea.or.kr/img/call?cmd=VIEW&id=0a668551-0ed6-41e8-8d59-7c2af48ce177&thumb,경상남도 남해군 설천면 강진로206번길 54-19,34.9148516,127.9294038
남해 물건리 방조어부림,경남 남해군,055-860-8605,"['가족여행', '경상권', '경상남도여행', '경치좋은곳', '관광지', '남해물건리방조어부림']",https://cdn.visitkorea.or.kr/img/call?cmd=VIEW&id=0193bd92-488f-422e-b906-e2133abba154&thumb,경상남도 남해군 삼동면 물건리,34.7753694,128.0395964
남해 미조리 상록수림,경남 남해군,055-860-8635,"['경상권', '관광지', '미조리상록수림', '방풍림', '어부림', '자연', '천연기념물']",https://cdn.visitkorea.or.kr/img/call?cmd=VIEW&id=e67a75fc-2a2b-4a2d-a93d-760c25dbf8f4&thumb,경상남도 남해군 미조면 미송로12번길 14-7,34.7137191,128.0439677
남해 바래길,경남 남해군,055-860-88622,"['가천다랭이마을', '걷기길', '걷기여행', '경상권', '관광지', '남해바래길', '다랭이지겟길']",https://cdn.visitkorea.or.kr/img/call?cmd=VIEW&id=0fc61353-7121-4357-a7be-0d2c7c960e2c&thumb,경상남도 남해군 이동면 성남로 99,34.7788803,127.9510608
남해 양모리학교,경남 남해군,055-862-8933,"['가족여행', '걷기여행', '경상권', '관광지', '남해양모리학교', '농천체험여행']",https://cdn.visitkorea.or.kr/img/call?cmd=VIEW&id=467e4d74-b621-45b4-b66c-9ac9571648fd&thumb,경상남도 남해군 설천면 설천로775번길 256-17,34.9329242,127.8975443
남해 유포어촌체험마을,경남 남해군,055-862-0735,"['가족여행', '가족체험여행', '경상권', '관광지', '남해유포어촌체험마을', '마을축제']",https://cdn.visitkorea.or.kr/img/call?cmd=VIEW&id=c5a768d5-f641-4ebc-bd85-9157d7608fa9&thumb,경상남도 남해군 서면 남서대로2381번길 60,34.8619389,127.815017
남해 은점어촌체험마을,경남 남해군,055-867-7119,"['가족체험', '관광지', '농어촌체험마을', '아이와함께', '어촌체험', '어촌체험관광마을']",https://cdn.visitkorea.or.kr/img/call?cmd=VIEW&id=a610c807-b2a7-4c25-9bf2-a06d34df4247&thumb,경상남도 남해군 삼동면 동부대로942번길 34-9,34.7863847,128.0525828
남해 지족갯마을,경남 남해군,055-867-1277,"['관광지', '농어촌', '수산어촌체험마을', '아이와함께', '어촌', '어촌마을', '어촌체험']",https://cdn.visitkorea.or.kr/img/call?cmd=VIEW&id=b629298b-55f5-47dd-ba8a-ae1feae091c7&thumb,경상남도 남해군 삼동면 삼이로24번길 39,34.8288498,127.9934635
남해 창선도 왕후박나무,경남 남해군,055-860-8635,"['경상권', '관광지', '식물', '창선도왕후박나무', '천연기념물']",https://cdn.visitkorea.or.kr/img/call?cmd=VIEW&id=dd6d4d62-91a9-4402-9812-785655e59360&thumb,경상남도 남해군 창선면 대벽리,34.9125373,128.012383
남해 척화비,경남 남해군,055-860-8633,"['관광지', '역사', '역사공부', '역사관광지', '역사를품은곳', '역사문화재', '역사속']",https://cdn.visitkorea.or.kr/img/call?cmd=VIEW&id=c2ea3ac5-4754-464c-88de-be8f8b19bbd8&thumb,경상남도 남해군 설천면 노량로183번길 29,34.9413032,127.8761393
남해 항도어촌체험마을,경남 남해군,055-867-4348,"['가족과함께', '가족체험', '관광지', '아이와함께', '어촌마을', '어촌체험', '어촌체험마을']",https://cdn.visitkorea.or.kr/img/call?cmd=VIEW&id=a25c5faa-08ee-485e-a1ef-f6eca1d8f182&thumb,경상남도 남해군 미조면 동부대로310번길 32-8,34.7413839,128.0475972
남해 홍현마을,경남 남해군,055-863-5885,"['가족과함께', '경치여행', '경치좋은곳', '관광지', '바다경치', '바다내음', '아이와함께']",https://cdn.visitkorea.or.kr/img/call?cmd=VIEW&id=faff13f8-0c64-4cef-9aa4-a2ef54a17d6c&thumb,경상남도 남해군 남면 남면로353번길 9-7,34.7455673,127.9076023
남해나비생태공원,경남 남해군,055-860-3282,"['경상권', '관광지', '남해', '남해나비생태공원', '생태관광', '생태관광지', '전시관']",https://cdn.visitkorea.or.kr/img/call?cmd=VIEW&id=24e91f79-867b-4b50-b371-5ec0c46ece8a&thumb,경상남도 남해군 삼동면 금암로 562-23,34.7582939,128.0126328
남해대교,경남 남해군,1588-3415,"['건축물', '경치좋은곳', '관광지', '남해가볼만한곳', '남해대교', '대교', '드라이브여행']",https://cdn.visitkorea.or.kr/img/call?cmd=VIEW&id=360e2d87-4564-4578-8277-53436d4cce4e&thumb,경상남도 남해군 설천면 노량리,34.9395921,127.8771828
남해대교유람선,경남 남해군,055-862-9842,"['가족여행', '경상권', '관광지', '남해대교유람선', '바다풍경', '야경명소', '야경여행']",https://cdn.visitkorea.or.kr/img/call?cmd=VIEW&id=516597b6-d8dc-4373-bf6e-c9458d604596&thumb,경상남도 남해군 설천면 노량로 177,34.9413008,127.8729109
남해보물섬전망대,경남 남해군,,"['경치여행', '경치좋은곳', '관광지', '남해가볼만한곳', '바다경치', '보물섬전망대']",https://cdn.visitkorea.or.kr/img/call?cmd=VIEW&id=cd5cabcc-1d3d-47ab-b91e-41d275b3ee57&thumb,경상남도 남해군 삼동면 동부대로 720,34.8031191,128.0315718
남해향교,경남 남해군,055-860-8636,"['경상권', '경상남도유형문화재', '관광지', '남해향교', '역사', '역사공부', '역사관광지']",https://cdn.visitkorea.or.kr/img/call?cmd=VIEW&id=6b3fe3e7-99b7-41a5-a4e1-3d86854ea8b3&thumb,경상남도 남해군 남해읍 망운로10번길 47,34.8424242,127.8927645
내도(거제),경남 거제시,055-681-1624,"['2020_휴가철찾아가고싶은_33섬', '가족과함께', '관광지', '아이와함께', '자연']",https://cdn.visitkorea.or.kr/img/call?cmd=VIEW&id=9ca11aa8-b19d-4e49-8940-acd8fc569cb3&thumb,경상남도 거제시 일운면 내도길 1,34.7887612,128.714094
내원사(산청),경남 산청군,055-973-6799,"['관광지', '역사']",https://cdn.visitkorea.or.kr/img/call?cmd=VIEW&id=null&thumb,경상남도 산청군 삼장면 대하내원로 256,35.3001921,127.8104714
내원사(양산),경남 양산시,055-374-6466,"['가족여행', '경상권', '관광지', '내원사(양산)', '불교', '불교문화', '사찰', '사찰&산사']",https://cdn.visitkorea.or.kr/img/call?cmd=VIEW&id=ef8c31f4-9621-449c-bd68-ac3de80cbd35&thumb,경상남도 양산시 하북면 내원로 207,35.4471826,129.1104697
내원사계곡,경남 양산시,055-380-4826,"['가족여행', '경상권', '경치좋은곳', '관광지', '내원사계곡', '여름가볼만한곳']",https://cdn.visitkorea.or.kr/img/call?cmd=VIEW&id=5556c057-5620-4295-be4c-d17442f82fcc&thumb,경상남도 양산시 하북면 내원로 207,35.4471826,129.1104697
내천못재,경남 합천군,055-930-3752,"['관광지', '자연']",https://cdn.visitkorea.or.kr/img/call?cmd=VIEW&id=a613664f-29ef-4ca4-9db7-371db95d1705&thumb,경상남도 합천군 율곡면 내천리,35.6094961,128.2367379
노대도,경남 통영시,055-650-0580,"['관광지', '자연']",https://cdn.visitkorea.or.kr/img/call?cmd=VIEW&id=undefined&thumb,경상남도 통영시 욕지면 노대도,34.6700996,128.2470102
노도(김만중 유허지),경남 남해군,1588-3415,"['관광지', '자연']",https://cdn.visitkorea.or.kr/img/call?cmd=VIEW&id=a9010d68-b84d-4ee5-8028-408cfc0441e3&thumb,경상남도 남해군 상주면 노도길 76-16,34.7273153,127.9406685
노산공원,경남 사천시,055-830-4579,"['가족여행', '경상권', '경치좋은곳', '관광지', '노산공원', '산책길', '산책로', '산책하기']",https://cdn.visitkorea.or.kr/img/call?cmd=VIEW&id=ce9059a0-2805-4d7e-9b5f-9104ec08d0c1&thumb,경상남도 사천시 등대길 103,34.9247078,128.0744301
노을이 물드는 언덕,경남 거제시,055-639-3499,"['경상권', '경치좋은곳', '관광지', '노을이물드는언덕', '데이트', '데이트코스']",https://cdn.visitkorea.or.kr/img/call?cmd=VIEW&id=d02b261b-d9cc-4c05-b916-4361ebf09d7e&thumb,경상남도 거제시 사등면 가조로 565,34.9550353,128.5247126
노자산,경남 거제시,055-639-4178,"['관광지', '자연']",https://cdn.visitkorea.or.kr/img/call?cmd=VIEW&id=undefined&thumb,경상남도 거제시 동부면 구천리,34.8081048,128.6340293
농산정,경남 합천군,055-930-3178,"['경상권', '경상남도문화재자료', '관광지', '농산정', '역사', '역사공부', '역사관광지']",https://cdn.visitkorea.or.kr/img/call?cmd=VIEW&id=bd87615d-14ff-4a75-b5fe-770087167d99&thumb,경상남도 합천군 가야면 가야산로 1531,35.7853182,128.1098192
농소몽돌해변,경남 거제시,055-639-6743,"['가족여행', '관광지', '농소몽돌해변', '바다풍경', '아이와함께', '여름방학가볼만한곳']",https://cdn.visitkorea.or.kr/img/call?cmd=VIEW&id=fbb9de8e-7737-4615-9be5-152b054bed88&thumb,경상남도 거제시 장목면 거제북로,35.0069943,128.6887229
농월정 국민관광지,경남 함양군,055-960-5756,"['가족과함께', '경치좋은곳', '관광지', '남녀노소', '아이와함께', '여름피서지']",https://cdn.visitkorea.or.kr/img/call?cmd=VIEW&id=36a12bd7-1d02-44f6-aa1d-aab2fbbc8ab3&thumb,경상남도 함양군 안의면,35.6286663,127.8112809
늘해랑누리길 (치유의숲),경남 거창군,055-940-3420,"['가족과함께', '관광지', '산림욕', '연인과함께', '자연', '자연관광지', '자연속으로']",https://cdn.visitkorea.or.kr/img/call?cmd=VIEW&id=a1255ae3-2562-4c26-b559-a6865b4d89f8&thumb,경상남도 거창군 가조면 의상봉길 830,35.7366408,128.0409598
다맥 어촌체험마을,경남 사천시,055-853-8555,"['가족체험', '가족체험학습', '관광지', '농어촌체험마을', '아이와함께', '어촌']",https://cdn.visitkorea.or.kr/img/call?cmd=VIEW&id=982c6886-e963-4251-94cf-3d0b776b2571&thumb,경상남도 사천시 서포면 다평로 2,34.9798649,127.9435175
다솔사(경남),경남 사천시,055-853-0283,"['가족여행', '경상권', '관광지', '다솔사', '불교', '불교문화', '사찰', '사찰여행']",https://cdn.visitkorea.or.kr/img/call?cmd=VIEW&id=973c1627-c5a9-4a78-956c-0a89856d5bf2&thumb,경상남도 사천시 곤명면 다솔사길 417,35.0834741,127.9197762
다슬기 초량마을,경남 사천시,055-831-5192,"['가족여행', '경상권', '관광지', '농촌', '농촌길', '농촌여행코스', '농촌체험', '농촌체험학습']",https://cdn.visitkorea.or.kr/img/call?cmd=VIEW&id=d3ba3d27-7bf8-4194-ac43-3cce5f4e3519&thumb,경상남도 사천시 곤명면 초량길 27-3,35.1060443,127.9235792
다자연 녹차단지,경남 사천시,055-853-5058,"['가족여행', '경상권', '관광지', '녹차재배', '다자연녹차단지', '이색체험', '자연속으로']",https://cdn.visitkorea.or.kr/img/call?cmd=VIEW&id=d2d0b819-2d79-4dde-bcc8-600075872115&thumb,경상남도 사천시 곤명면 금성들길 55,35.1412945,127.968548
단성향교,경남 산청군,055-970-6413,"['관광지', '역사', '역사공부', '역사관광지', '역사를품은곳', '역사문화재', '역사속']",https://cdn.visitkorea.or.kr/img/call?cmd=VIEW&id=c18eff94-5f3b-4be2-b71a-493c42f1554c&thumb,경상남도 산청군 단성면 교동길 13-19,35.3090886,127.9550518
단속사 정당매,경남 산청군,055-970-6000,"['경상권', '관광지', '단속사정당매', '역사', '자연']",https://cdn.visitkorea.or.kr/img/call?cmd=VIEW&id=8b831bce-ac90-4fcb-b7a9-b1e315c4737b&thumb,경상남도 산청군 단성면 호암로673번길 12-1,35.3214155,127.899627
단장 이팝꽃 터널길,경남 밀양시,055-211-4633,"['경상남도여행', '경치여행', '경치좋은곳', '관광지', '남녀노소', '드라이브여행']",https://cdn.visitkorea.or.kr/img/call?cmd=VIEW&id=60c3df17-cd72-470b-8694-d255f1d804df&thumb,경상남도 밀양시 단장면,35.5152332,128.875983
달빛고운월성마을,경남 거창군,010-8912-3205,"['가족과함께', '경상권', '관광지', '농촌마을', '농촌여행', '농촌체험', '달빛고운월성마을']",https://cdn.visitkorea.or.kr/img/call?cmd=VIEW&id=0ade2b9a-a676-4ab5-88b1-9aebd319dcc1&thumb,경상남도 거창군 북상면 덕유월성로 1433-7,35.7641532,127.7423328
달빛쌈지공원,경남 밀양시,055-359-5646,"['가족과함께', '경치좋은곳', '공원', '관광지', '밀양가볼만한곳', '산책길', '산책하기']",https://cdn.visitkorea.or.kr/img/call?cmd=VIEW&id=fa228084-1d08-49d2-928e-10f7525b7b7d&thumb,경상남도 밀양시 밀양대로 2047,35.5038466,128.7472291
달아공원,경남 통영시,055-650-4681,"['가족여행', '걷기여행', '겨울방학가볼만한곳', '관광지', '달아공원', '바다풍경']",https://cdn.visitkorea.or.kr/img/call?cmd=VIEW&id=9c061a81-9eb0-4855-b763-6bc45ae74eeb&thumb,경상남도 통영시 산양읍 산양일주로 1115,34.7698023,128.4011153
달천계곡(창원),경남 창원시,055-289-8815,"['경상권', '관광지', '달천계곡', '여름방학가볼만한곳', '여름피서지', '역사', '자연']",https://cdn.visitkorea.or.kr/img/call?cmd=VIEW&id=d079f5fa-8762-4739-ae77-76ae1d8b03aa&thumb,경상남도 창원시 의창구 북면 달천길 145,35.2834587,128.597895
당포성지,경남 통영시,055-650-4583,"['관광지', '역사', '역사관광지', '역사를품은곳', '역사문화재', '역사속', '역사속으로']",https://cdn.visitkorea.or.kr/img/call?cmd=VIEW&id=36efd5d8-dc72-489d-83fa-4be292f6dc40&thumb,경상남도 통영시 산양읍 삼덕리,34.7976314,128.3889314
당항포관광지,경남 고성군,055-670-4505,"['가족과함께', '경상권', '관광지', '남녀노소', '당항포', '당항포관광지', '아이와함께']",https://cdn.visitkorea.or.kr/img/call?cmd=VIEW&id=85940320-7b60-433b-8147-1e80e46d870b&thumb,경상남도 고성군 회화면 당항만로 1116,35.0552275,128.3973788
대각서원,경남 진주시,055-749-8579,"['경상권', '경상남도문화재자료', '관광지', '대각서원', '역사', '역사관광지', '역사를품은곳']",https://cdn.visitkorea.or.kr/img/call?cmd=VIEW&id=98345221-9979-4579-9053-741d857177a0&thumb,경상남도 진주시 수곡면 대각길 104-21,35.2235679,127.9229792
대광사(창원),경남 창원시,055-545-9595,"['관광지', '불교', '불교문화', '사찰', '사찰여행', '역사', '자연속으로', '자연환경']",https://cdn.visitkorea.or.kr/img/call?cmd=VIEW&id=f3929f2c-cde1-488e-af15-ca681d627cb0&thumb,경상남도 창원시 진해구 진해대로 303,35.1279791,128.7449228
대국산성,경남 남해군,055-860-8633,"['관광지', '역사', '역사공부', '역사관광지', '역사를품은곳', '역사문화재', '역사속']",https://cdn.visitkorea.or.kr/img/call?cmd=VIEW&id=2450c8d3-6e54-4aee-a966-3e2f0fee528d&thumb,경상남도 남해군 고현면 남치리,34.9101446,127.889178
대금산(거제),경남 거제시,055-639-4178,"['거제대금산', '경상권', '관광지', '등산', '자연', '트레킹']",https://cdn.visitkorea.or.kr/img/call?cmd=VIEW&id=b0c86348-03dc-4905-ae07-64e6c0eeb003&thumb,경상남도 거제시 장목면,34.9868751,128.6820325
대기 농촌체험휴양마을,경남 합천군,055-931-1313,"['가족체험', '가족체험여행', '관광지', '농촌체험', '농촌체험마을', '농촌체험여행']",https://cdn.visitkorea.or.kr/img/call?cmd=VIEW&id=43a2f42a-2ef8-46d8-9a93-eea2899705db&thumb,경상남도 합천군 가회면 대기2길 17-3,35.4621113,128.0018907
대도,경남 하동군,070-4208-8100,"['관광지', '자연']",https://cdn.visitkorea.or.kr/img/call?cmd=VIEW&id=caf47891-b38b-405c-a5f1-cc3da6027ada&thumb,경상남도 하동군 금남면 대도길 122,34.93196,127.8322743
대방마을,경남 사천시,055-831-3110,"['관광지', '자연']",https://cdn.visitkorea.or.kr/img/call?cmd=VIEW&id=31b10beb-be07-430a-8fb9-1078d6f4a42e&thumb,경남 사천시 동서동,34.9286218,128.0687425
대방진굴항,경남 사천시,055-831-2728,"['가족여행', '경치좋은곳', '관광지', '대방진굴항', '사천가볼만한곳', '아이와함께']",https://cdn.visitkorea.or.kr/img/call?cmd=VIEW&id=ac06227b-c4bf-400d-9865-550d5f24b277&thumb,경상남도 사천시 굴항길 99,34.9293312,128.0563856
대법사,경남 밀양시,055-356-0322,"['관광지', '불교', '불교문화', '사찰', '사찰여행', '역사', '자연속으로', '자연환경']",https://cdn.visitkorea.or.kr/img/call?cmd=VIEW&id=25f7f1dd-e365-44ce-97f7-515711212e38&thumb,경상남도 밀양시 무안면 무안서로 163-158,35.4659461,128.6063754
대운산자연휴양림 네트어드벤처,경남 양산시,055-379-8670,"['관광지', '대운산자연휴양림', '이색체험지']",https://cdn.visitkorea.or.kr/img/call?cmd=VIEW&id=af65559e-1ff6-45dd-85b7-730dd2c017e2&thumb,경상남도 양산시 탑골길 208-124,35.4172958,129.2119086
대원사(산청),경남 산청군,055-972-8068,"['관광지', '불교', '불교사찰', '사찰', '사찰여행', '역사', '자연속으로', '자연좋은곳']",https://cdn.visitkorea.or.kr/img/call?cmd=VIEW&id=31ba5993-c980-4e25-9a67-355692f89bc8&thumb,경상남도 산청군 삼장면 평촌유평로 453,35.3553053,127.8070484
대원사계곡,경남 산청군,055-970-6000,"['경상권', '계곡', '관광지', '대원사계곡', '자연', '피서']",https://cdn.visitkorea.or.kr/img/call?cmd=VIEW&id=undefined&thumb,경상남도 산청군 삼장면 유평리,35.3661378,127.7724079
대장경테마파크,경남 합천군,055-930-4801,"['가족여행', '가족체험여행', '경상권', '관광지', '대장경테마파크', '미세먼지_피하는_실내여행']",https://cdn.visitkorea.or.kr/img/call?cmd=VIEW&id=6e207f1e-68e6-468d-b142-fbcf74fa8ecc&thumb,경상남도 합천군 가야면 야천리 996,35.7650628,128.1357893
대포서원,경남 산청군,055-970-6413,"['가족여행', '경상권', '경상남도문화재자료', '관광지', '대포서원', '역사', '역사공부']",https://cdn.visitkorea.or.kr/img/call?cmd=VIEW&id=61621203-59f3-46ac-a974-d60a7522a7e2&thumb,경상남도 산청군 생초면 명지대포로236번길 183,35.4625227,127.8557936
덕곡서원,경남 의령군,055-570-2531,"['경상권', '경상남도문화재자료', '관광지', '덕곡서원', '역사', '역사공부', '역사관광지']",https://cdn.visitkorea.or.kr/img/call?cmd=VIEW&id=07cc4162-4f1b-4aed-b505-c34d7481584d&thumb,경상남도 의령군 의령읍 벽화로 629-12,35.3130849,128.2535642
덕동해수욕장,경남 통영시,055-650-2570,"['관광지', '자연']",https://cdn.visitkorea.or.kr/img/call?cmd=VIEW&id=621757be-831c-4e2b-8af6-c7301cf6f02a&thumb,경상남도 통영시 욕지면 덕동길 39,34.6354977,128.2376272
덕산서원(고성),경남 고성군,055-670-2224,"['관광지', '역사', '역사공부', '역사관광지', '역사를품은곳', '역사문화재', '역사속']",https://cdn.visitkorea.or.kr/img/call?cmd=VIEW&id=d2c81520-6ed5-41e0-9c8a-48716b0557b0&thumb,경상남도 고성군 마암면 두호2길 76-13,35.0137113,128.3464413
덕연서원,경남 함안군,055-580-2573,"['경상권', '경상남도문화재자료', '관광지', '덕연서원', '역사', '역사공부', '역사관광지']",https://cdn.visitkorea.or.kr/img/call?cmd=VIEW&id=e5e2545e-bbe1-45d6-abef-b31f6a42f6ba&thumb,경상남도 함안군 칠원읍 예용3길 12-2,35.2970471,128.50977
덕원서원,경남 합천군,055-930-3178,"['경상권', '경상남도문화재자료', '관광지', '덕원서원', '역사', '역사공부', '역사관광지']",https://cdn.visitkorea.or.kr/img/call?cmd=VIEW&id=46a3f5ca-afce-4f37-8a84-12088ea1ff2f&thumb,경상남도 합천군 청덕면 성태길 81,35.5855629,128.319306
덕유산국립공원(남덕유분소),경남 거창군,055-943-3174,"['15_16한국관광100선', '경남/전북', '경상권', '관광지', '덕유산', '자연', '한국관광100선']",https://cdn.visitkorea.or.kr/img/call?cmd=VIEW&id=a1ba11bf-14eb-4b0b-a1b9-dd5e94889ffc&thumb,경남 거창군 북상면 소정리,35.8338264,127.8028289
덕천서원,경남 거창군,055-940-3431,"['관광지', '교과서속여행', '덕천서원', '서원', '역사', '역사공부', '역사관광지']",https://cdn.visitkorea.or.kr/img/call?cmd=VIEW&id=6511dccd-981a-40e1-883c-e0271fae8009&thumb,경상남도 거창군 거창읍 장팔길 594,35.6604897,127.8911219
덕천서원,경남 거창군,055-940-3431,"['가족여행', '거창덕천서원', '경상권', '관광지', '역사', '역사공부', '역사관광지']",https://cdn.visitkorea.or.kr/img/call?cmd=VIEW&id=3e478876-69a6-45e2-9327-65c17f0f64b5&thumb,경상남도 산청군 시천면 남명로 137,35.2745,127.8332233
덕천서원,경남 산청군,055-970-6413,"['관광지', '역사', '역사공부', '역사관광지', '역사를품은곳', '역사문화재', '역사속']",https://cdn.visitkorea.or.kr/img/call?cmd=VIEW&id=23eb1477-cfd4-4b4a-ba15-5e42f667001d&thumb,경상남도 거창군 거창읍 장팔길 594,35.6604897,127.8911219
덕포해수욕장,경남 거제시,055-1330,"['경상권', '관광지', '덕포해수욕장', '바다풍경', '연인과함께', '자연']",https://cdn.visitkorea.or.kr/img/call?cmd=VIEW&id=a0bb3851-4520-49a7-81ee-8f232eb324fd&thumb,경상남도 거제시 덕포5길,34.9125924,128.7119375
도계서원,경남 함안군,055-580-2573,"['관광지', '역사', '역사공부', '역사관광', '역사관광지', '역사를품은곳', '역사문화']",https://cdn.visitkorea.or.kr/img/call?cmd=VIEW&id=undefined&thumb,경상남도 함안군 함안면 파수북길 35-36,35.2387298,128.4024996
도곡서원,경남 함양군,055-960-4537,"['관광지', '역사', '역사공부', '역사관광지', '역사를품은곳', '역사문화재', '역사속']",https://cdn.visitkorea.or.kr/img/call?cmd=VIEW&id=4ed3f401-5e74-45df-84f9-e155a6e90558&thumb,경상남도 함양군 지곡면 병곡지곡로 859,35.5667432,127.7636311
도남관광지,경남 통영시,055-648-9133,"['관광지', '도남해수욕장', '산책길', '산책하기', '산책하기좋은곳', '스카이라인통영루지']",https://cdn.visitkorea.or.kr/img/call?cmd=VIEW&id=3a50696d-3c1a-4b58-a250-c3d54e5a4e3d&thumb,경상남도 통영시 큰발개1길 33,34.8276983,128.4400011
도남서원,경남 창원시,055-225-3673,"['관광지', '역사', '역사공부', '역사관광지', '역사를품은곳', '역사문화재', '역사속']",https://cdn.visitkorea.or.kr/img/call?cmd=VIEW&id=undefined&thumb,경상남도 창원시 의창구 동읍 동읍로401번길 68,35.2985851,128.6593108
도남항 동방파제 등대 (연필등대),경남 통영시,055-981-5261,"['관광지', '자연']",https://cdn.visitkorea.or.kr/img/call?cmd=VIEW&id=d8b797a5-ad46-44b7-a817-2c2e83ca2f08&thumb,경상남도 통영시 도남로 269-38,34.8286608,128.4337955
도봉서원,경남 창원시,055-225-3673,"['경상권', '관광지', '도봉서원', '역사', '역사공부', '역사관광지', '역사를품은곳']",https://cdn.visitkorea.or.kr/img/call?cmd=VIEW&id=36800403-4b82-4a03-9e35-c4ea45664cd1&thumb,경상남도 창원시 의창구 동읍 석산길16번길 5-11,35.3149079,128.6592584
도산서원(고성),경남 고성군,055-670-2224,"['관광지', '역사', '역사공부', '역사관광지', '역사를품은곳', '역사문화재', '역사속']",https://cdn.visitkorea.or.kr/img/call?cmd=VIEW&id=70df6945-f86a-4f12-8918-115f3b6c8aa8&thumb,경상남도 고성군 구만면 화림3길 88,35.1034161,128.3346196
도성암(창녕),경남 창녕군,055-530-1473,"['관광지', '불교', '불교문화', '사찰', '사찰여행', '역사', '자연속으로', '자연환경']",https://cdn.visitkorea.or.kr/img/call?cmd=VIEW&id=undefined&thumb,경상남도 창녕군 창녕읍 자하곡길 147,35.5435259,128.5201731
도심다원,경남 하동군,055-883-2252,"['가족체험', '경치좋은곳', '관광지', '녹차밭', '농촌체험', '사진찍기', '사진찍기좋은곳']",https://cdn.visitkorea.or.kr/img/call?cmd=VIEW&id=426b1788-9c3b-4e7a-907d-bb016a0e81c1&thumb,경상남도 하동군 화개면 신촌도심길 51-2,35.2180081,127.647583
도연서원,경남 고성군,055-670-2224,"['관광지', '역사', '역사공부', '역사관광지', '역사를품은곳', '역사문화재', '역사속']",https://cdn.visitkorea.or.kr/img/call?cmd=VIEW&id=a97498d7-7488-485c-b5ac-ee227cf96b0d&thumb,경상남도 고성군 마암면 도전4길 152-41,35.0622163,128.3350007
도장포어촌체험마을,경남 거제시,055-638-2202,"['가족여행', '경상권', '관광지', '농어촌체험마을', '도장포어촌체험마을', '사진촬영명소']",https://cdn.visitkorea.or.kr/img/call?cmd=VIEW&id=efce0176-d568-442e-86bb-dab195976587&thumb,경상남도 거제시 남부면 도장포1길 76,34.7434332,128.6624301
도장포유람선,경남 거제시,055-632-8787,"['겨울바다', '관광지', '바다,섬', '바다여행', '바다풍경', '유람선', '유람선', '힐링&휴양']",https://cdn.visitkorea.or.kr/img/call?cmd=VIEW&id=68291d5f-5f5c-4143-8a0c-2f5bc863c827&thumb,경상남도 거제시 남부면 도장포1길 55,34.7419713,128.6626947
도천서원,경남 산청군,055-970-6413,"['관광지', '역사', '역사공부', '역사관광지', '역사를품은곳', '역사문화재', '역사속']",https://cdn.visitkorea.or.kr/img/call?cmd=VIEW&id=09f32951-b6b3-44f9-904b-3f035a805d3b&thumb,경상남도 산청군 신안면 문익점로 34-32,35.3271098,127.9530432
독일마을,경남 남해군,055-867-8897,"['19_20한국관광100선', '경상권', '관광지', '교과서속여행', '기차여행', '나들이']",https://cdn.visitkorea.or.kr/img/call?cmd=VIEW&id=6c0b1908-db4d-4b91-b1a2-74d94c037bfa&thumb,경상남도 남해군 삼동면 독일로 92,34.8008273,128.0385068
동림사(김해),경남 김해시,055-337-0001,"['경상권', '관광지', '동림사', '불교', '불교문화', '사찰', '역사', '자연', '자연좋은곳']",https://cdn.visitkorea.or.kr/img/call?cmd=VIEW&id=e1da8389-548e-4f56-9f61-96fc3833d53f&thumb,경상남도 김해시 신어산길 144,35.2636821,128.9148218
동산서당,경남 창녕군,055-530-1473,"['경상권', '경상남도문화재자료', '관광지', '동산서당', '역사', '역사공부', '역사관광지']",https://cdn.visitkorea.or.kr/img/call?cmd=VIEW&id=4fae451c-9e24-4036-88bc-d47cb9986629&thumb,경상남도 창녕군 이방면 이방로 565-5,35.57091,128.3851013
동피랑마을,경남 통영시,055-650-2570,"['감성사진', '걷기길', '경상권', '관광지', '데이트코스', '동피랑마을', '사진찍기좋은곳']",https://cdn.visitkorea.or.kr/img/call?cmd=VIEW&id=ba44d475-4f7c-4939-9875-f50e18d17659&thumb,경상남도 통영시 동피랑1길 6-18,34.8452973,128.4277594
동해 해안길,경남 고성군,055-211-4633,"['경상남도여행', '경치여행', '경치좋은곳', '관광지', '드라이브여행', '드라이브코스']",https://cdn.visitkorea.or.kr/img/call?cmd=VIEW&id=38f01e56-9bfe-4780-98db-b518feb28080&thumb,경상남도 고성군 동해면,35.0414357,128.4209977
동화어촌체험마을,경남 고성군,010-4001-2115,"['관광지', '아이와함께', '어촌마을', '어촌체험마을', '이색체험', '자연마을', '자연좋은곳']",https://cdn.visitkorea.or.kr/img/call?cmd=VIEW&id=cf09366c-ff02-4c33-a06e-283fe8612351&thumb,경상남도 고성군 하일면 동화1길 203,34.9009795,128.1906927
돝섬(창원),경남 창원시,055-289-8815,"['가족과함께', '관광지', '자연', '자연관광지', '자연속으로', '자연여행', '자연좋은곳']",https://cdn.visitkorea.or.kr/img/call?cmd=VIEW&id=7233b983-d999-45f1-8ca3-870d6ac66c40&thumb,경상남도 창원시 마산합포구 돝섬2길 58,35.178936,128.5811386
"두곡, 월포해수욕장",경남 남해군,055-862-6148,"['가족여행', '경상권', '관광지', '두곡월표해수욕장', '두곡해수욕장', '바다풍경']",https://cdn.visitkorea.or.kr/img/call?cmd=VIEW&id=18febfb8-3cc3-4eee-8966-43fb48cd2b25&thumb,경상남도 남해군 남면 남면로111번길 77,34.7646753,127.9035653
두곡서원(창원),경남 창원시,055-225-3673,"['관광지', '역사', '역사공부', '역사관광지', '역사를품은곳', '역사문화재', '역사속']",https://cdn.visitkorea.or.kr/img/call?cmd=VIEW&id=ac844191-5b64-4f9e-9e38-99848c178c9d&thumb,경상남도 창원시 마산회원구 두곡길 54,35.2391476,128.5489481
두릉서원,경남 함안군,055-580-2301,"['관광지', '역사', '역사관광지', '역사를품은곳', '역사문화재', '역사속', '역사속으로']",https://cdn.visitkorea.or.kr/img/call?cmd=VIEW&id=fcfd58bf-8aff-4186-9d78-a48671e943a8&thumb,경상남도 함안군 여항면 두곡길 145,35.2062809,128.4552986
두모마을,경남 남해군,088-862-5865,"['가족과함께', '관광지', '농촌', '농촌마을', '농촌여행', '농촌체험마을', '농촌체험여행']",https://cdn.visitkorea.or.kr/img/call?cmd=VIEW&id=d64e94c6-515c-477c-88a6-e426a9640d1c&thumb,경상남도 남해군 상주면 양아로533번길 18,34.7337998,127.9553316
두무산(합천),경남 합천군,055-930-3114,"['관광지', '자연']",https://cdn.visitkorea.or.kr/img/call?cmd=VIEW&id=undefined&thumb,경상남도 합천군 가야면,35.7626841,128.1394795
두방사(두방암),경남 진주시,055-761-6351,"['관광지', '불교', '불교문화', '사찰', '사찰여행', '역사', '자연속으로', '자연환경']",https://cdn.visitkorea.or.kr/img/call?cmd=VIEW&id=673554c5-5250-4b2c-87b0-a49c21017444&thumb,경상남도 진주시 문산읍 동부로781번길 267,35.1881447,128.1914643
둔철산,경남 산청군,055-970-6911,"['관광지', '자연']",https://cdn.visitkorea.or.kr/img/call?cmd=VIEW&id=undefined&thumb,경상남도 산청군 산청읍 범학길,35.3885546,127.9126516
마금산,경남 창원시,055-225-4453,"['가족과함께', '경상권', '관광지', '마금산', '자연', '친구와함께', '트레킹']",https://cdn.visitkorea.or.kr/img/call?cmd=VIEW&id=31317666-591c-4d70-9a64-5f46d4cbe97d&thumb,경상남도 창원시 의창구 북면 신리길30번길,35.3487153,128.6058577
마금산원탕,경남 창원시,055-298-4400,"['가족과함께', '관광지', '마금산원탕', '목욕탕', '복면온천', '온천', '친구들과함께']",https://cdn.visitkorea.or.kr/img/call?cmd=VIEW&id=069a6640-b6db-4271-bb68-9cb783b092c3&thumb,경상남도 창원시 의창구 북면 천주로 1167,35.3546296,128.6094306
마산 오동동 아구찜거리,경남 창원시,,"['경상권', '관광지', '마산오동동아구찜거리', '소주한잔', '시장음식', '아구찜']",https://cdn.visitkorea.or.kr/img/call?cmd=VIEW&id=5ecf7c96-ad87-4e04-b035-4163932f1289&thumb,경상남도 창원시 마산합포구 아구찜길 20,35.2064262,128.5785669
마산로봇랜드,경남 창원시,055-214-6000,"['가족과함께', '관광지', '로봇랜드', '아이가_좋아하는_여행', '아이와함께', '이색체험']",https://cdn.visitkorea.or.kr/img/call?cmd=VIEW&id=9835e16c-ecef-4e1b-8976-de907ad9d2ac&thumb,경상남도 창원시 마산합포구 구산면 로봇랜드로 250,35.0697416,128.5805435
마산역(철도체험학습장),경남 창원시,051-440-2818,"['견학', '경상권', '관광지', '마산역', '산업관광', '이색체험', '직업체험', '철도체험학습장']",https://cdn.visitkorea.or.kr/img/call?cmd=VIEW&id=79b04d20-c0a1-4090-b2bd-e26b78396809&thumb,경상남도 창원시 마산회원구 마산역광장로 18,35.2371157,128.5781958
마산향교,경남 창원시,055-271-6300,"['관광지', '역사', '역사공부', '역사관광지', '역사를품은곳', '역사문화재', '역사속']",https://cdn.visitkorea.or.kr/img/call?cmd=VIEW&id=542576de-e3d6-4958-a048-02b53aaa96b8&thumb,경상남도 창원시 마산합포구 진동면 교동1길 86,35.1188425,128.4990018
만골관광농원,경남 거제시,055-633-0700,"['가족과함께', '가족체험', '가족휴양', '관광농원', '관광지', '농원', '농촌마을']",https://cdn.visitkorea.or.kr/img/call?cmd=VIEW&id=undefined&thumb,경상남도 거제시 동부면 북병산로 89-22,34.8139736,128.6466707
만어사,경남 밀양시,055-356-2010,"['경상권', '관광지', '만어사', '불교', '불교문화', '사찰', '사찰여행', '역사', '역사유적지']",https://cdn.visitkorea.or.kr/img/call?cmd=VIEW&id=1f7d68af-1674-4272-922a-02d3de777709&thumb,경상남도 밀양시 삼랑진읍 만어로 776,35.4548295,128.8462291
만월당,경남 거창군,055-940-3431,"['거창만월당', '경상권', '경상남도유형문화재', '관광지', '역사', '역사공부', '역사관광지']",https://cdn.visitkorea.or.kr/img/call?cmd=VIEW&id=178692d9-790a-48c1-87e6-c4631f93284b&thumb,경상남도 거창군 북상면 덕유월성로 2279-10,35.7772155,127.8148078
만지도,경남 통영시,055-643-3433,"['2020_휴가철찾아가고싶은_33섬', '가족과함께', '경상권', '경치여행', '경치좋은곳']",https://cdn.visitkorea.or.kr/img/call?cmd=VIEW&id=c37dc1ae-4848-4338-addd-04bc0b05042d&thumb,경상남도 통영시 산양읍 만지길 3,34.7399362,128.389075
만화방초,경남 고성군,010-3870-1041,"['관광지', '자연']",https://cdn.visitkorea.or.kr/img/call?cmd=VIEW&id=45378289-d45e-413c-bc97-a6bdb51b027b&thumb,경상남도 고성군 거류면 은황길 82-91,34.9603597,128.3855291
망산공원,경남 사천시,055-831-3400,"['걷기좋은길', '걷기좋은길', '관광지', '망상공원', '산책길', '산책코스', '산책하기']",https://cdn.visitkorea.or.kr/img/call?cmd=VIEW&id=e97bb7cd-d513-484d-ac29-9400397331da&thumb,경상남도 사천시 망산동1길 41-15,34.9331908,128.0726381
망산도·유주암·유주비각,경남 창원시,055-225-3673,"['경상권', '경상남도기념물', '관광지', '망산도', '역사', '역사공부', '역사관광지']",https://cdn.visitkorea.or.kr/img/call?cmd=VIEW&id=3f72a6f4-ae74-420a-8e55-181e535f54b8&thumb,경상남도 창원시 진해구 용원동,35.1091336,128.817681
망운산,경남 남해군,055-860-8601,"['관광지', '자연']",https://cdn.visitkorea.or.kr/img/call?cmd=VIEW&id=null&thumb,경상남도 남해군 서면 남서대로2240번길 412-18,34.8459053,127.8461766
망운암(남해),경남 남해군,055-863-3095,"['관광지', '불교', '불교문화', '사찰', '사찰여행', '역사', '자연속으로', '자연환경']",https://cdn.visitkorea.or.kr/img/call?cmd=VIEW&id=null&thumb,경상남도 남해군 남해읍 남서대로2240번길 708,34.8514549,127.8580893
망진산 봉수대,경남 진주시,055-749-8579,"['관광지', '역사', '역사공부', '역사관광지', '역사를품은곳', '역사문화재', '역사속']",https://cdn.visitkorea.or.kr/img/call?cmd=VIEW&id=722591c4-568a-4c92-819a-01a5b5d1eca4&thumb,경상남도 진주시 망경동,35.1807582,128.0846784
매물도,경남 통영시,055-650-4681,"['관광지', '자연']",https://cdn.visitkorea.or.kr/img/call?cmd=VIEW&id=a78daad9-7b01-47f6-a19b-13841ac9d5e9&thumb,경상남도 통영시 한산면 매물도대항길,34.6397415,128.5698573
매미성,경남 거제시,055-639-4178,"['경상권', '관광지', '매미성', '바다', '자연']",https://cdn.visitkorea.or.kr/img/call?cmd=VIEW&id=0b09c40f-2588-4c12-bfb7-d29295f96aab&thumb,경상남도 거제시 장목면 복항길,34.9673101,128.7043829
매화산(합천),경남 합천군,055-930-8000,"['경상권', '관광지', '단풍여행', '등산', '자연', '트레킹', '합천매화산']",https://cdn.visitkorea.or.kr/img/call?cmd=VIEW&id=dc026833-205c-4a34-a30a-1557e219fdd3&thumb,경상남도 합천군 가야면 해인사길,35.7984088,128.0939279
명사마을,경남 거제시,055-639-6003,"['경상권', '관광지', '명사마을', '자연', '힐링']",https://cdn.visitkorea.or.kr/img/call?cmd=VIEW&id=dd87d271-1653-4a52-85c0-a0646d4b8731&thumb,경상남도 거제시 남부면 명사1길 12-1,34.7255282,128.6021022
명사해수욕장,경남 거제시,055-639-6551,"['가족여행', '관광지', '명사해수욕장', '바다풍경', '아이와함께', '여름방학가볼만한곳']",https://cdn.visitkorea.or.kr/img/call?cmd=VIEW&id=8499bc1e-ad47-4b48-b209-876f929620a7&thumb,경상남도 거제시 남부면 명사해수욕장길,34.7276618,128.6048804
모리재,경남 거창군,055-940-3431,"['경상권', '경상남도유형문화재', '관광지', '모리재', '역사', '역사공부', '역사관광지']",https://cdn.visitkorea.or.kr/img/call?cmd=VIEW&id=5d02c55a-ca32-401b-8821-3b65953ac71e&thumb,경상남도 거창군 북상면 강선대길 96-326,35.7653088,127.797489
모상개해수욕장,경남 남해군,1588-3415,"['관광지', '자연']",https://cdn.visitkorea.or.kr/img/call?cmd=VIEW&id=5d18f9ab-2a9a-494c-bdd3-12647cfec325&thumb,경상남도 남해군 창선면 진동리,34.8471364,128.0532286
모은암,경남 김해시,055-335-9200,"['관광지', '불교', '불교문화', '사찰', '사찰여행', '역사', '자연속으로', '자연환경']",https://cdn.visitkorea.or.kr/img/call?cmd=VIEW&id=undefined&thumb,경상남도 김해시 생림면 마사로 36-228,35.3468346,128.8611536
목계서원,경남 산청군,055-970-6413,"['경상권', '관광지', '교과서속여행', '목계서원', '서원', '역사', '역사공부', '역사관광지']",https://cdn.visitkorea.or.kr/img/call?cmd=VIEW&id=85ab3d5a-1848-4e61-9a55-02858b88c3ad&thumb,경상남도 산청군 단성면 석대로525번길 40-13,35.3252864,127.9357363
몽고정,경남 창원시,055-225-3673,"['경상권', '경상남도문화재자료', '관광지', '몽고정', '역사', '역사공부', '역사관광지']",https://cdn.visitkorea.or.kr/img/call?cmd=VIEW&id=a2f6eaa2-2727-402f-a78d-a8df5719110f&thumb,경상남도 창원시 마산합포구 자산동,35.2055979,128.5654666
무민사(남해),경남 남해군,055-860-8636,"['경상권', '관광지', '남해무민사', '역사', '역사공부', '역사관광지', '역사를품은곳']",https://cdn.visitkorea.or.kr/img/call?cmd=VIEW&id=3b087643-dc07-4603-8e2b-6c9fbb3a9698&thumb,경상남도 남해군 미조면 남해대로 14-11,34.7173953,128.0415797
무봉사,경남 밀양시,055-354-3296,"['관광지', '불교', '불교문화', '사찰', '사찰여행', '역사', '자연속으로', '자연환경']",https://cdn.visitkorea.or.kr/img/call?cmd=VIEW&id=54561e0a-9b1a-49fa-9f98-74bf7ac553f3&thumb,경상남도 밀양시 영남루1길 16-11,35.4917461,128.7564311
무산사,경남 함안군,055-580-2573,"['경상권', '경상남도유형문화재', '관광지', '무산사', '역사', '역사공부', '역사관광']",https://cdn.visitkorea.or.kr/img/call?cmd=VIEW&id=d60fc51b-a5d7-4556-bf1d-2f73657968c9&thumb,경상남도 함안군 칠서면 무릉길 75,35.323814,128.515578
무지갯빛 해안도로,경남 사천시,055-831-2780,"['관광지', '남녀노소', '바다경치', '바다내음', '사천가볼만한곳', '산책코스', '산책하기좋은곳']",https://cdn.visitkorea.or.kr/img/call?cmd=VIEW&id=1122e856-afae-4693-9dbb-d599c7977d1b&thumb,경상남도 사천시 용현면,35.0134571,128.0613209
무지돌이마을,경남 고성군,055-674-0152,"['가족체험', '가족체험여행', '가족체험학습', '가족힐링', '관광지', '녹색농촌체험마을']",https://cdn.visitkorea.or.kr/img/call?cmd=VIEW&id=1a642443-ca78-4889-9214-b3437ebfa574&thumb,경상남도 고성군 개천면 나선길 81-9,35.1221612,128.3159283
무진정(함안),경남 함안군,055-580-2573,"['관광지', '역사', '역사공부', '역사관광지', '역사를품은곳', '역사문화재', '역사속']",https://cdn.visitkorea.or.kr/img/call?cmd=VIEW&id=7c762fa7-8a96-41e4-a601-cfca930c5c77&thumb,경상남도 함안군 함안면 괴산4길 25,35.2554072,128.4227806
무척산,경남 김해시,055-330-4431,"['관광지', '자연']",https://cdn.visitkorea.or.kr/img/call?cmd=VIEW&id=undefined&thumb,경상남도 김해시 생림면,35.3281565,128.8492455
무학산,경남 창원시,055-225-4453,"['경상권', '관광지', '등산', '무학산', '자연', '전망좋은곳', '트레킹']",https://cdn.visitkorea.or.kr/img/call?cmd=VIEW&id=59286206-f763-44a0-99ac-8ff6701edb5b&thumb,경상남도 창원시 마산합포구 교방동7길 3,35.2135726,128.5673274
문수암 (산청),경남 산청군,055-973-5820,"['경상권', '관광지', '문수암', '사찰', '역사', '역사공부', '역사관광지', '역사를품은곳']",https://cdn.visitkorea.or.kr/img/call?cmd=VIEW&id=6275d541-2f92-46d9-967d-8eb92847bcf6&thumb,경상남도 산청군 시천면 마근담길 173-17,35.2883102,127.8538362
문수암(고성),경남 고성군,055-672-8078,"['경상권', '관광지', '문수암', '불교', '불교문화', '불교사찰', '사찰', '사찰여행']",https://cdn.visitkorea.or.kr/img/call?cmd=VIEW&id=124a11d5-f119-4c82-a18f-1e72af0fe8e2&thumb,경상남도 고성군 상리면 무선2길 808,34.9789195,128.21149
물계서원,경남 창녕군,055-530-1473,"['경상권', '경상남도문화재자료', '관광지', '물계서원', '역사', '역사공부', '역사관광지']",https://cdn.visitkorea.or.kr/img/call?cmd=VIEW&id=28a16bc4-3fac-486e-9a80-9eb2a017a535&thumb,경상남도 창녕군 대지면 모산1길 109-36,35.5655015,128.4686741
물계서원원정비,경남 창녕군,055-530-1473,"['경상권', '경상남도문화재자료', '관광지', '물계서원원정비', '역사', '역사공부']",https://cdn.visitkorea.or.kr/img/call?cmd=VIEW&id=9f45621a-4461-40db-9409-b3ad090a7c36&thumb,경상남도 창녕군 대지면 모산1길 109-36,35.5655015,128.4686741
물사랑교육농장,경남 진주시,055-758-1062,"['가족과함께', '관광지', '농사체험', '농장체험', '생태체험', '아이와함께', '이색체험']",https://cdn.visitkorea.or.kr/img/call?cmd=VIEW&id=e9729184-ef72-4896-91dc-5a7e00f37dff&thumb,경상남도 진주시 대평면 호반로 414-11,35.1615004,127.9905588
물안해수욕장,경남 거제시,055-639-6712,"['가족여행', '경상권', '관광지', '물안해수욕장', '바다풍경', '여름여행', '자연']",https://cdn.visitkorea.or.kr/img/call?cmd=VIEW&id=e3f36d8f-7239-4375-ad96-19ba8f04a895&thumb,경상남도 거제시 하청면 칠천로,34.9896781,128.6368115
미녀산(미녀봉),경남 거창군,055-9740-3420,"['경상권', '관광지', '미녀봉', '미녀산', '자연']",https://cdn.visitkorea.or.kr/img/call?cmd=VIEW&id=f9266a0c-4d6a-4dee-897e-88aa94f4e892&thumb,경남 거창군 가조면 기리2길,35.6819413,128.0251385
미래사(통영),경남 통영시,055-645-5324,"['경상권', '관광지', '미래사', '미륵산', '사찰', '산사', '역사', '역사유적지', '연중무휴']",https://cdn.visitkorea.or.kr/img/call?cmd=VIEW&id=675deee6-fb3a-4698-a9e5-7e7fab8a8474&thumb,경상남도 통영시 산양읍 미륵산길 192,34.8043395,128.4207563
미륵도,경남 통영시,055-650-4681,"['걷기길', '경상권', '관광지', '등산로', '미륵도', '바다풍경', '사찰', '산사', '섬여행']",https://cdn.visitkorea.or.kr/img/call?cmd=VIEW&id=d930100d-35b0-4fd4-beab-54382828dd94&thumb,경상남도 통영시 산양읍 원항1길 274,34.7948067,128.3725089
미륵도 관광특구,경남 통영시,055-648-9133,"['가족여행', '가족체험여행', '겨울방학가볼만한곳', '관광지', '미륵도관광특구']",https://cdn.visitkorea.or.kr/img/call?cmd=VIEW&id=d1bcdd5e-f999-4568-9e71-211cdfb56667&thumb,경상남도 통영시 도남동,34.8266933,128.4269384
미륵산(통영),경남 통영시,055-650-2570,"['경상권', '관광지', '남녀노소', '등산', '등산객', '등산로', '등산여행', '등산코스']",https://cdn.visitkorea.or.kr/img/call?cmd=VIEW&id=df66472c-418c-4618-987d-2af65226cfdb&thumb,경상남도 통영시 봉수돌샘길 115,34.8219905,128.4155191
미리미동국 (진장 문화예술 플랫폼),경남 밀양시,055-359-5788,"['가족과함께', '관광지', '남녀노소', '문화예술', '문화예술활동', '복합문화공간']",https://cdn.visitkorea.or.kr/img/call?cmd=VIEW&id=e3875728-e750-432c-baab-c3d4b2c96644&thumb,경상남도 밀양시 남천강변로3길 3-4,35.4908317,128.7494241
미숭산관광지,경남 합천군,055-930-4666,"['가족과함께', '관광지', '산책', '산책길', '산책로', '산책코스', '산책하기', '산책하기좋은곳']",https://cdn.visitkorea.or.kr/img/call?cmd=VIEW&id=d454b964-dab1-49d2-a4dc-a8ba99ffd24e&thumb,경상남도 합천군 야로면 미숭산로 343,35.7260205,128.1916739
미양서원,경남 김해시,055-338-1330,"['관광지', '역사', '역사공부', '역사관광지', '역사를품은곳', '역사문화재', '역사속']",https://cdn.visitkorea.or.kr/img/call?cmd=VIEW&id=null&thumb,경상남도 김해시 진영읍 진영로 430-16,35.2970773,128.7580282
미연서원,경남 의령군,055-570-2531,"['관광지', '역사']",https://cdn.visitkorea.or.kr/img/call?cmd=VIEW&id=undefined&thumb,경상남도 의령군 대의면 모의로 323,35.3841259,128.1482837
미조항,경남 남해군,1588-3415,"['관광지', '자연']",https://cdn.visitkorea.or.kr/img/call?cmd=VIEW&id=1242e9d8-3c1f-4a27-858c-b66dadeaa6ba&thumb,경상남도 남해군 미조면 미조리,34.7120127,128.0417335
미타암(양산),경남 양산시,055-365-4184,"['가족여행', '경상권', '관광지', '미타암', '불교', '불교문화', '사찰', '사찰여행']",https://cdn.visitkorea.or.kr/img/call?cmd=VIEW&id=null&thumb,경상남도 양산시 주진로 379-61,35.4061288,129.1282147
밀양 꽃새미마을,경남 밀양시,055-391-1518,"['가족과함께', '가족여행', '경상권', '관광지', '농촌전통테마마을', '밀양꽃새미마을']",https://cdn.visitkorea.or.kr/img/call?cmd=VIEW&id=808a0393-c765-4dd1-83eb-7ecbf0eda736&thumb,경상남도 밀양시 초동면 방동안길 22,35.4531671,128.7059171
밀양 얼음골,경남 밀양시,055-356-5640,"['가족여행', '경상권', '계곡', '관광지', '교육여행', '밀양얼음골', '아이와함께']",https://cdn.visitkorea.or.kr/img/call?cmd=VIEW&id=f82df448-b01d-45e0-8e91-68bd1220678b&thumb,경상남도 밀양시 산내면 산내로 1647,35.588945,128.9116521
밀양 영남루,경남 밀양시,055-356-1355,"['가족여행', '경상권', '관광지', '밀양영남루', '보물', '역사', '역사를품은곳', '역사속으로']",https://cdn.visitkorea.or.kr/img/call?cmd=VIEW&id=fa385655-e792-4c0d-8ad5-17242db9238d&thumb,경상남도 밀양시 중앙로 324,35.4919122,128.7552413
밀양 평리산대추정보화 마을,경남 밀양시,055-353-5244,"['가족여행', '경상권', '관광지', '밀양평리산대추마을', '체험']",https://cdn.visitkorea.or.kr/img/call?cmd=VIEW&id=7cb996f7-dd76-489c-8f07-3e65e443f144&thumb,경상남도 밀양시 단장면 고례4길 7-3,35.4995825,128.9268807
밀양댐 물 문화관,경남 밀양시,055-359-3213,"['경상권', '관광지', '물문화관', '밀양댐', '밀양댐물문화관', '산업관광', '신재생에너지']",https://cdn.visitkorea.or.kr/img/call?cmd=VIEW&id=ac6bfa2d-6c5e-4f81-988b-5a8de0d18939&thumb,경상남도 밀양시 단장면 고례2길 79-10,35.4852079,128.9302598
밀양아리랑 우주천문대,경남 밀양시,055-359-5855,"['가족과함께', '관광지', '교육프로그램', '남녀노소', '밀양가볼만한곳', '밀양아리랑']",https://cdn.visitkorea.or.kr/img/call?cmd=VIEW&id=49b28e18-9917-452a-becf-f637465cb06c&thumb,경상남도 밀양시 밀양대공원로 86,35.5023792,128.7605454
밀양한천 테마파크,경남 밀양시,1577-6526,"['가족과함께', '가족체험', '관광지', '교육여행', '교육체험', '남녀노소', '밀양가볼만한곳']",https://cdn.visitkorea.or.kr/img/call?cmd=VIEW&id=3ff33f2d-9e69-45fe-839e-20c00bfd4ab0&thumb,경상남도 밀양시 산내면 봉의로 58-31,35.5916954,128.8809339
밀양향교,경남 밀양시,055-359-5788,"['관광지', '역사', '역사공부', '역사관광지', '역사를품은곳', '역사문화', '역사속']",https://cdn.visitkorea.or.kr/img/call?cmd=VIEW&id=4a3ea3ba-3a10-4675-9f6a-1c329420b063&thumb,경상남도 밀양시 밀양향교3길 19,35.5063131,128.7546937
바람의 언덕,경남 거제시,055-639-4178,"['17_18한국관광100선', '19_20한국관광100선', '거제바람의언덕', '경남']",https://cdn.visitkorea.or.kr/img/call?cmd=VIEW&id=3536738e-f36a-48f2-b6fd-4f9bd7ecf119&thumb,경상남도 거제시 남부면 도장포마을,34.7406543,128.6623308
박경리 생가,경남 통영시,055-650-4514,"['경상권', '관광지', '박경리생가', '생가', '역사', '역사공부', '역사관광지', '역사를품은곳']",https://cdn.visitkorea.or.kr/img/call?cmd=VIEW&id=0a573ca2-fdc3-4645-ae4c-baea5540c5f1&thumb,경상남도 통영시 충렬1길 76-38,34.8465931,128.4201402
반곡서원(거제),경남 거제시,055-639-3402,"['가족여행', '경상권', '관광지', '반곡서원', '역사', '역사공부', '역사관광지', '역사를품은곳']",https://cdn.visitkorea.or.kr/img/call?cmd=VIEW&id=c7310e4b-5890-4806-9ab6-acadc8197b2a&thumb,경상남도 거제시 거제면 동상3길 31-8,34.852181,128.595924
반구헌,경남 거창군,055-940-3431,"['경상권', '경상남도문화재자료', '관광지', '반구헌', '역사', '역사공부', '역사관광지']",https://cdn.visitkorea.or.kr/img/call?cmd=VIEW&id=432f6120-b4cc-40cd-8452-383c4cc8fa07&thumb,경상남도 거창군 위천면 강동1길 17,35.7552672,127.8290779
배내골,경남 양산시,055-382-4112,"['관광지', '자연']",https://cdn.visitkorea.or.kr/img/call?cmd=VIEW&id=7f11a7f3-dab5-4263-b221-607c9870bf4d&thumb,경상남도 양산시 원동면 대리,35.4526447,128.979813
배내골장선휴마을,경남 양산시,055-363-9549,"['관광지', '농촌체험', '농촌체험마을', '농촌체험학습', '아이와함께', '체험', '팜스테이마을']",https://cdn.visitkorea.or.kr/img/call?cmd=VIEW&id=70919b7a-b48f-46c0-8b98-6e2bccb5b636&thumb,경상남도 양산시 원동면 장선2길 30,35.5014455,128.996327
배산서원,경남 산청군,055-970-6413,"['경상권', '경상남도문화재자료', '관광지', '배산서원', '역사', '역사공부', '역사관광지']",https://cdn.visitkorea.or.kr/img/call?cmd=VIEW&id=433d38ad-28b5-42ac-8803-4dccfbd74e0b&thumb,경상남도 산청군 단성면 배양길 16,35.293242,127.9561545
백련리도요지,경남 하동군,055-880-2370,"['경상권', '경상남도기념물', '관광지', '백련리도요지', '역사', '역사관광지', '역사를품은곳']",https://cdn.visitkorea.or.kr/img/call?cmd=VIEW&id=3ba37cf2-360f-455d-b070-dbe030a2feb1&thumb,경상남도 하동군 진교면 사기아름길 80,35.0358922,127.8874368
백련암(의령),경남 의령군,055-574-0026,"['관광지', '불교', '불교문화', '사찰', '사찰여행', '역사', '자연속으로', '자연환경']",https://cdn.visitkorea.or.kr/img/call?cmd=VIEW&id=null&thumb,경상남도 의령군 가례면 자굴산로 1150-142,35.3770205,128.2156801
백련암(합천),경남 합천군,055-932-7300,"['경치좋은곳', '관광지', '불교문화', '사찰여행', '역사', '원불교', '자연속으로']",https://cdn.visitkorea.or.kr/img/call?cmd=VIEW&id=undefined&thumb,경상남도 합천군 가야면 해인사길 118-116,35.7985145,128.1061133
백산 안희제 생가,경남 의령군,055-570-2531,"['관광지', '역사', '역사공부', '역사관광지', '역사를품은곳', '역사문화', '역사문화재']",https://cdn.visitkorea.or.kr/img/call?cmd=VIEW&id=ec29d296-2404-408a-b076-3c99b8b81139&thumb,경상남도 의령군 부림면 입산로2길 37,35.4542392,128.3501172
백운동계곡(산청),경남 산청군,055-970-6421,"['경상권', '계곡', '관광지', '산청백운동계곡', '자연', '피서']",https://cdn.visitkorea.or.kr/img/call?cmd=VIEW&id=b760dd1d-206c-43ff-a354-e2f4cf863c7d&thumb,경상남도 산청군 단성면 백운로51번길,35.2870219,127.8876121
백운암(김해),경남 김해시,055-337-9487,"['관광지', '역사']",https://cdn.visitkorea.or.kr/img/call?cmd=VIEW&id=null&thumb,경상남도 김해시 상동면 여차로471번안길 16-133,35.3478298,128.8740889
백월산,경남 창원시,055-225-4453,"['경상권', '관광지', '백월산', '자연', '전망좋은곳', '트레킹']",https://cdn.visitkorea.or.kr/img/call?cmd=VIEW&id=891f95e6-6e0a-488f-ae05-0458bf9727af&thumb,경상남도 창원시 의창구 북면 마산길72번길,35.3379068,128.6260536
백천사(사천),경남 사천시,055-834-4010,"['경상권', '관광지', '나홀로여행', '백천사(사천)', '불교', '불교문화', '사찰', '산사']",https://cdn.visitkorea.or.kr/img/call?cmd=VIEW&id=null&thumb,경상남도 사천시 백천길 326-2,34.9956571,128.0925564
법기수원지,경남 양산시,055-383-5379,"['가족여행', '경상권', '경치좋은곳', '관광지', '법기수원지', '산림욕', '자연']",https://cdn.visitkorea.or.kr/img/call?cmd=VIEW&id=96244700-df34-4bcb-b427-14f777109702&thumb,경상남도 양산시 동면 법기로 198-13,35.3479724,129.1063301
법화암(창녕),경남 창녕군,055-536-2403,"['관광지', '불교', '불교문화', '사찰', '사찰여행', '역사', '자연속으로', '자연환경']",https://cdn.visitkorea.or.kr/img/call?cmd=VIEW&id=undefined&thumb,경상남도 창녕군 영산면 적지길 184,35.4746007,128.5480348
법흥사(남해),경남 남해군,055-864-3243,"['관광지', '불교', '불교문화', '사찰', '사찰여행', '역사', '자연속으로', '자연환경']",https://cdn.visitkorea.or.kr/img/call?cmd=VIEW&id=500fd4aa-bff8-4bef-8b96-e19fa1e0394e&thumb,경상남도 남해군 남해읍 망운로10번길 45-10,34.8426341,127.8916752
벽계(찰비)계곡,경남 의령군,055-570-4958,"['경상권', '경치좋은곳', '관광지', '민물낚시', '벽계계곡', '야영', '자연', '자연좋은곳']",https://cdn.visitkorea.or.kr/img/call?cmd=VIEW&id=undefined&thumb,경상남도 의령군 궁류면 벽계로 201,35.4258537,128.2080639
벽방산,경남 통영시,055-650-2570,"['경상권', '관광지', '등산', '벽방산', '자연', '전망좋은곳', '트레킹']",https://cdn.visitkorea.or.kr/img/call?cmd=VIEW&id=baa0c56c-115e-4375-92a6-d5e062be4a43&thumb,경상남도 통영시 도산면 원산리,34.9379422,128.3697596
벽송사(지리산),경남 함양군,055-962-5661,"['경상권', '관광지', '벽송사', '불교', '불교문화', '불교사찰', '사찰', '사찰여행']",https://cdn.visitkorea.or.kr/img/call?cmd=VIEW&id=6aca8bca-65ea-455f-9fbb-734ecdefb8eb&thumb,경상남도 함양군 마천면 광점길 27-177,35.3941729,127.7037376
보림사(함양),경남 함양군,055-963-2471,"['관광지', '불교', '불교문화', '사찰', '사찰여행', '역사', '자연속으로', '자연환경']",https://cdn.visitkorea.or.kr/img/call?cmd=VIEW&id=3ec7babd-af57-43ab-81fd-f3d4de35282b&thumb,경상남도 함양군 함양읍 상림3길 32,35.5213657,127.7228448
보해산(금귀봉),경남 거창군,055-940-3420,"['경상권', '관광지', '금귀봉', '보해산', '자연']",https://cdn.visitkorea.or.kr/img/call?cmd=VIEW&id=6345d9fa-a77e-4b25-8983-f9e829ace6ee&thumb,경상남도 거창군 가북면 가북로,35.7673586,127.9837598
봉명산시립공원,경남 사천시,055-831-3425,"['관광지', '자연']",https://cdn.visitkorea.or.kr/img/call?cmd=VIEW&id=undefined&thumb,경상남도 사천시 곤명면 용산리,35.0901001,127.9243084
봉산서원(산청),경남 산청군,055-970-6413,"['경상권', '관광지', '봉산서원', '역사', '역사공부', '역사관광지', '역사를품은곳']",https://cdn.visitkorea.or.kr/img/call?cmd=VIEW&id=e07d383e-6568-47e8-8a34-409f98f33af1&thumb,경상남도 산청군 생비량면 지리산대로4119번길 37-20,35.3442271,128.0188237
봉암해수욕장,경남 통영시,055-650-2570,"['가족과함께', '경치좋은곳', '관광지', '바다경치', '아이와함께', '여름피서지']",https://cdn.visitkorea.or.kr/img/call?cmd=VIEW&id=d0bf691d-07bd-4366-a41c-45b157bbf513&thumb,경상남도 통영시 한산면 봉암2길 46-42,34.759132,128.5109506
봉평동지석묘,경남 통영시,055-650-4514,"['경상권', '경상남도기념물', '관광지', '봉평동지석묘', '역사', '역사공부', '역사관광지']",https://cdn.visitkorea.or.kr/img/call?cmd=VIEW&id=482dde57-9dd3-4ed2-91d7-b5c940bb6f0b&thumb,경상남도 통영시 해평6길 25,34.8328394,128.4172387
봉하마을,경남 김해시,1688-0523,"['가족과함께', '경상권', '관광지', '농촌', '농촌마을', '농촌여행', '농촌체험', '농촌체험마을']",https://cdn.visitkorea.or.kr/img/call?cmd=VIEW&id=2f923afb-ac57-405e-8bdc-4ee0e781ef59&thumb,경상남도 김해시 진영읍 봉하로 122-15,35.3131332,128.7711017
봉황교~비봉산 생태탐방로,경남 진주시,055-749-2114,"['걷기길', '걷기여행', '경상권', '관광지', '남강', '비봉산', '생태관광', '생태관광지']",https://cdn.visitkorea.or.kr/img/call?cmd=VIEW&id=10dcb17a-40f5-4af5-a028-16f431a80992&thumb,경상남도 진주시 옥봉동,35.1925629,128.0912885
봉황대(의령),경남 의령군,055-570-2510,"['가족여행', '경상권', '경치좋은곳', '관광지', '단풍여행', '봉황대', '사계절', '자연']",https://cdn.visitkorea.or.kr/img/call?cmd=VIEW&id=6b6395b1-2155-4057-90cb-4fc91e4187ae&thumb,경상남도 의령군 궁류면 평촌리 산 62,35.4352854,128.2412797
부곡온천 관광특구,경남 창녕군,055-530-1591,"['가족과함께', '경상권', '관광지', '부곡온천관광특구', '스파', '스포츠센터', '연인과함께']",https://cdn.visitkorea.or.kr/img/call?cmd=VIEW&id=e0a68c47-cbe7-403d-8a20-e76bae856a8c&thumb,경상남도 창녕군 부곡면 온천중앙로 77,35.4377592,128.5960399
부림시장 먹자골목,경남 창원시,055-240-3729,"['가족과함께', '관광지', '남녀노소', '맛집투어', '먹자골목', '부림시장', '숨은맛집']",https://cdn.visitkorea.or.kr/img/call?cmd=VIEW&id=87c679fe-49cf-42c4-a7bc-3f95be0fa377&thumb,경상남도 창원시 마산합포구 3·15대로 352,35.2058095,128.5734852
부은암(밀양),경남 밀양시,055-353-8032,"['관광지', '불교', '불교문화', '사찰', '사찰여행', '역사', '자연속으로', '자연환경']",https://cdn.visitkorea.or.kr/img/call?cmd=VIEW&id=e9554055-f135-4c45-a05a-4b2020cb6011&thumb,경상남도 밀양시 삼랑진읍 천태로 451-94,35.4110617,128.886726
부재산방,경남 창원시,055-271-0702,"['가족과함께', '경상권', '관광지', '부재산방', '자연', '자연여행', '자연좋은곳']",https://cdn.visitkorea.or.kr/img/call?cmd=VIEW&id=3900621b-4ecb-4d90-8098-61bc50c5eec7&thumb,경상남도 창원시 마산합포구 진전면 미천2길 148,35.1522756,128.4068818
북병산,경남 거제시,055-639-4178,"['관광지', '자연']",https://cdn.visitkorea.or.kr/img/call?cmd=VIEW&id=undefined&thumb,경상남도 거제시 동부면,34.8216154,128.6081379
불곡사(창원),경남 창원시,055-282-7402,"['관광지', '불교', '불교문화', '불교사찰', '사찰', '사찰여행', '역사', '자연속으로']",https://cdn.visitkorea.or.kr/img/call?cmd=VIEW&id=55f51497-73e2-45a8-8bcb-210689a66392&thumb,경상남도 창원시 성산구 대암로 55,35.2155154,128.7017865
불일폭포,경남 하동군,055-972-7771,"['경상권', '관광지', '불일폭포', '여름가볼만한곳', '여름여행', '자연', '자연관광지']",https://cdn.visitkorea.or.kr/img/call?cmd=VIEW&id=19a221c5-62d4-4d59-a50e-5e1b9543b2ce&thumb,경상남도 하동군 화개면 목압길,35.2368409,127.6451236
비진도,경남 통영시,055-650-4681,"['2020_휴가철찾아가고싶은_33섬', '경상권', '관광지', '비진도', '섬', '자연']",https://cdn.visitkorea.or.kr/img/call?cmd=VIEW&id=fae186ef-80dc-44da-b265-2dbc4dbb4694&thumb,경상남도 통영시 한산면,34.7671397,128.5077047
비진도해수욕장,경남 통영시,055-650-3600,"['경상권', '관광지', '바다', '비진도해수욕장', '여름피서지', '일몰', '일출', '자연']",https://cdn.visitkorea.or.kr/img/call?cmd=VIEW&id=71d37851-1b30-4cfa-88b5-a42310f5884d&thumb,경상남도 통영시 한산면 비진리,34.7104474,128.4586113
비토섬,경남 사천시,055-835-1023,"['경상권', '관광지', '비토섬', '생태관광', '섬', '자연']",https://cdn.visitkorea.or.kr/img/call?cmd=VIEW&id=b9e19ae4-6b20-40c6-93be-790605e96db8&thumb,경상남도 사천시 서포면 비토안길 104-16,34.9746532,127.9708285
비토섬 가는길,경남 사천시,055-211-4633,"['경상남도여행', '경치여행', '경치좋은곳', '관광지', '드라이브여행', '드라이브코스']",https://cdn.visitkorea.or.kr/img/call?cmd=VIEW&id=d071cf1f-5244-4967-b99c-79cfa77aa772&thumb,경상남도 사천시 용현면 종포길 242,35.0248565,128.0444065
빗돌배기마을(송등),경남 창원시,055-291-4829,"['가족과함께', '관광지', '농촌', '농촌마을', '농촌여행', '농촌체험', '농촌체험마을']",https://cdn.visitkorea.or.kr/img/call?cmd=VIEW&id=88d6cfd5-cfcf-468d-a62e-97be506355dc&thumb,경상남도 창원시 의창구 대산면 진산대로505번길 92,35.344369,128.7024677
사기아름마을,경남 하동군,055-882-4080,"['가족체험', '관광지', '도예', '도자기', '도자기공방', '도자기수강', '도자기체험']",https://cdn.visitkorea.or.kr/img/call?cmd=VIEW&id=a365e4c3-0294-460b-a3e1-d610e1572955&thumb,경상남도 하동군 진교면 사기아름길 92,35.0368724,127.886825
사량도,경남 통영시,055-650-4681,"['관광지', '자연']",https://cdn.visitkorea.or.kr/img/call?cmd=VIEW&id=5deb71b3-236d-472a-be1a-b2e8d942dcec&thumb,경상남도 통영시 사량면 진촌2길,34.8447433,128.2235467
사량도 지리산,경남 통영시,055-650-4681,"['경상권', '관광지', '등산', '사량도', '자연', '전망좋은곳', '지리산', '트레킹']",https://cdn.visitkorea.or.kr/img/call?cmd=VIEW&id=0432b034-2a17-4f0b-abe4-cc3caa367b66&thumb,경상남도 통영시 사량면 돈지리,34.8459346,128.1791091
사량도 칠현산,경남 통영시,055-650-2570,"['관광지', '자연']",https://cdn.visitkorea.or.kr/img/call?cmd=VIEW&id=null&thumb,경상남도 통영시 사량면 읍덕리,34.8312782,128.2276132
사명대사 생가지,경남 밀양시,055-359-5788,"['경상권', '관광지', '기념물', '사명대사생가지', '역사', '역사공부', '역사관광']",https://cdn.visitkorea.or.kr/img/call?cmd=VIEW&id=943ed9b4-c888-4e7c-a32f-b75d87ce5a79&thumb,경상남도 밀양시 무안면 사명대사생가로 642,35.4967626,128.6047056
사자평고산습지,경남 밀양시,055-356-1355,"['경치여행', '경치좋은곳', '관광지', '자연', '자연경관', '자연관광지', '자연속으로']",https://cdn.visitkorea.or.kr/img/call?cmd=VIEW&id=83613c3b-da6f-41cb-bce6-faf8e011335b&thumb,경상남도 밀양시 단장면,35.5152332,128.875983
사천 대포어촌체험마을,경남 사천시,055-834-4988,"['가족여행', '가족체험여행', '경상권', '관광지', '바다풍경', '사계절', '사천대포어촌체험마을']",https://cdn.visitkorea.or.kr/img/call?cmd=VIEW&id=74694d11-640a-4730-afc6-dc75a16660d8&thumb,경상남도 사천시 대포길 255,34.9903255,128.0404893
사천 바리안마을,경남 사천시,055-831-5080,"['가족여행', '경상권', '관광지', '농촌', '농촌전통테마마을', '농촌체험', '농촌체험마을']",https://cdn.visitkorea.or.kr/img/call?cmd=VIEW&id=c46b7265-0929-4f7f-9ab3-c6bf94449122&thumb,경상남도 사천시 사남면 우천길 47-12,35.0337502,128.1174188
사천 항공우주박물관,경남 사천시,055-851-6565,"['가족과함께', '경상권', '관광지', '교육여행', '박물관', '사천가볼만한곳', '사천항공우주박물관']",https://cdn.visitkorea.or.kr/img/call?cmd=VIEW&id=6ea26794-d0c1-4350-8def-232b1b40d505&thumb,경상남도 사천시 사남면 공단1로 78,35.0714409,128.0629129
사천 흥사리 매향비,경남 사천시,055-831-2717,"['경상권', '관광지', '교과서속여행', '매향비', '문화재', '역사', '역사공부', '역사관광지']",https://cdn.visitkorea.or.kr/img/call?cmd=VIEW&id=9d244924-ed94-46d4-aebb-1fd02faac0bd&thumb,경상남도 사천시 곤양면 흥사리,35.0985722,128.0062796
사천고읍단감마을,경남 사천시,055-852-7634,"['가족여행', '경상권', '고읍단감정보화농촌체험휴양마을(사천고읍단감마을)']",https://cdn.visitkorea.or.kr/img/call?cmd=VIEW&id=df5ff8d0-0586-4f78-b101-f8f43076a1a0&thumb,경상남도 사천시 정동면 고읍길 223,35.0674649,128.0978805
사천바다 케이블카,경남 사천시,055-831-7300,"['가족과함께', '감성사진', '경치좋은곳', '관광지', '바다풍경', '사진찍기좋은곳']",https://cdn.visitkorea.or.kr/img/call?cmd=VIEW&id=674411fd-77ff-461d-9bf7-4e67dc5d8b58&thumb,경상남도 사천시 사천대로 18,34.9337074,128.0535753
사천선진리왜성,경남 사천시,055-831-2716,"['가족여행', '관광지', '교과서속여행', '사천선진리왜성', '아이와함께', '역사']",https://cdn.visitkorea.or.kr/img/call?cmd=VIEW&id=ce1809e3-24f2-4ecc-8387-7d2345c0a127&thumb,경상남도 사천시 용현면 선진리,35.0445756,128.0515211
사천읍성,경남 사천시,055-831-2717,"['가족여행', '경상권', '경상남도기념물', '관광지', '사천읍성', '역사', '역사공부']",https://cdn.visitkorea.or.kr/img/call?cmd=VIEW&id=b142b66d-44eb-48cc-9009-031dd795a884&thumb,경상남도 사천시 사천읍 수양공원길 51,35.0834648,128.0940138
사천향교,경남 사천시,055-831-2717,"['경상권', '경상남도유형문화재', '관광지', '사천향교', '역사', '역사공부', '역사관광지']",https://cdn.visitkorea.or.kr/img/call?cmd=VIEW&id=e9cb9fb7-e7d7-43ab-97fd-98d6916613a9&thumb,경상남도 사천시 사천읍 사천향교로 25,35.0859359,128.100744
사촌해수욕장,경남 남해군,1588-3415,"['관광지', '자연']",https://cdn.visitkorea.or.kr/img/call?cmd=VIEW&id=aab1c029-3695-41e2-bd71-a5c06379f28c&thumb,경상남도 남해군 남면 남면로1229번길 44,34.7434097,127.8561239
사충단,경남 김해시,055-330-3934,"['가족여행', '경상권', '경상남도기념물', '관광지', '사충단', '역사', '역사공부']",https://cdn.visitkorea.or.kr/img/call?cmd=VIEW&id=3a95f7cf-4025-477a-bf41-792e7e76044e&thumb,경상남도 김해시 가야로405번안길 22-9,35.2445557,128.8863413
산방산(거제),경남 거제시,055-639-4178,"['거제산방산', '경상권', '관광지', '등산', '봄꽃여행', '자연', '트레킹']",https://cdn.visitkorea.or.kr/img/call?cmd=VIEW&id=a14942cd-0f9b-416e-99da-4647d24b2070&thumb,경상남도 거제시 둔덕면 산방리,34.8605542,128.5285575
산방산비원,경남 거제시,055-633-1221,"['경상권', '관광지', '산방산비원', '수목원', '연중무휴', '자연']",https://cdn.visitkorea.or.kr/img/call?cmd=VIEW&id=4e4bdccb-b90f-4d72-8fb0-0be1e5e4b3d6&thumb,경상남도 거제시 둔덕면 산방산길 153,34.8607971,128.5265944
산천재 남명매,경남 산청군,055-970-6442,"['경상권', '관광지', '산천재남명매', '식물', '풍경좋은곳']",https://cdn.visitkorea.or.kr/img/call?cmd=VIEW&id=94557d64-d9e9-44fd-9133-c23f837eb77b&thumb,경상남도 산청군 시천면 남명로 310-8,35.2741808,127.8489668
산청 단계마을 옛 담장,경남 산청군,055-970-6413,"['경상권', '관광지', '돌담길', '등록문화재', '산청단계마을', '역사', '역사공부']",https://cdn.visitkorea.or.kr/img/call?cmd=VIEW&id=a669784d-fc9e-427f-ba89-82cf42b78578&thumb,경상남도 산청군 신등면 신등가회로 53-9,35.3823191,128.0083431
산청 단속사지 동 삼층석탑,경남 산청군,055-970-6413,"['관광지', '역사', '역사공부', '역사관광', '역사관광지', '역사를품은곳', '역사문화재']",https://cdn.visitkorea.or.kr/img/call?cmd=VIEW&id=e70d5c7b-ab77-4555-8d7b-cee1096f51f3&thumb,경상남도 산청군 단성면 호암로673번길 12-1,35.3214155,127.899627
산청 동의보감촌,경남 산청군,055-970-7216,"['가족과함께', '가족체험학습', '건강여행', '관광지', '산책하기좋은곳', '산청동의보감촌']",https://cdn.visitkorea.or.kr/img/call?cmd=VIEW&id=9b7cd6ef-9e37-4597-b93a-80315d6ba709&thumb,경상남도 산청군 금서면 동의보감로555번길 45-6,35.4409635,127.8293066
산청 법계사 삼층석탑,경남 산청군,055-973-1450,"['관광지', '역사', '역사공부', '역사관광지', '역사를품은곳', '역사문화재', '역사속']",https://cdn.visitkorea.or.kr/img/call?cmd=VIEW&id=475f873d-8a72-42a2-9fd5-922f9706e386&thumb,경상남도 산청군 시천면 지리산대로 320-292,35.2888009,127.7739882
산청 이사재,경남 산청군,055-970-6441,"['가족과함께', '관광지', '산청이사재', '아이와함께', '역사체험']",https://cdn.visitkorea.or.kr/img/call?cmd=VIEW&id=9117cd83-4089-4a4d-9b17-b803253cd53e&thumb,경상남도 산청군 단성면 상동길 77,35.2764346,127.9350109
산청 전 구형왕릉,경남 산청군,055-970-6411,"['경상권', '관광지', '사적', '산청전구형왕릉', '역사', '역사유적지']",https://cdn.visitkorea.or.kr/img/call?cmd=VIEW&id=03b76a54-e084-4231-8fab-a91b78c8a42c&thumb,경남 산청군 금서면 구형왕릉로,35.452991,127.7995579
산청 조식 유적,경남 산청군,055-970-6413,"['관광지', '역사', '역사공부', '역사관광지', '역사를품은곳', '역사문화재', '역사속']",https://cdn.visitkorea.or.kr/img/call?cmd=VIEW&id=dbc35baa-e075-4ac7-ac25-f43a8ede3eea&thumb,경상남도 산청군 시천면 사리,35.291072,127.8558732
산청·함양사건 추모공원,경남 산청군,055-970-6183,"['가족여행', '경상권', '관광지', '교과서속여행', '산청·함양사건추모공원', '아이와함께']",https://cdn.visitkorea.or.kr/img/call?cmd=VIEW&id=b0269b7e-362e-4d3c-ba38-e71d9404f871&thumb,경상남도 산청군 금서면 화계오봉로 530,35.4270334,127.7786187
산청향교,경남 산청군,055-970-6413,"['관광지', '역사', '역사공부', '역사관광지', '역사를품은곳', '역사문화재', '역사속']",https://cdn.visitkorea.or.kr/img/call?cmd=VIEW&id=e2149bf4-19e4-40b6-b9a0-3bc757e10899&thumb,경상남도 산청군 산청읍 중앙로59번길 20-5,35.4165709,127.8809781
산호공원,경남 창원시,055-225-6992,"['관광지', '남녀노소', '산책길', '산책하기', '산책하기좋은곳', '산호공원', '왜성']",https://cdn.visitkorea.or.kr/img/call?cmd=VIEW&id=782c9797-ef66-493c-a1e0-53e8935ce2d3&thumb,경상남도 창원시 마산합포구 용마산길 142,35.2129212,128.5841315
산호공원(용마공원) 시(詩)의 거리,경남 창원시,055-225-6992,"['가족여행', '걷기길', '경상권', '관광지', '산책길', '산책하기', '산책하기좋은곳']",https://cdn.visitkorea.or.kr/img/call?cmd=VIEW&id=7094153c-e8ed-476c-8907-2adcf12cd9b1&thumb,경상남도 창원시 마산합포구 산호동,35.216041,128.5859644
삼가향교,경남 합천군,055-930-3178,"['경상권', '경상남도유형문화재', '관광지', '삼가향교', '역사', '역사공부', '역사관광지']",https://cdn.visitkorea.or.kr/img/call?cmd=VIEW&id=124b9376-4752-4b32-b592-77e27c35b2c5&thumb,경상남도 합천군 삼가면 소오2길 18-5,35.4080839,128.1174351
삼강서원,경남 밀양시,055-359-5637,"['관광지', '역사', '역사공부', '역사관광지', '역사를품은곳', '역사문화재', '역사속']",https://cdn.visitkorea.or.kr/img/call?cmd=VIEW&id=8f232e9d-154c-4cd2-8757-4df0976fd5c9&thumb,경상남도 밀양시 삼랑진읍 삼랑1길 32-9,35.3831311,128.8179713
삼거동 청사초롱 체험마을,경남 거제시,055-637-7475,"['가족과함께', '가족여행', '가족체험', '경상권', '관광지', '농촌마을', '농촌체험']",https://cdn.visitkorea.or.kr/img/call?cmd=VIEW&id=bd1777c4-cb20-4519-94c9-4181b13e4bf8&thumb,경상남도 거제시 거제중앙로 1274,34.8430192,128.6481465
삼계마을,경남 고성군,055-670-6251,"['가족체험', '관광지', '농촌', '농촌', '농촌체험', '농촌체험마을', '농촌체험여행']",https://cdn.visitkorea.or.kr/img/call?cmd=VIEW&id=ad2b81f8-2736-41e4-a8e6-545748e6e171&thumb,경상남도 고성군 대가면 유흥3길 51-6,35.0163502,128.2955411
삼귀해안,경남 창원시,055-225-3701,"['경상권', '경치좋은곳', '관광지', '드라이브여행', '바다낚시', '바다풍경', '삼귀해안']",https://cdn.visitkorea.or.kr/img/call?cmd=VIEW&id=f4560e4e-28e7-45cf-9da0-7f2e6f598c31&thumb,경상남도 창원시 성산구 삼귀로 263,35.1638013,128.6005131
삼봉산,경남 거창군,055-940-3420,"['경상권', '관광지', '금봉암', '삼봉산', '자연']",https://cdn.visitkorea.or.kr/img/call?cmd=VIEW&id=3e88ab1e-5947-482d-ac1f-f5b2df77d97c&thumb,경남 거창군 고제면 봉계리,35.8870094,127.8717691
삼성궁,경남 하동군,055-884-1279,"['가족여행', '경치좋은곳', '관광지', '교과서속여행', '산책길', '산책하기', '산책하기좋은곳']",https://cdn.visitkorea.or.kr/img/call?cmd=VIEW&id=ac907e5d-e59f-4322-b6cf-6d1598e0feec&thumb,경상남도 하동군 청암면 삼성궁길 85,35.2402399,127.7011846
삼성암(창녕),경남 창녕군,055-521-0018,"['관광지', '불교', '불교문화', '사찰', '사찰여행', '역사', '자연속으로', '자연환경']",https://cdn.visitkorea.or.kr/img/call?cmd=VIEW&id=null&thumb,경상남도 창녕군 계성면 북암길 147,35.5029803,128.5402887
삼우당,경남 거창군,055-940-3431,"['경상권', '경상남도문화재자료', '관광지', '삼우당', '역사', '역사공부', '역사관광지']",https://cdn.visitkorea.or.kr/img/call?cmd=VIEW&id=9866dad9-9cf4-4ea3-acd1-7ee25ec70e81&thumb,경상남도 거창군 남하면 영서로 485,35.6354092,127.9650433
삼장사지삼층석탑,경남 산청군,055-970-6413,"['경상권', '경상남도유형문화재', '관광지', '삼장사지삼층석탑', '역사', '역사공부']",https://cdn.visitkorea.or.kr/img/call?cmd=VIEW&id=40b96e0a-9ada-48b9-a530-460f1856245e&thumb,경상남도 산청군 삼장면 평촌리,35.3410348,127.8077563
삼정자동마애불,경남 창원시,055-225-3673,"['경상권', '경상남도유형문화재', '관광지', '삼정자동마애불', '역사', '역사공부']",https://cdn.visitkorea.or.kr/img/call?cmd=VIEW&id=80bb9934-f2b2-4bf9-b747-c8d8be94789b&thumb,경상남도 창원시 성산구 삼정자로 79,35.2015533,128.7141634
삼천포대교공원,경남 사천시,055-831-2415,"['가족과함께', '경치좋은곳', '관광지', '드라이브', '산책코스', '산책하기좋은곳']",https://cdn.visitkorea.or.kr/img/call?cmd=VIEW&id=39a0f0e5-7891-4fcc-9d06-8cc3ae7dc22a&thumb,경상남도 사천시 사천대로 17,34.9324694,128.0521274
삼천포유람선,경남 사천시,055-835-0172,"['경상권', '관광지', '바다풍경', '삼천포유람선', '섬여행', '유람선', '자연좋은곳']",https://cdn.visitkorea.or.kr/img/call?cmd=VIEW&id=f6b1e6ce-e31d-4359-9889-3856fdb0078c&thumb,경상남도 사천시 유람선길 70,34.9281867,128.063112
삼천포항,경남 사천시,055-835-1023,"['관광지', '자연']",https://cdn.visitkorea.or.kr/img/call?cmd=VIEW&id=5992be62-4b0b-4d91-b49b-02f744f5984d&thumb,경상남도 사천시 어시장길 34-4,34.9265424,128.0696781
삼칭이길,경남 통영시,055-648-9133,"['걷기길', '경치좋은곳', '관광지', '남녀노소', '바다경치', '바다내음', '바다향기']",https://cdn.visitkorea.or.kr/img/call?cmd=VIEW&id=96149b01-25fc-4edf-b910-955cd86d9537&thumb,경상남도 통영시 산양읍 영운리,34.8121363,128.4268137
상동 빈지소,경남 밀양시,055-356-1344,"['가을경치', '경치좋은곳', '관광지', '남녀노소', '밀양강', '산책길', '산책하기']",https://cdn.visitkorea.or.kr/img/call?cmd=VIEW&id=5e623c28-eb28-43d7-a787-12095054c541&thumb,경상남도 밀양시 상동면 안인리,35.536534,128.7563338
상림공원,경남 함양군,055-960-5756,"['가족여행', '걷기길', '경상권', '관광지', '나들이', '사계절', '산책길', '산책하기']",https://cdn.visitkorea.or.kr/img/call?cmd=VIEW&id=c87474f0-bfa3-4625-879c-734eab918e0f&thumb,경상남도 함양군 함양읍 필봉산길 49,35.523709,127.7219359
상봉서원,경남 함안군,055-580-2573,"['관광지', '역사', '역사공부', '역사관광지', '역사를품은곳', '역사문화재', '역사속']",https://cdn.visitkorea.or.kr/img/call?cmd=VIEW&id=undefined&thumb,경상남도 함안군 칠원읍 유원1길 32,35.3,128.516667
상상길(창원),경남 창원시,055-289-8815,"['관광지', '남녀노소', '문화공간', '쇼핑거리', '열린문화공간', '이색거리', '창원가볼만한곳']",https://cdn.visitkorea.or.kr/img/call?cmd=VIEW&id=3d81d557-289b-4dd9-8001-5f3e24d4d0d5&thumb,경상남도 창원시 마산합포구,35.1969107,128.5678853
상상양떼목장 편백숲,경남 남해군,055-862-5300,"['가족과함께', '경치좋은곳', '관광지', '산책하기좋은곳', '아이와함께', '양떼목장']",https://cdn.visitkorea.or.kr/img/call?cmd=VIEW&id=0a6180f5-e32f-428c-a31a-72dee3fee0f7&thumb,경상남도 남해군 설천면 설천로775번길 37-9,34.929141,127.909364
상연대(함양),경남 함양군,055-962-8585,"['관광지', '불교', '불교문화', '사찰', '사찰여행', '역사', '자연속으로', '자연환경']",https://cdn.visitkorea.or.kr/img/call?cmd=VIEW&id=null&thumb,경상남도 함양군 백전면 백운산길 3-291,35.608237,127.6383458
상정 비봉내마을,경남 사천시,055-854-5111,"['가족여행', '경상권', '관광지', '녹색농촌체험마을', '농사체험', '다솔사탐방']",https://cdn.visitkorea.or.kr/img/call?cmd=VIEW&id=2815c526-2094-456c-a372-da2b7a3f3f70&thumb,경상남도 사천시 곤양면 상정마을길 139,35.0710868,127.9584578
상족암 유람선,경남 고성군,055-832-0552,"['가족여행', '경상권', '관광지', '교과서속여행', '상족암유람선', '아이와함께']",https://cdn.visitkorea.or.kr/img/call?cmd=VIEW&id=null&thumb,경상남도 고성군 하이면 덕명4길 39-53,34.9056055,128.1468132
상족암군립공원,경남 고성군,055-670-4461,"['가족여행', '관광지', '바다풍경', '상족암군립공원', '아이와함께', '연인과함께']",https://cdn.visitkorea.or.kr/img/call?cmd=VIEW&id=e7e5f396-c419-41d4-8b3a-003af784de88&thumb,경상남도 고성군 하이면 덕명5길 42-23,34.9098324,128.1541637
상주은모래비치,경남 남해군,055-863-3573,"['가족여행', '관광지', '바다풍경', '상주은모래비치', '아이와함께', '여름방학가볼만한곳']",https://cdn.visitkorea.or.kr/img/call?cmd=VIEW&id=1994e5e2-106d-479f-814f-6dc5ba8c7273&thumb,경상남도 남해군 상주면 상주로 10-3,34.7223934,127.987506
새미골가마,경남 하동군,1588-3186,"['경상권', '관광지', '도자기공방', '도자기체험', '새미골가마', '역사', '이색체험']",https://cdn.visitkorea.or.kr/img/call?cmd=VIEW&id=00d3e236-df47-4805-a50a-c77c8e555129&thumb,경상남도 하동군 진교면 사기아름길 80,35.0358922,127.8874368
생초국제조각공원,경남 산청군,055-970-7221,"['가족과함께', '경상권', '경치좋은곳', '관광지', '문화예술', '산책하기좋은곳']",https://cdn.visitkorea.or.kr/img/call?cmd=VIEW&id=ce0f34b1-be25-4b54-b95c-2198c1e6d8c4&thumb,경상남도 산청군 생초면 산수로 1064,35.4914462,127.8312211
생초면 대포마을,경남 산청군,055-970-8159,"['가족체험', '관광지', '농촌', '농촌체험', '농촌체험마을', '농촌체험여행', '농촌체험학습']",https://cdn.visitkorea.or.kr/img/call?cmd=VIEW&id=eb0da7d7-01a3-43d9-8995-b521cb28b7c1&thumb,경상남도 산청군 생초면 명지대포로236번길 167-6,35.461974,127.8544802
서간소루,경남 거창군,055-940-3431,"['경남문화재자료', '경상권', '관광지', '서간소루', '역사', '역사공부', '역사관광지']",https://cdn.visitkorea.or.kr/img/call?cmd=VIEW&id=7bb4a955-557c-4f12-901a-30b3a43c33f2&thumb,경상남도 거창군 북상면 샘골길 6,35.7803329,127.8187274
서계서원,경남 산청군,055-970-6413,"['관광지', '역사', '역사공부', '역사관광', '역사관광지', '역사를품은곳', '역사문화재']",https://cdn.visitkorea.or.kr/img/call?cmd=VIEW&id=1c4ba08d-5b07-44a9-91b1-e34566a48a9b&thumb,경상남도 산청군 산청읍 덕우지길 51,35.4168195,127.8854528
서산서원,경남 함안군,055-580-2573,"['경상권', '관광지', '서산서원', '역사', '역사공부', '역사관광지', '역사를품은곳']",https://cdn.visitkorea.or.kr/img/call?cmd=VIEW&id=0bd0eb50-ac9b-4c42-a17e-91400f547539&thumb,경상남도 함안군 군북면 사군로 1235,35.2362771,128.3247685
서암정사(함양),경남 함양군,055-962-5662,"['경상권', '관광지', '불교', '불교문화', '불교사찰', '사찰', '사찰여행', '역사', '자연환경']",https://cdn.visitkorea.or.kr/img/call?cmd=VIEW&id=b19172bd-9233-4dfe-828f-92b9f8cf8432&thumb,경상남도 함양군 마천면 광점길 27-79,35.3936186,127.6975839
서울우유 거창공장,경남 거창군,055-940-1234,"['견학', '경상권', '관광지', '산업관광', '서울우유', '서울우유거창공장', '이색체험']",https://cdn.visitkorea.or.kr/img/call?cmd=VIEW&id=4bf13869-c159-4b1c-afb3-f9a30c8b247a&thumb,경상남도 거창군 거창읍 거함대로 3372-71,35.6693079,127.9257203
서원곡유원지,경남 창원시,055-289-8815,"['가족과함께', '계곡물', '관광지', '무학산', '유원지', '은행나무', '자연여행', '자연풍경']",https://cdn.visitkorea.or.kr/img/call?cmd=VIEW&id=fd421725-7c67-47b2-9f6c-fc1c97acfc05&thumb,경상남도 창원시 마산합포구 교방동,35.2143469,128.5662433
서이말 등대,경남 거제시,055-681-1607,"['관광지', '자연']",https://cdn.visitkorea.or.kr/img/call?cmd=VIEW&id=undefined&thumb,경상남도 거제시 일운면 서이말길 478,34.7875093,128.7376278
서진주 스파랜드,경남 진주시,055-744-8383,"['가족과함께', '관광지', '남녀노소', '목욕탕', '찜질방', '친구와함께', '휴식공간']",https://cdn.visitkorea.or.kr/img/call?cmd=VIEW&id=null&thumb,경상남도 진주시 명석면 진주대로 2320-31,35.2608942,127.9942664
서피랑 마을,경남 통영시,055-650-0580,"['99계단', '감성사진', '관광지', '벽화마을', '사진찍기', '사진찍기좋은곳', '사진촬영명소']",https://cdn.visitkorea.or.kr/img/call?cmd=VIEW&id=d6a3194e-5831-439c-8d07-a2243d1e9190&thumb,경상남도 통영시 서호동,34.8418019,128.4193853
석골사,경남 밀양시,055-352-6557,"['가족여행', '경상권', '관광지', '불교', '불교문화', '사찰', '사찰&산사', '사찰여행']",https://cdn.visitkorea.or.kr/img/call?cmd=VIEW&id=f1442ae2-af56-4fd1-86f7-de3cfbdf7443&thumb,경상남도 밀양시 산내면 원서3길 167,35.6158518,128.9274619
석불사(창녕),경남 창녕군,055-533-7930,"['관광지', '불교', '불교문화', '사찰', '사찰여행', '역사', '자연속으로', '자연환경']",https://cdn.visitkorea.or.kr/img/call?cmd=VIEW&id=null&thumb,경상남도 창녕군 창녕읍 화왕산로 135-71,35.534013,128.5117079
선유동계곡(산청),경남 산청군,055-970-6421,"['관광지', '자연']",https://cdn.visitkorea.or.kr/img/call?cmd=VIEW&id=8290e717-f2b7-40df-b664-4231f4d25f62&thumb,경남 산청군 신안면 수월로,35.3442205,127.9595899
선진공원,경남 사천시,,"['가족여행', '걷기여행', '경상권', '관광지', '꽃여행', '데이트코스', '봄꽃여행']",https://cdn.visitkorea.or.kr/img/call?cmd=VIEW&id=afdbc83b-0eb2-4d47-b0a8-184b9c245bac&thumb,경상남도 사천시 용현면 선진리,35.0445756,128.0515211
선진마을,경남 사천시,055-831-3110,"['관광지', '자연']",https://cdn.visitkorea.or.kr/img/call?cmd=VIEW&id=6b4fc1c5-7189-47e5-8b58-2c6fce6c4391&thumb,경남 사천시 용현면,35.0134571,128.0613209
선학산전망대,경남 진주시,055-749-5561,"['감성사진', '경치좋은곳', '관광지', '문화공간', '사진여행', '사진찍기', '사진찍기좋은곳']",https://cdn.visitkorea.or.kr/img/call?cmd=VIEW&id=503f4e32-7ee4-425e-9136-9904258ae42e&thumb,경상남도 진주시 남강로 751-51,35.1784006,128.0974023
설리 해수욕장,경남 남해군,055-862-9405,"['가족여행', '경상권', '관광지', '나들이', '데이트코스', '바다풍경', '설리해수욕장']",https://cdn.visitkorea.or.kr/img/call?cmd=VIEW&id=c9fd6dfe-3c39-486a-8cab-9daf9e914f42&thumb,경상남도 남해군 미조면 미송로303번길 70,34.7055783,128.0255421
설천 남해해안도로,경남 남해군,055-211-4633,"['가족과함께', '경상남도여행', '경치여행', '경치좋은곳', '관광지', '드라이브여행']",https://cdn.visitkorea.or.kr/img/call?cmd=VIEW&id=78564567-3b0a-439e-9f8a-fa7d2466de93&thumb,경상남도 남해군 설천면,34.924864,127.9140299
설흘산,경남 남해군,055-860-8601,"['경상권', '관광지', '등산', '설흘산', '일출명소', '일출일몰명소', '자연', '전망좋은곳']",https://cdn.visitkorea.or.kr/img/call?cmd=VIEW&id=29c355b5-07a6-4629-80c0-fadfa5452616&thumb,경상남도 남해군 남면 남면로,34.7531384,127.8709028
섬이정원,경남 남해군,010-2255-3577,"['SNS감성사진', '가족과함께', '감성사진', '경치좋은곳', '관광지', '사진찍기좋은곳']",https://cdn.visitkorea.or.kr/img/call?cmd=VIEW&id=7e9d216c-bfba-4b58-bd37-e6acf5991374&thumb,경상남도 남해군 남면 남면로 1534-110,34.7522217,127.860672
성덕암(창원),경남 창원시,055-246-4259,"['관광지', '불교', '불교문화', '사찰', '사찰여행', '역사', '자연속으로', '자연환경']",https://cdn.visitkorea.or.kr/img/call?cmd=VIEW&id=null&thumb,경상남도 창원시 마산합포구 성호서7길 46,35.2073044,128.5688203
성전암(진주),경남 진주시,055-754-7056,"['관광지', '불교', '불교문화', '사찰', '사찰여행', '역사', '자연속으로', '자연환경']",https://cdn.visitkorea.or.kr/img/call?cmd=VIEW&id=6fe9ca0e-1fb2-4131-b606-37cff65e86ec&thumb,경상남도 진주시 이반성면 장안로65번길 291,35.2075377,128.351904
성조암(김해),경남 김해시,055-336-6433,"['관광지', '불교', '불교문화', '사찰', '사찰여행', '역사', '자연속으로', '자연환경']",https://cdn.visitkorea.or.kr/img/call?cmd=VIEW&id=null&thumb,경상남도 김해시 활천로 121-57,35.2384169,128.8942256
성주사(창원),경남 창원시,055-262-0108,"['가족여행', '관광지', '사찰&산사', '성주사', '아이와함께', '역사', '역사유적지']",https://cdn.visitkorea.or.kr/img/call?cmd=VIEW&id=2a987bba-feaf-4910-8710-bed303833db0&thumb,경상남도 창원시 성산구 곰절길 191,35.176138,128.7175074
성천서원,경남 거창군,055-940-3431,"['관광지', '역사', '역사공부', '역사관광지', '역사를품은곳', '역사문화재', '역사속']",https://cdn.visitkorea.or.kr/img/call?cmd=VIEW&id=undefined&thumb,경상남도 거창군 북상면 계수나무길 18-47,35.7627996,127.7386767
성철대종사생가(겁외사),경남 산청군,055-970-6413,"['겁외사', '경상권', '관광지', '불교', '불교문화', '사찰', '산사', '성철대종사생가']",https://cdn.visitkorea.or.kr/img/call?cmd=VIEW&id=018a44c2-4255-4062-afed-ac7d7d777ef8&thumb,경상남도 산청군 단성면 성철로 125,35.279455,127.9681452
성흥사 계곡,경남 창원시,055-225-3701,"['경상권', '관광지', '성흥사계곡', '여름여행', '자연', '자연&숲', '피서여행', '힐링']",https://cdn.visitkorea.or.kr/img/call?cmd=VIEW&id=9cc65397-3b54-4ba9-aad5-b319b68a9a99&thumb,경상남도 창원시 진해구 대장로 273,35.1479091,128.7794249
