name,region,address,lat,lon
LH 토지주택박물관,경남 진주시,경상남도 진주시 충의로 19,35.1785185,128.1463982
가고파 꼬부랑길 벽화마을,경남 창원시,경상남도 창원시 마산합포구 성호서7길 15-8,35.2077494,128.5696471
가라산,경남 거제시,경상남도 거제시 남부면 다대리,34.7468501,128.6297621
가뫼골마을,경남 진주시,경상남도 진주시 명석면 관덕길 174,35.2586428,128.0324095
가배량성,경남 거제시,경상남도 거제시 동부면 가배리,34.772718,128.5596687
가선정,경남 거창군,경상남도 거창군 북상면 송계로 731-42,35.7790316,127.8159141
가섭암지 마애여래삼존입상,경남 거창군,경상남도 거창군 위천면 상천리,35.7303489,127.7929043
가야산 소리길,경남 합천군,경상남도 합천군 가야면 가야산로 1783,35.7911008,128.0908755
가야산국립공원,경남 합천군,경상남도 합천군 가야면 가야산로 1200,35.7678166,128.1324164
"가야산국립공원(홍류동,청량동지구)",경남 합천군,경상남도 합천군 가야면 가야산로 1200,35.7678166,128.1324164
가야의 거리,경남 김해시,경상남도 김해시 봉황동,35.2287539,128.876911
가야진사,경남 양산시,경상남도 양산시 원동면 용당들길 43-62,35.3677289,128.9023566
가조 백두산천지온천,경남 거창군,경상남도 거창군 가조면 온천길 161,35.6984525,128.0229597
가지산도립공원(밀양),경남 밀양시,경상남도 밀양시 산내면 삼양리,35.5962414,128.9811468
가천 다랭이마을,경남 남해군,경남 남해군 남면 홍현리 남면로 679번길 21,34.7275136,127.8940684
가호서원,경남 진주시,경상남도 진주시 이반성면 용암길 59-2,35.1667272,128.3325054
각사산촌행태체험마을,경남 합천군,경상남도 합천군 가야면 야천로 101,35.7723585,128.1398093
각산,경남 사천시,경상남도 사천시 수도골안길 24,34.9395168,128.075028
갈계리삼층석탑,경남 거창군,경상남도 거창군 북상면 갈계리,35.7935113,127.8149498
갈계숲,경남 거창군,경상남도 거창군 북상면 묵계길 44-4,35.7817366,127.8183204
갈모봉 산림욕장,경남 고성군,경상남도 고성군 고성읍 이당리,34.9781602,128.2727529
갈천서당,경남 거창군,경상남도 거창군 북상면 송계로 767-34,35.7807533,127.815992
갈천서원,경남 고성군,경상남도 고성군 대가면 갈천로 620,35.047851,128.2509376
감악산(거창),경남 거창군,경상남도 거창군 남상면 무촌리,35.6335662,127.9103388
감암산,경남 합천군,경상남도 합천군 가회면 대기2길,35.462849,127.9984328
강구안,경남 통영시,경상남도 통영시 중앙동,34.8465818,128.4269332
강양향교,경남 합천군,경상남도 합천군 합천읍 충효로1길 5-14,35.563531,128.1613073
강주연못,경남 진주시,경상남도 진주시 정촌면 예하리,35.1205292,128.1002615
개평한옥마을,경남 함양군,경상남도 함양군 지곡면 개평길 59,35.5656633,127.7673255
거가대교,경남 거제시,경상남도 거제시 장목면 유호리,35.023595,128.7130773
거류산&거류산성,경남 고성군,경상남도 고성군 거류면 거산리,35.0104942,128.3646395
거림계곡,경남 산청군,경상남도 산청군 시천면 세석길,35.2843778,127.7258728
거열산성군립공원,경남 거창군,경상남도 거창군 거창읍 거안로 1173-47,35.6927816,127.8785935
거제 계도어촌체험마을,경남 거제시,경상남도 거제시 사등면 가조로 837,34.9748638,128.5175347
거제 관광모노레일,경남 거제시,경상남도 거제시 계룡로 61,34.8765244,128.6244494
거제 구조라관광어촌마을,경남 거제시,경상남도 거제시 일운면 구조라로4길 3-1,34.8052923,128.6944706
거제 대우조선해양 옥포조선소,경남 거제시,경상남도 거제시 거제대로 3370,34.8753569,128.6898688
거제 둔덕기성.사등성지.오량성,경남 거제시,경상남도 거제시 둔덕면 거림리,34.8606417,128.5050623
거제 명진리 느티나무,경남 거제시,경상남도 거제시 거제면 명진리 220,34.84512,128.6115073
거제 쌍근어촌체험마을,경남 거제시,경상남도 거제시 남부면 남부해안로 1094,34.7624057,128.5894745
거제 알로에테마파크,경남 거제시,경상남도 거제시 거제면 거제남서로 3937,34.8417241,128.5604586
거제 어구낚시마을,경남 거제시,경상남도 거제시 둔덕면 어구길 2-3,34.8206153,128.5061036
거제 외간리 동백나무,경남 거제시,경상남도 거제시 거제면 외간1길 52,34.860879,128.5730899
거제 학동리 동백나무 숲 및 팔색조 번식지,경남 거제시,경남 거제시 동부면 학동리,34.773122,128.6345503
거제대교,경남 거제시,경상남도 거제시 사등면 덕호리,34.8812329,128.4817992
거제도,경남 거제시,경상남도 거제시 거제면 거제도,34.8509916,128.5903982
거제도 포로수용소 유적공원,경남 거제시,경상남도 거제시 계룡로 61,34.8765244,128.6244494
거제도 해금강,경남 거제시,경상남도 거제시 남부면 갈곶리,34.7473193,128.6435177
거제도해수보양온천,경남 거제시,경상남도 거제시 수양로 507,34.8916555,128.6345165
거제맹종죽테마공원,경남 거제시,경상남도 거제시 하청면 거제북로 700,34.9656044,128.6547548
거제생태문화탐방로(천주교순례길)1,경남 거제시,경상남도 거제시 일운면 와현리 예구선착장,34.8117936,128.7047599
거제생태탐방로(양지암등대길),경남 거제시,경상남도 거제시 일운면 와현리 예구선착장,34.8117936,128.7047599
거제시농업개발원,경남 거제시,경상남도 거제시 거제면 거제남서로 3577,34.8564049,128.5792114
거제자연예술랜드,경남 거제시,경남 거제시 동부면 구천리,34.8081048,128.6340293
거제자연휴양림,경남 거제시,경상남도 거제시 동부면 거제중앙로 325,34.7856971,128.625968
거제정글돔,경남 거제시,경상남도 거제시 거제면 거제남서로 3595,34.8579041,128.5790021
거제향교,경남 거제시,경상남도 거제시 거제면 기성로7길 10,34.8524296,128.5898555
거제현 관아,경남 거제시,경상남도 거제시 거제면 읍내로2길 22,34.8509189,128.5909437
거창 Y자형 출렁다리,경남 거창군,경상남도 거창군 가조면 의상봉길 830,35.7366408,128.0409598
거창 갈계리 임씨고가,경남 거창군,경상남도 거창군 북상면 샘골길 6,35.7803329,127.8187274
거창 감악사지 부도,경남 거창군,경상남도 거창군 신원면,35.567741,127.925164
거창 강남사지 석조여래입상,경남 거창군,경상남도 거창군 위천면 강남불1길 23-55,35.7405564,127.8157197
거창 거기리 성황단,경남 거창군,경상남도 거창군 주상면 거기리,35.7474882,127.9511203
거창 내오리 지석묘,경남 거창군,경상남도 거창군 주상면 내오리,35.780066,127.8932495
거창 농산리 석조여래입상,경남 거창군,경상남도 거창군 북상면 농산리,35.7732655,127.807218
거창 당동당산,경남 거창군,경상남도 거창군 가조면 장군봉1길 439-42,35.7176648,128.012563
거창 동계 종택(정온선생고택),경남 거창군,경상남도 거창군 위천면 강동1길 13,35.755183,127.8288039
거창 동호리 이씨고가,경남 거창군,경상남도 거창군 웅양면 동호1길 217,35.7990586,127.9273434
거창 둔마리 벽화 고분,경남 거창군,경상남도 거창군 남하면 대촌1길,35.7152181,127.9646676
거창 무릉리 정씨고가,경남 거창군,경상남도 거창군 남하면 무릉3길 19-16,35.6641548,127.9459699
거창 서변마을,경남 거창군,경상남도 거창군 거창읍 모곡2길 22,35.7151327,127.9170504
거창 솔향기돌담마을,경남 거창군,경상남도 거창군 웅양면 동호3길 20,35.7986426,127.9250901
거창 수승대,경남 거창군,경상남도 거창군 위천면 은하리길 2,35.7610682,127.8335222
거창 요수정,경남 거창군,경상남도 거창군 위천면 은하리길 100,35.7627086,127.8309033
거창 황금원숭이마을,경남 거창군,경상남도 거창군 위천면 상천길 50-159,35.7475876,127.8190836
거창 황산리 신씨고가,경남 거창군,경상남도 거창군 위천면 황산1길 109-5,35.7630354,127.8370912
거창 황산마을 옛 담장,경남 거창군,경상남도 거창군 위천면 황산1길 109-5,35.7630354,127.8370912
거창사건추모공원,경남 거창군,경상남도 거창군 신원면 신차로 2924,35.5555309,127.9260956
거창향교,경남 거창군,경상남도 거창군 거창읍 성산길 34,35.6926431,127.9038345
건계정,경남 거창군,경상남도 거창군 거창읍 거안로 1173-21,35.6926306,127.8790446
경남 하동 악양 [슬로시티],경남 하동군,경상남도 하동군 악양면 악양서로 357,35.1623104,127.7089189
경백사,경남 사천시,경상남도 사천시 용현면 온정2길 42,35.0283367,128.0578935
경상남도수목원,경남 진주시,경상남도 진주시 이반성면 수목원로 386,35.15928,128.2928355
경충사(정기룡장군유허지),경남 하동군,경상남도 하동군 금남면 경충로 503-14,34.9837156,127.8954745
경호강,경남 산청군,경상남도 산청군 산청읍 산청대로,35.4140121,127.8881042
경화역 벚꽃길,경남 창원시,경상남도 창원시 진해구 진해대로 649,35.1279791,128.7449228
계룡산,경남 거제시,경상남도 거제시 신현읍,34.8824091,128.6231029
계룡산 온천,경남 거제시,경상남도 거제시 거제중앙로 1779-1,34.8776215,128.6282862
계승사(고성),경남 고성군,경상남도 고성군 영현면 대법3길 236,35.0529506,128.2241778
계원사(양산),경남 양산시,경상남도 양산시 중앙우회로 66-64,35.3409546,129.0442985
고견사(거창),경남 거창군,경상남도 거창군 가조면 의상봉길 1049,35.7456062,128.0393314
고려동유적지,경남 함안군,경상남도 함안군 산인면 모곡2길 53,35.2763872,128.4599687
고성 덕명리 공룡과 새발자국 화석 산지,경남 고성군,경상남도 고성군 하이면 덕명5길 65,34.9089933,128.1547574
고성 송학동 고분군,경남 고성군,경상남도 고성군 고성읍 송학고분로,34.9802732,128.30798
고성 자란만,경남 고성군,경상남도 고성군 하일면 용태1길,34.9416179,128.2104312
고성 학동마을 옛 담장,경남 고성군,경상남도 고성군 하일면 학동돌담길 11-5,34.9490073,128.1923585
고성유람선,경남 고성군,경상남도 고성군 고성읍 공룡로 3083,34.9574403,128.3226103
고성장산리허씨고가,경남 고성군,경상남도 고성군 마암면 장산길 21,35.0601771,128.3241058
고성향교,경남 고성군,경상남도 고성군 고성읍 교사3길 41,34.9760374,128.3090928
고운동계곡,경남 산청군,경상남도 산청군 시천면 반천로,35.2378853,127.7975117
고현리 공룡발자국화석,경남 창원시,경상남도 창원시 마산합포구 진동면 고현장터길 39,35.1027709,128.4790798
고현성,경남 거제시,경상남도 거제시 고현동,34.8824091,128.6231029
곤양향교,경남 사천시,경상남도 사천시 곤양면 향교길 43-31,35.061091,127.9689505
공곶이,경남 거제시,경상남도 거제시 일운면 와현로 257,34.7998652,128.7147542
관룡사,경남 창녕군,경상남도 창녕군 창녕읍 화왕산관룡사길 171,35.5327205,128.5535308
관산서당,경남 창녕군,경상남도 창녕군 고암면 월미상월길 115,35.5709482,128.522249
관음사(창녕),경남 창녕군,경상남도 창녕군 도천면 영산도천로 11-14,35.4054249,128.5063271
관음정사(김해),경남 김해시,경상남도 김해시 진례면 평지길 299,35.2216513,128.73103
관해정,경남 창원시,경상남도 창원시 마산합포구 관해정길 17,35.2112578,128.5617164
광산서당,경남 창녕군,경상남도 창녕군 유어면 유어장마로 415,35.4894929,128.4400115
광심정,경남 함안군,경상남도 함안군 칠북면 봉촌2길 277,35.3765628,128.558597
광제서원,경남 진주시,경상남도 진주시 명석면 광제산로685번길 116,35.2753934,128.0310949
광천서원,경남 밀양시,경상남도 밀양시 부북면 사포중앙1안길 7,35.4730835,128.7355509
구계서원,경남 사천시,경상남도 사천시 사천읍 구암두문로 361-17,35.0909683,128.1253468
구곡산,경남 산청군,경상남도 산청군 시천면 지리산대로,35.2888009,127.7739882
구니서당,경남 창녕군,경상남도 창녕군 고암면 창밀로 506-30,35.5804886,128.5248784
구만계곡(밀양),경남 밀양시,경남 밀양시 산내면 봉의2안길,35.5948592,128.8811444
구복마을,경남 창원시,경남 창원시 마산합포구 구산면 구복리,35.0637186,128.5535994
구암서원(창원),경남 창원시,경상남도 창원시 마산회원구 구암북4길 7-10,35.2518335,128.5917232
구연서원,경남 거창군,경상남도 거창군 위천면 은하리길 100,35.7627086,127.8309033
구영해수욕장,경남 거제시,경남 거제시 장목면 거제북로,35.0069943,128.6887229
구조라해수욕장,경남 거제시,경상남도 거제시 일운면,34.8296765,128.7031452
구천댐(구천저수지),경남 거제시,경상남도 거제시 동부면 구천리,34.8081048,128.6340293
구천서원(김해),경남 김해시,경상남도 김해시 상동면 상동로 274-12,35.302628,128.9007822
구천서원(함양),경남 함양군,경상남도 함양군 수동면 효리길 30-17,35.5547702,127.7868639
구천암(김해),경남 김해시,경상남도 김해시 생림면 마사로229번길 58-175,35.3554187,128.8307299
국립 3·15 민주묘지,경남 창원시,경상남도 창원시 마산회원구 3·15성역로 75,35.2526858,128.5875481
국립 남해편백자연휴양림,경남 남해군,경상남도 남해군 삼동면 금암로 658,34.7521356,128.0201607
국립 지리산자연휴양림,경남 함양군,경상남도 함양군 마천면 음정길 152,35.347852,127.6431363
국사봉(거제),경남 거제시,경상남도 거제시 수월동,34.887888,128.6621174
국사봉(의령),경남 의령군,경상남도 의령군 부림면 여배로,35.5020701,128.3380651
국산서원,경남 고성군,경상남도 고성군 동해면 외곡1길 151-44,35.0148578,128.4066647
군항마을 역사길,경남 창원시,경상남도 창원시 진해구 충장로 71,35.1534537,128.6601497
굿데이뮤지엄,경남 창원시,경상남도 창원시 마산회원구 봉암공단2길 22,35.2185886,128.5975738
궁임마을,경남 거제시,경상남도 거제시 장목면 거제북로 2547,35.0083611,128.7039876
금대암(함양),경남 함양군,경상남도 함양군 마천면 가흥리,35.3991138,127.66748
금봉암(거창),경남 거창군,경상남도 거창군 고제면 용초길 310-428,35.8781081,127.8545237
금산 보리암(남해),경남 남해군,경상남도 남해군 상주면 보리암로 665,34.7538571,127.9830251
금산(남해),경남 남해군,경상남도 남해군 이동면 보리암로 586,34.755231,127.9913524
금성산(합천),경남 합천군,경상남도 합천군 대병면,35.52118,128.0142613
금왕사,경남 남해군,경상남도 남해군 이동면 보리암로 65-23,34.7789078,127.9686392
금원산,경남 거창군,경상남도 거창군 북상면 창성리,35.7568234,127.7742507
금원산자연휴양림,경남 거창군,경상남도 거창군 위천면 금원산길 412,35.7288969,127.7895449
금호재,경남 창녕군,경상남도 창녕군 대합면 대동길 33,35.6112075,128.455386
금호지,경남 진주시,경상남도 진주시 금산면 금산순환로587번길,35.2116655,128.1556277
기강서원,경남 의령군,경상남도 의령군 지정면,35.3825245,128.3860659
기백산,경남 함양군,경상남도 함양군 안의면,35.6286663,127.8112809
기백산 용추계곡과 용추폭포,경남 함양군,경상남도 함양군 안의면 상원리,35.6904382,127.7573219
기양서원,경남 함안군,경상남도 함안군 칠원읍 무기1길 33,35.2990028,128.5390218
기회송림,경남 밀양시,경상남도 밀양시 산외면 남기리,35.5140613,128.7913894
김상옥 생가,경남 통영시,경상남도 통영시 항남1번가길 13,34.843062,128.4222544
김숙자사당,경남 거창군,경상남도 거창군 남상면 한산1길 132-7,35.6411541,127.9373074
김영삼 전 대통령 생가,경남 거제시,경상남도 거제시 장목면 옥포대첩로 743-1,34.931467,128.7152676
김해 구지봉,경남 김해시,경상남도 김해시 구산동,35.2532104,128.8708521
김해 대성동 고분군,경남 김해시,경상남도 김해시 가야의길 126,35.236059,128.8730958
김해 롯데워터파크,경남 김해시,경상남도 김해시 장유로 555,35.2049606,128.8118572
김해 봉황동 유적,경남 김해시,경상남도 김해시 가락로63번길 50,35.2320872,128.876382
김해 부경동물원,경남 김해시,경상남도 김해시 유하로226번길 70,35.2203219,128.8198099
김해 분산성,경남 김해시,경상남도 김해시 어방동,35.2426033,128.9010575
김해 수로왕비릉,경남 김해시,경상남도 김해시 가락로190번길 1,35.2431857,128.8779144
김해 양동리 고분군,경남 김해시,경상남도 김해시 주촌면 서부로1341번길 22,35.2225155,128.8107619
김해 예안리 고분군,경남 김해시,경상남도 김해시 대동면 예안리,35.2617888,128.9546369
김해가야테마파크,경남 김해시,경상남도 김해시 가야테마길 161,35.2571164,128.8923319
김해생태체험학교 참빛,경남 김해시,경상남도 김해시 한림면 가동로103번길 44-16,35.3317728,128.7598787
김해천문대,경남 김해시,경상남도 김해시 가야테마길 254,35.2515188,128.889307
김해향교,경남 김해시,경상남도 김해시 가락로150번길 21,35.2396997,128.881553
낙동강 레일파크,경남 김해시,경상남도 김해시 생림면 마사로473번길 41,35.3718421,128.8209123
남가람문화거리,경남 진주시,"경상남도 진주시 망경동,칠암동 일대",35.1807582,128.0846784
남강댐 물 문화관,경남 진주시,경상남도 진주시 내동면 삼계로 455-46,35.1625336,128.030458
남강서원(양산),경남 양산시,경상남도 양산시 용주로 300,35.4313037,129.1579739
남강서원(함안),경남 함안군,경상남도 함안군 군북면 소포5길 82,35.2772485,128.3490043
남계서원,경남 밀양시,경상남도 밀양시 청도면 두곡3길 43-16,35.5539401,128.6167712
남계서원 [유네스코 세계문화유산],경남 함양군,경상남도 함양군 수동면 남계서원길 8-11,35.5484929,127.7832519
남망산 조각공원,경남 통영시,경상남도 통영시 남망길 139,34.8393527,128.4296257
남사예담촌,경남 산청군,경상남도 산청군 단성면 지리산대로2897번길 10,35.2742367,127.9363746
남산공원(고성),경남 고성군,경상남도 고성군 고성읍 동외로47번길 70,34.9673136,128.3271586
남악서원,경남 진주시,경상남도 진주시 금곡면 죽곡길 102,35.076682,128.1781064
남일대해수욕장,경남 사천시,경상남도 사천시 향촌동,34.9338156,128.0932951
남해 가인리 화석산지,경남 남해군,경상남도 남해군 창선면 가인리 산60-20,34.8860312,128.0488839
남해 가천 해변과 암수바위,경남 남해군,경상남도 남해군 남면 남면로679번길,34.7275794,127.8944558
남해 관음포 이충무공 유적,경남 남해군,경상남도 남해군 고현면 남해대로 3829,34.9133657,127.8572682
남해 금산 봉수대,경남 남해군,경상남도 남해군 상주면 보리암로 691,34.7514245,127.9805768
남해 냉천갯벌체험장,경남 남해군,경상남도 남해군 창선면 동부대로 2810-13,34.9021099,128.025269
남해 다초지(장평지),경남 남해군,경상남도 남해군 이동면 초음리,34.823212,127.9324621
남해 문항어촌체험마을,경남 남해군,경상남도 남해군 설천면 강진로206번길 54-19,34.9148516,127.9294038
남해 물건리 방조어부림,경남 남해군,경상남도 남해군 삼동면 물건리,34.7753694,128.0395964
남해 미조리 상록수림,경남 남해군,경상남도 남해군 미조면 미송로12번길 14-7,34.7137191,128.0439677
남해 바래길,경남 남해군,경상남도 남해군 이동면 성남로 99,34.7788803,127.9510608
남해 양모리학교,경남 남해군,경상남도 남해군 설천면 설천로775번길 256-17,34.9329242,127.8975443
남해 유포어촌체험마을,경남 남해군,경상남도 남해군 서면 남서대로2381번길 60,34.8619389,127.815017
남해 은점어촌체험마을,경남 남해군,경상남도 남해군 삼동면 동부대로942번길 34-9,34.7863847,128.0525828
남해 지족갯마을,경남 남해군,경상남도 남해군 삼동면 삼이로24번길 39,34.8288498,127.9934635
남해 창선도 왕후박나무,경남 남해군,경상남도 남해군 창선면 대벽리,34.9125373,128.012383
남해 척화비,경남 남해군,경상남도 남해군 설천면 노량로183번길 29,34.9413032,127.8761393
남해 항도어촌체험마을,경남 남해군,경상남도 남해군 미조면 동부대로310번길 32-8,34.7413839,128.0475972
남해 홍현마을,경남 남해군,경상남도 남해군 남면 남면로353번길 9-7,34.7455673,127.9076023
남해나비생태공원,경남 남해군,경상남도 남해군 삼동면 금암로 562-23,34.7582939,128.0126328
남해대교,경남 남해군,경상남도 남해군 설천면 노량리,34.9395921,127.8771828
남해대교유람선,경남 남해군,경상남도 남해군 설천면 노량로 177,34.9413008,127.8729109
남해보물섬전망대,경남 남해군,경상남도 남해군 삼동면 동부대로 720,34.8031191,128.0315718
남해향교,경남 남해군,경상남도 남해군 남해읍 망운로10번길 47,34.8424242,127.8927645
내도(거제),경남 거제시,경상남도 거제시 일운면 내도길 1,34.7887612,128.714094
내원사(산청),경남 산청군,경상남도 산청군 삼장면 대하내원로 256,35.3001921,127.8104714
내원사(양산),경남 양산시,경상남도 양산시 하북면 내원로 207,35.4471826,129.1104697
내원사계곡,경남 양산시,경상남도 양산시 하북면 내원로 207,35.4471826,129.1104697
내천못재,경남 합천군,경상남도 합천군 율곡면 내천리,35.6094961,128.2367379
노대도,경남 통영시,경상남도 통영시 욕지면 노대도,34.6700996,128.2470102
노도(김만중 유허지),경남 남해군,경상남도 남해군 상주면 노도길 76-16,34.7273153,127.9406685
노산공원,경남 사천시,경상남도 사천시 등대길 103,34.9247078,128.0744301
노을이 물드는 언덕,경남 거제시,경상남도 거제시 사등면 가조로 565,34.9550353,128.5247126
노자산,경남 거제시,경상남도 거제시 동부면 구천리,34.8081048,128.6340293
농산정,경남 합천군,경상남도 합천군 가야면 가야산로 1531,35.7853182,128.1098192
농소몽돌해변,경남 거제시,경상남도 거제시 장목면 거제북로,35.0069943,128.6887229
농월정 국민관광지,경남 함양군,경상남도 함양군 안의면,35.6286663,127.8112809
늘해랑누리길 (치유의숲),경남 거창군,경상남도 거창군 가조면 의상봉길 830,35.7366408,128.0409598
다맥 어촌체험마을,경남 사천시,경상남도 사천시 서포면 다평로 2,34.9798649,127.9435175
다솔사(경남),경남 사천시,경상남도 사천시 곤명면 다솔사길 417,35.0834741,127.9197762
다슬기 초량마을,경남 사천시,경상남도 사천시 곤명면 초량길 27-3,35.1060443,127.9235792
다자연 녹차단지,경남 사천시,경상남도 사천시 곤명면 금성들길 55,35.1412945,127.968548
단성향교,경남 산청군,경상남도 산청군 단성면 교동길 13-19,35.3090886,127.9550518
단속사 정당매,경남 산청군,경상남도 산청군 단성면 호암로673번길 12-1,35.3214155,127.899627
단장 이팝꽃 터널길,경남 밀양시,경상남도 밀양시 단장면,35.5152332,128.875983
달빛고운월성마을,경남 거창군,경상남도 거창군 북상면 덕유월성로 1433-7,35.7641532,127.7423328
달빛쌈지공원,경남 밀양시,경상남도 밀양시 밀양대로 2047,35.5038466,128.7472291
달아공원,경남 통영시,경상남도 통영시 산양읍 산양일주로 1115,34.7698023,128.4011153
달천계곡(창원),경남 창원시,경상남도 창원시 의창구 북면 달천길 145,35.2834587,128.597895
당포성지,경남 통영시,경상남도 통영시 산양읍 삼덕리,34.7976314,128.3889314
당항포관광지,경남 고성군,경상남도 고성군 회화면 당항만로 1116,35.0552275,128.3973788
대각서원,경남 진주시,경상남도 진주시 수곡면 대각길 104-21,35.2235679,127.9229792
대광사(창원),경남 창원시,경상남도 창원시 진해구 진해대로 303,35.1279791,128.7449228
대국산성,경남 남해군,경상남도 남해군 고현면 남치리,34.9101446,127.889178
대금산(거제),경남 거제시,경상남도 거제시 장목면,34.9868751,128.6820325
대기 농촌체험휴양마을,경남 합천군,경상남도 합천군 가회면 대기2길 17-3,35.4621113,128.0018907
대도,경남 하동군,경상남도 하동군 금남면 대도길 122,34.93196,127.8322743
대방마을,경남 사천시,경남 사천시 동서동,34.9286218,128.0687425
대방진굴항,경남 사천시,경상남도 사천시 굴항길 99,34.9293312,128.0563856
대법사,경남 밀양시,경상남도 밀양시 무안면 무안서로 163-158,35.4659461,128.6063754
대운산자연휴양림 네트어드벤처,경남 양산시,경상남도 양산시 탑골길 208-124,35.4172958,129.2119086
대원사(산청),경남 산청군,경상남도 산청군 삼장면 평촌유평로 453,35.3553053,127.8070484
대원사계곡,경남 산청군,경상남도 산청군 삼장면 유평리,35.3661378,127.7724079
대장경테마파크,경남 합천군,경상남도 합천군 가야면 야천리 996,35.7650628,128.1357893
대포서원,경남 산청군,경상남도 산청군 생초면 명지대포로236번길 183,35.4625227,127.8557936
덕곡서원,경남 의령군,경상남도 의령군 의령읍 벽화로 629-12,35.3130849,128.2535642
덕동해수욕장,경남 통영시,경상남도 통영시 욕지면 덕동길 39,34.6354977,128.2376272
덕산서원(고성),경남 고성군,경상남도 고성군 마암면 두호2길 76-13,35.0137113,128.3464413
덕연서원,경남 함안군,경상남도 함안군 칠원읍 예용3길 12-2,35.2970471,128.50977
덕원서원,경남 합천군,경상남도 합천군 청덕면 성태길 81,35.5855629,128.319306
덕유산국립공원(남덕유분소),경남 거창군,경남 거창군 북상면 소정리,35.8338264,127.8028289
덕천서원,경남 거창군,경상남도 거창군 거창읍 장팔길 594,35.6604897,127.8911219
덕천서원,경남 산청군,경상남도 산청군 시천면 남명로 137,35.2745,127.8332233
덕천서원,경남 거창군,경상남도 거창군 거창읍 장팔길 594,35.6604897,127.8911219
덕포해수욕장,경남 거제시,경상남도 거제시 덕포5길,34.9125924,128.7119375
도계서원,경남 함안군,경상남도 함안군 함안면 파수북길 35-36,35.2387298,128.4024996
도곡서원,경남 함양군,경상남도 함양군 지곡면 병곡지곡로 859,35.5667432,127.7636311
도남관광지,경남 통영시,경상남도 통영시 큰발개1길 33,34.8276983,128.4400011
도남서원,경남 창원시,경상남도 창원시 의창구 동읍 동읍로401번길 68,35.2985851,128.6593108
도남항 동방파제 등대 (연필등대),경남 통영시,경상남도 통영시 도남로 269-38,34.8286608,128.4337955
도봉서원,경남 창원시,경상남도 창원시 의창구 동읍 석산길16번길 5-11,35.3149079,128.6592584
도산서원(고성),경남 고성군,경상남도 고성군 구만면 화림3길 88,35.1034161,128.3346196
도성암(창녕),경남 창녕군,경상남도 창녕군 창녕읍 자하곡길 147,35.5435259,128.5201731
도심다원,경남 하동군,경상남도 하동군 화개면 신촌도심길 51-2,35.2180081,127.647583
도연서원,경남 고성군,경상남도 고성군 마암면 도전4길 152-41,35.0622163,128.3350007
도장포어촌체험마을,경남 거제시,경상남도 거제시 남부면 도장포1길 76,34.7434332,128.6624301
도장포유람선,경남 거제시,경상남도 거제시 남부면 도장포1길 55,34.7419713,128.6626947
도천서원,경남 산청군,경상남도 산청군 신안면 문익점로 34-32,35.3271098,127.9530432
독일마을,경남 남해군,경상남도 남해군 삼동면 독일로 92,34.8008273,128.0385068
동림사(김해),경남 김해시,경상남도 김해시 신어산길 144,35.2636821,128.9148218
동산서당,경남 창녕군,경상남도 창녕군 이방면 이방로 565-5,35.57091,128.3851013
동피랑마을,경남 통영시,경상남도 통영시 동피랑1길 6-18,34.8452973,128.4277594
동해 해안길,경남 고성군,경상남도 고성군 동해면,35.0414357,128.4209977
동화어촌체험마을,경남 고성군,경상남도 고성군 하일면 동화1길 203,34.9009795,128.1906927
돝섬(창원),경남 창원시,경상남도 창원시 마산합포구 돝섬2길 58,35.178936,128.5811386
"두곡, 월포해수욕장",경남 남해군,경상남도 남해군 남면 남면로111번길 77,34.7646753,127.9035653
두곡서원(창원),경남 창원시,경상남도 창원시 마산회원구 두곡길 54,35.2391476,128.5489481
두릉서원,경남 함안군,경상남도 함안군 여항면 두곡길 145,35.2062809,128.4552986
두모마을,경남 남해군,경상남도 남해군 상주면 양아로533번길 18,34.7337998,127.9553316
두무산(합천),경남 합천군,경상남도 합천군 가야면,35.7626841,128.1394795
두방사(두방암),경남 진주시,경상남도 진주시 문산읍 동부로781번길 267,35.1881447,128.1914643
둔철산,경남 산청군,경상남도 산청군 산청읍 범학길,35.3885546,127.9126516
마금산,경남 창원시,경상남도 창원시 의창구 북면 신리길30번길,35.3487153,128.6058577
마금산원탕,경남 창원시,경상남도 창원시 의창구 북면 천주로 1167,35.3546296,128.6094306
마산 오동동 아구찜거리,경남 창원시,경상남도 창원시 마산합포구 아구찜길 20,35.2064262,128.5785669
마산로봇랜드,경남 창원시,경상남도 창원시 마산합포구 구산면 로봇랜드로 250,35.0697416,128.5805435
마산역(철도체험학습장),경남 창원시,경상남도 창원시 마산회원구 마산역광장로 18,35.2371157,128.5781958
마산향교,경남 창원시,경상남도 창원시 마산합포구 진동면 교동1길 86,35.1188425,128.4990018
만골관광농원,경남 거제시,경상남도 거제시 동부면 북병산로 89-22,34.8139736,128.6466707
만어사,경남 밀양시,경상남도 밀양시 삼랑진읍 만어로 776,35.4548295,128.8462291
만월당,경남 거창군,경상남도 거창군 북상면 덕유월성로 2279-10,35.7772155,127.8148078
만지도,경남 통영시,경상남도 통영시 산양읍 만지길 3,34.7399362,128.389075
만화방초,경남 고성군,경상남도 고성군 거류면 은황길 82-91,34.9603597,128.3855291
망산공원,경남 사천시,경상남도 사천시 망산동1길 41-15,34.9331908,128.0726381
망산도·유주암·유주비각,경남 창원시,경상남도 창원시 진해구 용원동,35.1091336,128.817681
망운산,경남 남해군,경상남도 남해군 서면 남서대로2240번길 412-18,34.8459053,127.8461766
망운암(남해),경남 남해군,경상남도 남해군 남해읍 남서대로2240번길 708,34.8514549,127.8580893
망진산 봉수대,경남 진주시,경상남도 진주시 망경동,35.1807582,128.0846784
매물도,경남 통영시,경상남도 통영시 한산면 매물도대항길,34.6397415,128.5698573
매미성,경남 거제시,경상남도 거제시 장목면 복항길,34.9673101,128.7043829
매화산(합천),경남 합천군,경상남도 합천군 가야면 해인사길,35.7984088,128.0939279
명사마을,경남 거제시,경상남도 거제시 남부면 명사1길 12-1,34.7255282,128.6021022
명사해수욕장,경남 거제시,경상남도 거제시 남부면 명사해수욕장길,34.7276618,128.6048804
모리재,경남 거창군,경상남도 거창군 북상면 강선대길 96-326,35.7653088,127.797489
모상개해수욕장,경남 남해군,경상남도 남해군 창선면 진동리,34.8471364,128.0532286
모은암,경남 김해시,경상남도 김해시 생림면 마사로 36-228,35.3468346,128.8611536
목계서원,경남 산청군,경상남도 산청군 단성면 석대로525번길 40-13,35.3252864,127.9357363
몽고정,경남 창원시,경상남도 창원시 마산합포구 자산동,35.2055979,128.5654666
무민사(남해),경남 남해군,경상남도 남해군 미조면 남해대로 14-11,34.7173953,128.0415797
무봉사,경남 밀양시,경상남도 밀양시 영남루1길 16-11,35.4917461,128.7564311
무산사,경남 함안군,경상남도 함안군 칠서면 무릉길 75,35.323814,128.515578
무지갯빛 해안도로,경남 사천시,경상남도 사천시 용현면,35.0134571,128.0613209
무지돌이마을,경남 고성군,경상남도 고성군 개천면 나선길 81-9,35.1221612,128.3159283
무진정(함안),경남 함안군,경상남도 함안군 함안면 괴산4길 25,35.2554072,128.4227806
무척산,경남 김해시,경상남도 김해시 생림면,35.3281565,128.8492455
무학산,경남 창원시,경상남도 창원시 마산합포구 교방동7길 3,35.2135726,128.5673274
문수암 (산청),경남 산청군,경상남도 산청군 시천면 마근담길 173-17,35.2883102,127.8538362
문수암(고성),경남 고성군,경상남도 고성군 상리면 무선2길 808,34.9789195,128.21149
물계서원,경남 창녕군,경상남도 창녕군 대지면 모산1길 109-36,35.5655015,128.4686741
물계서원원정비,경남 창녕군,경상남도 창녕군 대지면 모산1길 109-36,35.5655015,128.4686741
물사랑교육농장,경남 진주시,경상남도 진주시 대평면 호반로 414-11,35.1615004,127.9905588
물안해수욕장,경남 거제시,경상남도 거제시 하청면 칠천로,34.9896781,128.6368115
미녀산(미녀봉),경남 거창군,경남 거창군 가조면 기리2길,35.6819413,128.0251385
미래사(통영),경남 통영시,경상남도 통영시 산양읍 미륵산길 192,34.8043395,128.4207563
미륵도,경남 통영시,경상남도 통영시 산양읍 원항1길 274,34.7948067,128.3725089
미륵도 관광특구,경남 통영시,경상남도 통영시 도남동,34.8266933,128.4269384
미륵산(통영),경남 통영시,경상남도 통영시 봉수돌샘길 115,34.8219905,128.4155191
미리미동국 (진장 문화예술 플랫폼),경남 밀양시,경상남도 밀양시 남천강변로3길 3-4,35.4908317,128.7494241
미숭산관광지,경남 합천군,경상남도 합천군 야로면 미숭산로 343,35.7260205,128.1916739
미양서원,경남 김해시,경상남도 김해시 진영읍 진영로 430-16,35.2970773,128.7580282
미연서원,경남 의령군,경상남도 의령군 대의면 모의로 323,35.3841259,128.1482837
미조항,경남 남해군,경상남도 남해군 미조면 미조리,34.7120127,128.0417335
미타암(양산),경남 양산시,경상남도 양산시 주진로 379-61,35.4061288,129.1282147
밀양 꽃새미마을,경남 밀양시,경상남도 밀양시 초동면 방동안길 22,35.4531671,128.7059171
밀양 얼음골,경남 밀양시,경상남도 밀양시 산내면 산내로 1647,35.588945,128.9116521
밀양 영남루,경남 밀양시,경상남도 밀양시 중앙로 324,35.4919122,128.7552413
밀양 평리산대추정보화 마을,경남 밀양시,경상남도 밀양시 단장면 고례4길 7-3,35.4995825,128.9268807
밀양댐 물 문화관,경남 밀양시,경상남도 밀양시 단장면 고례2길 79-10,35.4852079,128.9302598
밀양아리랑 우주천문대,경남 밀양시,경상남도 밀양시 밀양대공원로 86,35.5023792,128.7605454
밀양한천 테마파크,경남 밀양시,경상남도 밀양시 산내면 봉의로 58-31,35.5916954,128.8809339
밀양향교,경남 밀양시,경상남도 밀양시 밀양향교3길 19,35.5063131,128.7546937
바람의 언덕,경남 거제시,경상남도 거제시 남부면 도장포마을,34.7406543,128.6623308
박경리 생가,경남 통영시,경상남도 통영시 충렬1길 76-38,34.8465931,128.4201402
반곡서원(거제),경남 거제시,경상남도 거제시 거제면 동상3길 31-8,34.852181,128.595924
반구헌,경남 거창군,경상남도 거창군 위천면 강동1길 17,35.7552672,127.8290779
배내골,경남 양산시,경상남도 양산시 원동면 대리,35.4526447,128.979813
배내골장선휴마을,경남 양산시,경상남도 양산시 원동면 장선2길 30,35.5014455,128.996327
배산서원,경남 산청군,경상남도 산청군 단성면 배양길 16,35.293242,127.9561545
백련리도요지,경남 하동군,경상남도 하동군 진교면 사기아름길 80,35.0358922,127.8874368
백련암(의령),경남 의령군,경상남도 의령군 가례면 자굴산로 1150-142,35.3770205,128.2156801
백련암(합천),경남 합천군,경상남도 합천군 가야면 해인사길 118-116,35.7985145,128.1061133
백산 안희제 생가,경남 의령군,경상남도 의령군 부림면 입산로2길 37,35.4542392,128.3501172
백운동계곡(산청),경남 산청군,경상남도 산청군 단성면 백운로51번길,35.2870219,127.8876121
백운암(김해),경남 김해시,경상남도 김해시 상동면 여차로471번안길 16-133,35.3478298,128.8740889
백월산,경남 창원시,경상남도 창원시 의창구 북면 마산길72번길,35.3379068,128.6260536
백천사(사천),경남 사천시,경상남도 사천시 백천길 326-2,34.9956571,128.0925564
법기수원지,경남 양산시,경상남도 양산시 동면 법기로 198-13,35.3479724,129.1063301
법화암(창녕),경남 창녕군,경상남도 창녕군 영산면 적지길 184,35.4746007,128.5480348
법흥사(남해),경남 남해군,경상남도 남해군 남해읍 망운로10번길 45-10,34.8426341,127.8916752
벽계(찰비)계곡,경남 의령군,경상남도 의령군 궁류면 벽계로 201,35.4258537,128.2080639
벽방산,경남 통영시,경상남도 통영시 도산면 원산리,34.9379422,128.3697596
벽송사(지리산),경남 함양군,경상남도 함양군 마천면 광점길 27-177,35.3941729,127.7037376
보림사(함양),경남 함양군,경상남도 함양군 함양읍 상림3길 32,35.5213657,127.7228448
보해산(금귀봉),경남 거창군,경상남도 거창군 가북면 가북로,35.7673586,127.9837598
봉명산시립공원,경남 사천시,경상남도 사천시 곤명면 용산리,35.0901001,127.9243084
봉산서원(산청),경남 산청군,경상남도 산청군 생비량면 지리산대로4119번길 37-20,35.3442271,128.0188237
봉암해수욕장,경남 통영시,경상남도 통영시 한산면 봉암2길 46-42,34.759132,128.5109506
봉평동지석묘,경남 통영시,경상남도 통영시 해평6길 25,34.8328394,128.4172387
봉하마을,경남 김해시,경상남도 김해시 진영읍 봉하로 122-15,35.3131332,128.7711017
봉황교~비봉산 생태탐방로,경남 진주시,경상남도 진주시 옥봉동,35.1925629,128.0912885
봉황대(의령),경남 의령군,경상남도 의령군 궁류면 평촌리 산 62,35.4352854,128.2412797
부곡온천 관광특구,경남 창녕군,경상남도 창녕군 부곡면 온천중앙로 77,35.4377592,128.5960399
부림시장 먹자골목,경남 창원시,경상남도 창원시 마산합포구 3·15대로 352,35.2058095,128.5734852
부은암(밀양),경남 밀양시,경상남도 밀양시 삼랑진읍 천태로 451-94,35.4110617,128.886726
부재산방,경남 창원시,경상남도 창원시 마산합포구 진전면 미천2길 148,35.1522756,128.4068818
북병산,경남 거제시,경상남도 거제시 동부면,34.8216154,128.6081379
불곡사(창원),경남 창원시,경상남도 창원시 성산구 대암로 55,35.2155154,128.7017865
불일폭포,경남 하동군,경상남도 하동군 화개면 목압길,35.2368409,127.6451236
비진도,경남 통영시,경상남도 통영시 한산면,34.7671397,128.5077047
비진도해수욕장,경남 통영시,경상남도 통영시 한산면 비진리,34.7104474,128.4586113
비토섬,경남 사천시,경상남도 사천시 서포면 비토안길 104-16,34.9746532,127.9708285
비토섬 가는길,경남 사천시,경상남도 사천시 용현면 종포길 242,35.0248565,128.0444065
빗돌배기마을(송등),경남 창원시,경상남도 창원시 의창구 대산면 진산대로505번길 92,35.344369,128.7024677
사기아름마을,경남 하동군,경상남도 하동군 진교면 사기아름길 92,35.0368724,127.886825
사량도,경남 통영시,경상남도 통영시 사량면 진촌2길,34.8447433,128.2235467
사량도 지리산,경남 통영시,경상남도 통영시 사량면 돈지리,34.8459346,128.1791091
사량도 칠현산,경남 통영시,경상남도 통영시 사량면 읍덕리,34.8312782,128.2276132
사명대사 생가지,경남 밀양시,경상남도 밀양시 무안면 사명대사생가로 642,35.4967626,128.6047056
사자평고산습지,경남 밀양시,경상남도 밀양시 단장면,35.5152332,128.875983
사천 대포어촌체험마을,경남 사천시,경상남도 사천시 대포길 255,34.9903255,128.0404893
사천 바리안마을,경남 사천시,경상남도 사천시 사남면 우천길 47-12,35.0337502,128.1174188
사천 항공우주박물관,경남 사천시,경상남도 사천시 사남면 공단1로 78,35.0714409,128.0629129
사천 흥사리 매향비,경남 사천시,경상남도 사천시 곤양면 흥사리,35.0985722,128.0062796
사천고읍단감마을,경남 사천시,경상남도 사천시 정동면 고읍길 223,35.0674649,128.0978805
사천바다 케이블카,경남 사천시,경상남도 사천시 사천대로 18,34.9337074,128.0535753
사천선진리왜성,경남 사천시,경상남도 사천시 용현면 선진리,35.0445756,128.0515211
사천읍성,경남 사천시,경상남도 사천시 사천읍 수양공원길 51,35.0834648,128.0940138
사천향교,경남 사천시,경상남도 사천시 사천읍 사천향교로 25,35.0859359,128.100744
사촌해수욕장,경남 남해군,경상남도 남해군 남면 남면로1229번길 44,34.7434097,127.8561239
사충단,경남 김해시,경상남도 김해시 가야로405번안길 22-9,35.2445557,128.8863413
산방산(거제),경남 거제시,경상남도 거제시 둔덕면 산방리,34.8605542,128.5285575
산방산비원,경남 거제시,경상남도 거제시 둔덕면 산방산길 153,34.8607971,128.5265944
산천재 남명매,경남 산청군,경상남도 산청군 시천면 남명로 310-8,35.2741808,127.8489668
산청 단계마을 옛 담장,경남 산청군,경상남도 산청군 신등면 신등가회로 53-9,35.3823191,128.0083431
산청 단속사지 동 삼층석탑,경남 산청군,경상남도 산청군 단성면 호암로673번길 12-1,35.3214155,127.899627
산청 동의보감촌,경남 산청군,경상남도 산청군 금서면 동의보감로555번길 45-6,35.4409635,127.8293066
산청 법계사 삼층석탑,경남 산청군,경상남도 산청군 시천면 지리산대로 320-292,35.2888009,127.7739882
산청 이사재,경남 산청군,경상남도 산청군 단성면 상동길 77,35.2764346,127.9350109
산청 전 구형왕릉,경남 산청군,경남 산청군 금서면 구형왕릉로,35.452991,127.7995579
산청 조식 유적,경남 산청군,경상남도 산청군 시천면 사리,35.291072,127.8558732
산청·함양사건 추모공원,경남 산청군,경상남도 산청군 금서면 화계오봉로 530,35.4270334,127.7786187
산청향교,경남 산청군,경상남도 산청군 산청읍 중앙로59번길 20-5,35.4165709,127.8809781
산호공원,경남 창원시,경상남도 창원시 마산합포구 용마산길 142,35.2129212,128.5841315
산호공원(용마공원) 시(詩)의 거리,경남 창원시,경상남도 창원시 마산합포구 산호동,35.216041,128.5859644
삼가향교,경남 합천군,경상남도 합천군 삼가면 소오2길 18-5,35.4080839,128.1174351
삼강서원,경남 밀양시,경상남도 밀양시 삼랑진읍 삼랑1길 32-9,35.3831311,128.8179713
삼거동 청사초롱 체험마을,경남 거제시,경상남도 거제시 거제중앙로 1274,34.8430192,128.6481465
삼계마을,경남 고성군,경상남도 고성군 대가면 유흥3길 51-6,35.0163502,128.2955411
삼귀해안,경남 창원시,경상남도 창원시 성산구 삼귀로 263,35.1638013,128.6005131
삼봉산,경남 거창군,경남 거창군 고제면 봉계리,35.8870094,127.8717691
삼성궁,경남 하동군,경상남도 하동군 청암면 삼성궁길 85,35.2402399,127.7011846
삼성암(창녕),경남 창녕군,경상남도 창녕군 계성면 북암길 147,35.5029803,128.5402887
삼우당,경남 거창군,경상남도 거창군 남하면 영서로 485,35.6354092,127.9650433
삼장사지삼층석탑,경남 산청군,경상남도 산청군 삼장면 평촌리,35.3410348,127.8077563
삼정자동마애불,경남 창원시,경상남도 창원시 성산구 삼정자로 79,35.2015533,128.7141634
삼천포대교공원,경남 사천시,경상남도 사천시 사천대로 17,34.9324694,128.0521274
삼천포유람선,경남 사천시,경상남도 사천시 유람선길 70,34.9281867,128.063112
삼천포항,경남 사천시,경상남도 사천시 어시장길 34-4,34.9265424,128.0696781
삼칭이길,경남 통영시,경상남도 통영시 산양읍 영운리,34.8121363,128.4268137
상동 빈지소,경남 밀양시,경상남도 밀양시 상동면 안인리,35.536534,128.7563338
상림공원,경남 함양군,경상남도 함양군 함양읍 필봉산길 49,35.523709,127.7219359
상봉서원,경남 함안군,경상남도 함안군 칠원읍 유원1길 32,35.3,128.516667
상상길(창원),경남 창원시,경상남도 창원시 마산합포구,35.1969107,128.5678853
상상양떼목장 편백숲,경남 남해군,경상남도 남해군 설천면 설천로775번길 37-9,34.929141,127.909364
상연대(함양),경남 함양군,경상남도 함양군 백전면 백운산길 3-291,35.608237,127.6383458
상정 비봉내마을,경남 사천시,경상남도 사천시 곤양면 상정마을길 139,35.0710868,127.9584578
상족암 유람선,경남 고성군,경상남도 고성군 하이면 덕명4길 39-53,34.9056055,128.1468132
상족암군립공원,경남 고성군,경상남도 고성군 하이면 덕명5길 42-23,34.9098324,128.1541637
상주은모래비치,경남 남해군,경상남도 남해군 상주면 상주로 10-3,34.7223934,127.987506
새미골가마,경남 하동군,경상남도 하동군 진교면 사기아름길 80,35.0358922,127.8874368
생초국제조각공원,경남 산청군,경상남도 산청군 생초면 산수로 1064,35.4914462,127.8312211
생초면 대포마을,경남 산청군,경상남도 산청군 생초면 명지대포로236번길 167-6,35.461974,127.8544802
서간소루,경남 거창군,경상남도 거창군 북상면 샘골길 6,35.7803329,127.8187274
서계서원,경남 산청군,경상남도 산청군 산청읍 덕우지길 51,35.4168195,127.8854528
서산서원,경남 함안군,경상남도 함안군 군북면 사군로 1235,35.2362771,128.3247685
서암정사(함양),경남 함양군,경상남도 함양군 마천면 광점길 27-79,35.3936186,127.6975839
서울우유 거창공장,경남 거창군,경상남도 거창군 거창읍 거함대로 3372-71,35.6693079,127.9257203
서원곡유원지,경남 창원시,경상남도 창원시 마산합포구 교방동,35.2143469,128.5662433
서이말 등대,경남 거제시,경상남도 거제시 일운면 서이말길 478,34.7875093,128.7376278
서진주 스파랜드,경남 진주시,경상남도 진주시 명석면 진주대로 2320-31,35.2608942,127.9942664
서피랑 마을,경남 통영시,경상남도 통영시 서호동,34.8418019,128.4193853
석골사,경남 밀양시,경상남도 밀양시 산내면 원서3길 167,35.6158518,128.9274619
석불사(창녕),경남 창녕군,경상남도 창녕군 창녕읍 화왕산로 135-71,35.534013,128.5117079
선유동계곡(산청),경남 산청군,경남 산청군 신안면 수월로,35.3442205,127.9595899
선진공원,경남 사천시,경상남도 사천시 용현면 선진리,35.0445756,128.0515211
선진마을,경남 사천시,경남 사천시 용현면,35.0134571,128.0613209
선학산전망대,경남 진주시,경상남도 진주시 남강로 751-51,35.1784006,128.0974023
설리 해수욕장,경남 남해군,경상남도 남해군 미조면 미송로303번길 70,34.7055783,128.0255421
설천 남해해안도로,경남 남해군,경상남도 남해군 설천면,34.924864,127.9140299
설흘산,경남 남해군,경상남도 남해군 남면 남면로,34.7531384,127.8709028
섬이정원,경남 남해군,경상남도 남해군 남면 남면로 1534-110,34.7522217,127.860672
성덕암(창원),경남 창원시,경상남도 창원시 마산합포구 성호서7길 46,35.2073044,128.5688203
성전암(진주),경남 진주시,경상남도 진주시 이반성면 장안로65번길 291,35.2075377,128.351904
성조암(김해),경남 김해시,경상남도 김해시 활천로 121-57,35.2384169,128.8942256
성주사(창원),경남 창원시,경상남도 창원시 성산구 곰절길 191,35.176138,128.7175074
성천서원,경남 거창군,경상남도 거창군 북상면 계수나무길 18-47,35.7627996,127.7386767
성철대종사생가(겁외사),경남 산청군,경상남도 산청군 단성면 성철로 125,35.279455,127.9681452
성흥사 계곡,경남 창원시,경상남도 창원시 진해구 대장로 273,35.1479091,128.7794249
성흥사(진해),경남 창원시,경상남도 창원시 진해구 대장로 273,35.1479091,128.7794249
세진암(거제),경남 거제시,경상남도 거제시 거제면 동상3길 31-6,34.8520346,128.596555
소계서원,경남 양산시,경상남도 양산시 상북면 소토로 38,35.3796155,129.0545982
소곡서당,경남 창녕군,경상남도 창녕군 고암면 우천길 111,35.5651438,128.515674
소노서원,경남 양산시,경상남도 양산시 상북면 소노2길 13-27,35.3790543,129.0591978
소담수목원,경남 고성군,경상남도 고성군 동해면 외산로 592,35.0636626,128.4645404
소매물도,경남 통영시,경상남도 통영시 한산면 소매물도길 65,34.6288616,128.5506821
소매물도 등대,경남 통영시,경상남도 통영시 한산면 소매물도길 246,34.6222531,128.5481728
소석마을 [농촌체험],경남 양산시,경상남도 양산시 상북면 공원로1길 61,35.4180575,129.0506439
소을비포성지,경남 고성군,경상남도 고성군 하일면 동화리 398-14,34.9023434,128.189514
소쿠리섬,경남 창원시,경상남도 창원시 진해구 명동,35.0986436,128.7301299
송계사(거창),경남 거창군,경상남도 거창군 북상면 송계사길 321,35.8347237,127.7969597
송담서원(김해),경남 김해시,경상남도 김해시 가야로405번안길 22-9,35.2445557,128.8863413
송담서원(양산),경남 양산시,경상남도 양산시 물금읍 가촌서2길 14-13,35.323978,128.9948466
송씨고가 사의정,경남 합천군,경상남도 합천군 대병면 서부로 2551-3,35.5438527,128.0000795
송정 솔바람해변,경남 남해군,경상남도 남해군 미조면 미송로483번길 4-69,34.7221961,128.0238472
송정한솔체험마을,경남 남해군,경상남도 남해군 미조면 미송로486번길 30,34.7256432,128.0251857
송천참다래마을,경남 고성군,경상남도 고성군 하일면 송천리,34.9240816,128.1936253
송호서원,경남 함양군,경상남도 함양군 병곡면 송호서원길 8,35.5291032,127.6819478
송호서원,경남 합천군,경상남도 합천군 대병면 신성동2길 22-3,35.5200932,128.0143927
수도사(의령),경남 의령군,경상남도 의령군 용덕면 덕암로 581-137,35.3800268,128.2514941
수로왕릉,경남 김해시,경상남도 김해시 가락로93번길 26,35.2340315,128.8784903
수륙해수욕장,경남 통영시,경상남도 통영시 산양읍 삼칭이해안길,34.8140925,128.4389336
수릉원,경남 김해시,경상남도 김해시 분성로261번길 35,35.2346232,128.8768234
수림서원,경남 고성군,경상남도 고성군 마암면 화산4길 201-54,35.0612148,128.3385619
수산제 역사공원,경남 밀양시,경상남도 밀양시 하남읍 수산리 927,35.382662,128.7162274
수선사,경남 산청군,경상남도 산청군 산청읍 웅석봉로154번길 102-23,35.3992631,127.8704723
수양공원 (구 산성공원),경남 사천시,경상남도 사천시 사천읍 수양공원길 51,35.0834648,128.0940138
수우도,경남 통영시,경상남도 통영시 사량면 돈지리,34.8459346,128.1791091
수월사(경남),경남 양산시,경상남도 양산시 매곡3길 12-202,35.3586579,129.1732385
수월폭포,경남 산청군,경상남도 산청군 신안면 수월로,35.3442205,127.9595899
수치해안,경남 창원시,경상남도 창원시 진해구 명제로,35.1019681,128.7213758
수포대,경남 거창군,경남 거창군 가조면 가조가야로,35.710105,128.0281167
숲옛마을(갈계),경남 거창군,경상남도 거창군 북상면 송계로 738,35.77981,127.8186268
스타웨이,경남 하동군,경상남도 하동군 악양면 섬진강대로 3358-110,35.1506729,127.6752582
시루봉,경남 창원시,경남 창원시 진해구 자은동,35.1471074,128.7054271
신계서원,경남 산청군,경상남도 산청군 신안면 지리산대로3833번길 3-16,35.3255017,127.9949328
신계서원,경남 의령군,경상남도 의령군 부림면 미타로 26-5,35.4723094,128.3236212
신남서원,경남 밀양시,경상남도 밀양시 무안면 판정로 125-13,35.5008284,128.6661939
신산서원,경남 김해시,경상남도 김해시 대동면 대동로269번안길 115,35.2472615,128.9418556
신선대 전망대,경남 거제시,경상남도 거제시 남부면 갈곶리,34.7473193,128.6435177
신수도,경남 사천시,경상남도 사천시 신수서길 1-46,34.9037821,128.0754967
신암서원,경남 함안군,경상남도 함안군 가야읍 신암로 209,35.2604241,128.3867855
신어산,경남 김해시,경상남도 김해시 신어산길,35.2590739,128.907398
신흥사(양산),경남 양산시,경상남도 양산시 원동면 원동로 2282-111,35.3712054,128.9545958
실리도,경남 창원시,경상남도 창원시 마산합포구 구산면 실리섬길 25,35.0637403,128.637038
심우사(거창),경남 거창군,경상남도 거창군 거창읍 하동4길 77,35.6896209,127.9146494
심적사(산청),경남 산청군,경상남도 산청군 산청읍 꽃봉산로133번길 15,35.4134523,127.8794555
십리벚꽃길,경남 하동군,경상남도 하동군 화개면 화개로 142,35.2267796,127.6366809
쌍계사(하동),경남 하동군,경상남도 하동군 화개면 쌍계사길 59,35.2331819,127.6497993
쌍계사차나무시배지,경남 하동군,경상남도 하동군 화개면 운수리,35.2356338,127.6632659
쌍절각,경남 함안군,경상남도 함안군 군북면 원북길 10-1,35.2350909,128.3254032
아라가야 고분군,경남 함안군,경상남도 함안군 가야읍 삼기길 91,35.2722729,128.4081851
아랑각,경남 밀양시,경상남도 밀양시 중앙로 324,35.4919122,128.7552413
아이스딸기마을,경남 합천군,경상남도 합천군 율곡면 제내로 74,35.5781335,128.2044949
악견산,경남 합천군,경상남도 합천군 대병면,35.52118,128.0142613
악양루,경남 함안군,경상남도 함안군 대산면 대법로 331-1,35.3352319,128.3985246
악양생태공원,경남 함안군,경상남도 함안군 대산면 하기2길 208-49,35.3465272,128.3978582
안국사(함양),경남 함양군,경상남도 함양군 마천면 천왕봉로 1035-337,35.409535,127.6652707
안민고개,경남 창원시,경상남도 창원시 성산구 안민동 장복산 일대,35.1786291,128.6859461
안의향교,경남 함양군,경상남도 함양군 안의면 향교길 15,35.6372958,127.807539
안정사,경남 통영시,경상남도 통영시 광도면 안정1길 363,34.9437506,128.3952255
앵산,경남 거제시,경상남도 거제시 하청면 석포리,34.9488378,128.6067787
양각산,경남 거창군,경남 거창군 웅양면 산포리,35.8262794,127.9424461
양산 북정리 고분군,경남 양산시,경상남도 양산시 북정동,35.3620081,129.0498452
양산천 구름다리,경남 양산시,경상남도 양산시 양산대로 849,35.3442046,129.0309016
양산향교,경남 양산시,경상남도 양산시 교동1길 10,35.3457337,129.0264061
양천암(하동),경남 하동군,경상남도 하동군 북천면 상촌길 184-128,35.1540265,127.8503285
어계생가,경남 함안군,경상남도 함안군 군북면 원북길 104-1,35.2338322,128.321142
여좌천(벚꽃명소),경남 창원시,경상남도 창원시 진해구 여좌동,35.158224,128.6605165
여차 홍포전망대,경남 거제시,경상남도 거제시 남부면 다포리,34.7227846,128.6200056
"여차,홍포간 해안도로",경남 거제시,경상남도 거제시 남부면,34.7321608,128.6101463
여차해변 (여차몽돌해수욕장),경남 거제시,경상남도 거제시 남부면 여차길,34.714655,128.6273375
연대도,경남 통영시,경상남도 통영시 산양읍 연대길,34.736773,128.3965552
연대도 해수욕장,경남 통영시,경상남도 통영시 산양읍 연대길,34.736773,128.3965552
연수사(거창),경남 거창군,경상남도 거창군 남상면 연수사길 115-103,35.5976049,127.9197929
연호사,경남 합천군,경상남도 합천군 합천읍 죽죽길 80,35.5597354,128.1652024
연화도(통영),경남 통영시,경상남도 통영시 욕지면 연화도,34.6452157,128.3597226
연화사(진주),경남 진주시,경상남도 진주시 향교로42번길 13,35.1977209,128.088009
연화사(통영),경남 통영시,경상남도 통영시 욕지면 십리골길 110,34.6460496,128.3549888
연화산도립공원,경남 고성군,경상남도 고성군 개천면 연화산1로 544,35.0868478,128.2628047
영각사(함양),경남 함양군,경상남도 함양군 서상면 덕유월성로 567,35.7472818,127.6793386
영구암(김해),경남 김해시,경상남도 김해시 신어산길 170,35.2688155,128.9170886
영남알프스 얼음골케이블카,경남 밀양시,경상남도 밀양시 산내면 얼음골로 241,35.5823013,128.9816611
영빈서원,경남 거창군,경상남도 거창군 남하면 무릉2길 34,35.6655498,127.9453074
영산향교,경남 창녕군,경상남도 창녕군 영산면 유생길 19,35.4614181,128.534957
영산호국공원,경남 창녕군,경상남도 창녕군 영산면 원다리길 42,35.4531813,128.5296533
영승서원,경남 거창군,경상남도 거창군 마리면 영승2길 26-48,35.7127977,127.8554535
영원사,경남 함양군,경상남도 함양군 마천면 마천삼정로 544-659,35.3803753,127.6284262
영축산,경남 양산시,경상남도 양산시 하북면,35.4893069,129.0869475
예강서원,경남 김해시,경상남도 김해시 진례면 진례로311번길 107,35.2580326,128.7383426
예동서원,경남 의령군,경상남도 의령군 유곡면 마장로 226-14,35.4431121,128.295631
예림서원,경남 밀양시,경상남도 밀양시 부북면 예림서원로 128,35.4661495,128.7300318
예암서원,경남 김해시,경상남도 김해시 삼안로112번길 36,35.2414741,128.9173938
오도산,경남 합천군,경상남도 합천군 묘산면,35.6584428,128.1133546
오도산자연휴양림,경남 합천군,경상남도 합천군 봉산면 오도산휴양로 398,35.6575277,128.0546564
오도산치유의숲,경남 합천군,경상남도 합천군 봉산면 오도산휴양로 208,35.6529902,128.0546378
오도재와 지리산조망공원,경남 함양군,경상남도 함양군 마천면 지리산가는길 534,35.4415785,127.6933611
오동동 통술거리,경남 창원시,경상남도 창원시 마산합포구 오동동,35.2087917,128.5785763
오두산 치유숲,경남 고성군,경상남도 고성군 상리면 신촌리,35.0159362,128.1640812
오례사,경남 거창군,경상남도 거창군 신원면 오례길 127-5,35.5702104,127.8912265
오봉계곡,경남 산청군,경상남도 산청군 금서면 화계오봉로,35.4588605,127.7871253
오봉산,경남 양산시,경상남도 양산시 물금읍 원동로,35.3159931,128.9831451
오봉서원,경남 밀양시,경상남도 밀양시 초동면 오방길 9-12,35.4239332,128.6670094
오체향마을,경남 창원시,경상남도 창원시 의창구 북면 구룡로 79-15,35.2885495,128.6185788
옥계서원(합천),경남 합천군,경상남도 합천군 봉산면 서부로 3078-13,35.5756073,127.9976699
옥녀봉(거제),경남 거제시,경상남도 거제시 아주동,34.8709677,128.6816875
옥동 힐링가든,경남 거제시,경상남도 거제시 둔덕면 청마로 665-13,34.870232,128.5461852
옥산서원,경남 하동군,경상남도 하동군 옥종면 옥산서원길 61-7,35.1622588,127.8883618
옥산성지,경남 거제시,경상남도 거제시 삼동동,34.8663029,128.6303644
옥전서원,경남 합천군,경상남도 합천군 쌍책면 황강옥전로 1510-60,35.5831118,128.2783124
옥천사(고성),경남 고성군,경상남도 고성군 개천면 연화산1로 471-9,35.0803924,128.2624342
옥포대첩기념공원,경남 거제시,경상남도 거제시 팔랑포2길 87,34.9000691,128.7113233
와룡산,경남 사천시,경상남도 사천시 사남면,35.0525365,128.0752175
와현모래숲해변,경남 거제시,경상남도 거제시 일운면 와현해변길,34.8134207,128.7059696
완계서원,경남 산청군,경상남도 산청군 신등면 신등가회로114번길 61,35.3843982,128.0198424
왕산·필봉산,경남 산청군,경남 산청군 금서면 구형왕릉로,35.452991,127.7995579
왕지등대마을,경남 남해군,경상남도 남해군 설천면 설천로864번길 53,34.9392603,127.9037906
왜가리 서식지(의령),경남 의령군,경남 의령군 가례면,35.3267076,128.2452646
외도 구조라 유람선,경남 거제시,경상남도 거제시 일운면 구조라로 38,34.8052069,128.6947366
외도 보타니아,경남 거제시,경상남도 거제시 일운면 외도길 17,34.7695151,128.7129598
외도와현유람선,경남 거제시,경상남도 거제시 일운면 와현해변길 46,34.8118481,128.7047638
외포리 대구탕거리,경남 거제시,경상남도 거제시 장목면 외포5길 60,34.9393227,128.717777
외포항,경남 거제시,경상남도 거제시 장목면 외포5길 48,34.9405823,128.7172713
요라파목장 (구 가나안목장),경남 사천시,경상남도 사천시 곤양면 고동포로 289,35.0583954,128.0130494
욕지도 (유동어촌체험마을),경남 통영시,경상남도 통영시 욕지면 욕지일주로 1148-115,34.6245523,128.245857
용두연유원지,경남 밀양시,경상남도 밀양시 용평동,35.4920745,128.7705594
용문사 계곡,경남 남해군,경상남도 남해군 이동면 용문사길,34.7832239,127.9285441
용문사(남해),경남 남해군,경상남도 남해군 이동면 용문사길 166-11,34.7881125,127.9230147
용산서원(밀양),경남 밀양시,경상남도 밀양시 멍에실로 117-4,35.4782832,128.782193
용안서원,경남 밀양시,경상남도 밀양시 무안면 내진1길 39-18,35.5291039,128.6514094
용암서원(합천),경남 합천군,경상남도 합천군 삼가면 남명로 72-5,35.3826909,128.1042298
용암정(거창),경남 거창군,경상남도 거창군 북상면 말목고개길 222-240,35.767506,127.8212261
용원서원,경남 거창군,경상남도 거창군 가북면 어인길 41,35.7411688,127.9929398
용유담,경남 함양군,경상남도 함양군 휴천면 문상길,35.4362356,127.7277708
용지호수공원,경남 창원시,경상남도 창원시 의창구 용지로169번길 26,35.2320738,128.6810345
용추사(함양),경남 함양군,경상남도 함양군 안의면 용추계곡로 623,35.687224,127.7630343
용추자연휴양림,경남 함양군,경상남도 함양군 안의면 용추휴양림길 158,35.6953479,127.7580524
용호도,경남 통영시,경상남도 통영시 한산면 용호리,34.7423154,128.4857904
용화사(통영),경남 통영시,경상남도 통영시 봉수로 107-82,34.8184747,128.4155233
우계당서원,경남 산청군,경상남도 산청군 차황면 친환경로3612번길 108,35.4576395,127.9307782
우곡사(창원),경남 창원시,경상남도 창원시 의창구 동읍 자여로 459,35.2493609,128.7163245
우도,경남 창원시,경상남도 창원시 진해구 우도로 5,35.0884797,128.7221981
우도(통영),경남 통영시,경상남도 통영시 욕지면 연화리,34.645811,128.3523754
우두산,경남 거창군,경남 거창군 가조면 수월리,35.731059,128.0339178
운강서원,경남 진주시,경상남도 진주시 금곡면 금곡로 197-24,35.1258477,128.203335
운구서원,경남 합천군,경상남도 합천군 가회면 두심1길 51-50,35.4848172,128.0162093
운대암(남해),경남 남해군,경상남도 남해군 창선면 창선로153번길 240,34.8672375,127.9906276
운리 야매,경남 산청군,경상남도 산청군 단성면,35.2988608,127.9576618
운암서원(창원),경남 창원시,경상남도 창원시 의창구 사화로 311,35.2410375,128.6355987
운흥사(경남),경남 고성군,경상남도 고성군 하이면 와룡2길 248-28,34.9586227,128.153517
웅석계곡,경남 산청군,경상남도 산청군 산청읍 호암로1253번길,35.366752,127.9028467
웅석봉군립공원,경남 산청군,경상남도 산청군 산청읍 웅석봉로,35.4038967,127.8761147
웅천안골왜성,경남 창원시,경상남도 창원시 진해구 안골동,35.0864348,128.7914554
웅천왜성,경남 창원시,경상남도 창원시 진해구 남문동,35.1074146,128.7602218
원동자연휴양림,경남 양산시,경상남도 양산시 원동면 늘밭로 64,35.3988168,128.9347629
원명사(김해),경남 김해시,경상남도 김해시 대동면 대동로529번길 83,35.2499764,128.9736398
원예예술촌,경남 남해군,경상남도 남해군 삼동면 예술길 39,34.8037056,128.0362633
원천정,경남 거창군,경상남도 거창군 가조면 원천1길 80,35.7287445,127.9934659
원효암(양산),경남 양산시,경상남도 양산시 상북면 천성산길 727-82,35.3832595,129.0929161
월봉서원,경남 김해시,경상남도 김해시 덕정로77번길 11-12,35.1809124,128.7950985
월성계곡,경남 거창군,경남 거창군 북상면 월성리,35.7642775,127.7256601
월여산,경남 거창군,경남 거창군 신원면 구사리,35.567697,127.9486425
월영대,경남 창원시,경상남도 창원시 마산합포구 밤밭고개로 442,35.1800654,128.557357
위계서원,경남 고성군,경상남도 고성군 마암면 석마2길 186,35.0560751,128.3076302
위양지(양양지),경남 밀양시,경상남도 밀양시 부북면 위양로 273-36,35.5465761,128.716224
유곡천,경남 의령군,경남 의령군 유곡면 청정로9동길,35.420478,128.2917456
유동어촌체험마을,경남 통영시,경상남도 통영시 욕지면 욕지일주로 1148-115,34.6245523,128.245857
유학사(의령),경남 의령군,경상남도 의령군 부림면 여배로5길 2,35.5048889,128.3178995
윤이상 거리,경남 통영시,경상남도 통영시 박효자길 1,34.8389899,128.4132326
윤이상 기념공원(도천테마파크),경남 통영시,경상남도 통영시 중앙로 27,34.8383456,128.4138147
윤이상 생가,경남 통영시,경상남도 통영시 중앙로 27,34.8383456,128.4138147
율곡사,경남 산청군,경상남도 산청군 신등면 율곡사길 182,35.4159695,127.9663539
은하사(김해),경남 김해시,경상남도 김해시 신어산길 167,35.2657526,128.913147
음악분수 휴게광장,경남 통영시,경상남도 통영시 도남동,34.8266933,128.4269384
응석사(진주),경남 진주시,경상남도 진주시 집현면 응석로 435,35.2967774,128.0587085
의곡사(진주),경남 진주시,경상남도 진주시 의곡길 72,35.2040886,128.0816987
의기사와 의암,경남 진주시,경상남도 진주시 남강로 626,35.1784006,128.0974023
의령 청미래체험휴양마을,경남 의령군,경상남도 의령군 의령읍 수암로2길 1-4,35.3086654,128.2398068
의령향교,경남 의령군,경상남도 의령군 의령읍 의병로15길 30,35.3217775,128.2580886
의룡산,경남 합천군,경상남도 합천군 용주면,35.5406064,128.1133871
의림사 삼층석탑,경남 창원시,경상남도 창원시 마산합포구 진북면 의림로 382,35.1384544,128.4400315
의신마을,경남 하동군,경상남도 하동군 화개면 대성리,35.2843631,127.6637639
의양서원,경남 의령군,경상남도 의령군 유곡면 청정로16길 57-57,35.4284897,128.3176607
이수도(거제),경남 거제시,경상남도 거제시 장목면 이수도길 10,34.9678639,128.7251263
이순신공원,경남 통영시,경상남도 통영시 멘데해안길 205,34.8446775,128.4420291
이순신의 물의나라 워터랜드,경남 통영시,경상남도 통영시 도남동,34.8266933,128.4269384
이중섭 거주지(통영),경남 통영시,경상남도 통영시 항남3길 25,34.841634,128.4225249
인곡리모과나무,경남 창원시,경상남도 창원시 마산합포구 진북면 의림로 382,35.1384544,128.4400315
인천서원,경남 하동군,경상남도 하동군 북천면 중촌길 51-22,35.1282394,127.8702687
일붕사(의령),경남 의령군,경상남도 의령군 궁류면 청정로 1180-42,35.4358203,128.2388406
일원정,경남 거창군,경상남도 거창군 남상면 밤티재로 863,35.6450335,127.9530468
일월사(양산),경남 양산시,경상남도 양산시 상북면 수서로 74,35.4265173,129.059135
임진성,경남 남해군,경상남도 남해군 남면 상가리,34.7884241,127.8710296
임천서원,경남 진주시,경상남도 진주시 금산면 금산순환로382번길 13,35.2313237,128.1633628
임항선 그린웨이,경남 창원시,경상남도 창원시 마산합포구 반월동5길 38,35.189182,128.5640613
입곡 저수지 드라이브길,경남 함안군,경상남도 함안군 산인면 입곡공원길 225,35.2623282,128.4467785
입곡군립공원,경남 함안군,경상남도 함안군 산인면 입곡공원길,35.2623282,128.4467785
자굴산,경남 의령군,경상남도 의령군 칠곡면 자굴산로8길,35.3569871,128.1964167
자란도,경남 고성군,경상남도 고성군 하일면 송천리,34.9240816,128.1936253
장목진객사,경남 거제시,경상남도 거제시 장목면 장목5길 9,34.9849701,128.6790477
장복산조각공원,경남 창원시,경상남도 창원시 진해구 장복산길 56-42,35.1751072,128.6610361
장사도,경남 통영시,경상남도 통영시 한산면 장사도,34.7126835,128.5596744
장사도 가배 유람선,경남 거제시,경상남도 거제시 동부면 거제남서로 2271-1,34.7851214,128.5691596
장사도 유람선,경남 거제시,경상남도 거제시 남부면 근포1길 71,34.7207045,128.5873884
장사도해상공원,경남 통영시,경상남도 통영시 한산면 장사도길 55,34.7137371,128.5588905
장산숲,경남 고성군,경상남도 고성군 마암면 옥천로 352,35.0593147,128.3266886
장승포항,경남 거제시,경상남도 거제시 장승로 138,34.8661182,128.7246586
장어구이 거리,경남 창원시,경상남도 창원시 마산합포구 수산1길 74,35.199844,128.5757451
장유대청계곡,경남 김해시,경남 김해시 장유면 월산로,35.2035201,128.8057914
장유사,경남 김해시,경상남도 김해시 대청계곡길 170-563,35.1964156,128.755985
장유암(김해),경남 김해시,경상남도 김해시 대청계곡길 170-563,35.1964156,128.755985
장의사(고성),경남 고성군,경상남도 고성군 거류면 신용9길 295,34.9837242,128.3907438
장척계곡,경남 김해시,경상남도 김해시 상동면 장척로 544,35.2894079,128.9253275
장춘사(함안),경남 함안군,경상남도 함안군 칠북면 북원로 110-1,35.3274564,128.5586176
장풍숲,경남 거창군,경상남도 거창군 마리면 율리,35.7358858,127.8649743
재약산,경남 밀양시,경상남도 밀양시 단장면 구천리,35.5351139,128.9550304
저도,경남 거제시,경상남도 거제시 장목면 유호리 산88-1,35.0183177,128.7406017
저도 콰이강의 다리 스카이워크,경남 창원시,경상남도 창원시 마산합포구 구산면 해양관광로 1872-60,35.0675669,128.5628474
저도(딱섬),경남 사천시,경상남도 사천시 저도길 17-11,34.9431675,128.0294418
저도(창원),경남 창원시,경상남도 창원시 마산합포구 구산면,35.1195177,128.5805131
저산서원(창원),경남 창원시,경상남도 창원시 의창구 대산면 유등로332번길 42-7,35.341419,128.7456272
적량해비치마을,경남 남해군,경상남도 남해군 창선면 흥선로 1196,34.8601999,128.05951
적석산,경남 창원시,경상남도 창원시 마산합포구 진전면 적석산길,35.1193787,128.3679413
정법사(창원),경남 창원시,경상남도 창원시 마산합포구 몽고정길 46,35.2065719,128.5719969
정병산,경남 창원시,경상남도 창원시 의창구 동읍 자여로,35.2702899,128.7031816
정산서원,경남 함양군,경상남도 함양군 지곡면 정취길 80-21,35.5487706,127.7471685
정암루(솥바위),경남 의령군,경상남도 의령군 의령읍 남강로 686,35.3138547,128.2948883
정양늪생태공원,경남 합천군,경상남도 합천군 대양면 대야로 730,35.553283,128.1627934
정취암,경남 산청군,경상남도 산청군 신등면 둔철산로 675-87,35.3896308,127.9749212
정취암 가는길,경남 산청군,경상남도 산청군 신등면,35.3827895,128.0066202
제전마을,경남 고성군,경남 고성군 하이면 덕명리,34.9043023,128.136892
제황산공원,경남 창원시,경상남도 창원시 진해구 중원동로 52,35.1486006,128.6639199
조도,경남 남해군,경상남도 남해군 미조면 조도길 5-10,34.6975938,128.0508445
조명군총,경남 사천시,경상남도 사천시 용현면 선진리,35.0445756,128.0515211
종천서원,경남 하동군,경상남도 하동군 옥종면 안계길 67-63,35.2143523,127.8657745
주남저수지 생태학습관,경남 창원시,경상남도 창원시 의창구 동읍 주남로101번길 26,35.3073185,128.6779412
주남저수지(철새도래지),경남 창원시,경상남도 창원시 의창구 동읍 주남로101번길 26,35.3073185,128.6779412
죽도(통영),경남 통영시,경상남도 통영시 한산면 죽도,34.810883,128.4564
죽림해수욕장,경남 거제시,경상남도 거제시 거제면 오수리,34.8390695,128.5954898
중동서원,경남 합천군,경상남도 합천군 합천읍 충효로 46,35.5644389,128.1611624
중산리자연휴양림,경남 산청군,경상남도 산청군 시천면 지리산대로 496-101,35.2888009,127.7739882
증산서원,경남 창원시,경상남도 창원시 마산회원구 내서읍 원계증산길 57-11,35.2318007,128.5085892
지곡사(산청),경남 산청군,경상남도 산청군 산청읍 웅석봉로 396,35.3874977,127.8771319
지리산 가는길,경남 함양군,경상남도 함양군 휴천면,35.4806845,127.7502566
지리산 애완곤충농원,경남 함양군,경상남도 함양군 안의면 용추계곡로 119-2,35.6534621,127.7973057
지리산 천왕봉,경남 산청군,경상남도 산청군 시천면 지리산대로,35.2888009,127.7739882
지리산국립공원,경남 산청군,경상남도 산청군 시천면 남명로 376,35.2732309,127.8385625
지리산국립공원(산청),경남 산청군,경상남도 산청군 시천면 지리산대로 320-2,35.3062429,127.7482949
지리산국립공원(하동),경남 하동군,경상남도 하동군 화개면 화개로,35.2267796,127.6366809
지리산국립공원(함양),경남 함양군,경상남도 함양군 마천면 백무동로,35.3680438,127.6743569
지리산생태과학관,경남 하동군,경상남도 하동군 악양면 섬진강대로 3358-30,35.1506729,127.6752582
지리산역사관,경남 하동군,경상남도 하동군 화개면 화개로 1438,35.2157185,127.6377323
지리산참숯굴찜질방,경남 산청군,경상남도 산청군 단성면 지리산대로 2741-24,35.272717,127.9211084
지심도,경남 거제시,경상남도 거제시 일운면 지심도길 31-2,34.8179844,128.7485295
진양호,경남 진주시,경상남도 진주시 판문동,35.1775693,128.0366921
"진양호 공원 (진양호 전망대, 동물원)",경남 진주시,경상남도 진주시 남강로1번길 130,35.1771893,128.0365623
진양호 일주도로,경남 진주시,경상남도 진주시 남강로1번길 126,35.1771893,128.0365623
진양호자연생태문화탐방로,경남 진주시,경상남도 진주시 남강로1번길 96-6,35.1771893,128.0365623
진영 봉하마을과 노무현 대통령 생가,경남 김해시,경상남도 김해시 진영읍 봉하로 129,35.3144453,128.7711471
진주 내촌호수마을,경남 진주시,경상남도 진주시 대평면 금성로 422-33,35.1599959,127.9904273
진주 대암초록마을,경남 진주시,경상남도 진주시 집현면 진산로 1141,35.266678,128.079372
진주 유수리 백악기화석 산지,경남 진주시,경상남도 진주시 내동면 유수길75번길,35.1219521,128.0111987
진주 음악분수대,경남 진주시,경상남도 진주시 남강로 542,35.1784006,128.0974023
진주성,경남 진주시,경상남도 진주시 남강로 626,35.1784006,128.0974023
진주향교,경남 진주시,경상남도 진주시 향교로 99-3,35.1973607,128.0923958
진해 행암마을,경남 창원시,경상남도 창원시 진해구 행암로 223,35.1155832,128.7009351
진해근대문화투어(군항문화탐방길),경남 창원시,경상남도 창원시 진해구 충장로 25,35.1535933,128.6543524
진해내수면 환경생태공원,경남 창원시,경상남도 창원시 진해구 여명로71번길 65,35.1569101,128.658918
진해보타닉뮤지엄,경남 창원시,경상남도 창원시 진해구 진해대로1137번길 89,35.1300149,128.7175656
진해현관아 및 객사유지,경남 창원시,경상남도 창원시 마산합포구 진동면 성산길 54,35.1149241,128.488556
착량묘,경남 통영시,경상남도 통영시 착량길 27,34.8358036,128.410558
창녕 교동과 송현동 고분군,경남 창녕군,경상남도 창녕군 창녕읍 창밀로 34,35.5453928,128.5055114
창녕 만옥정공원,경남 창녕군,경상남도 창녕군 창녕읍 교상리 28-22,35.5407662,128.5015861
창녕 석빙고,경남 창녕군,경상남도 창녕군 창녕읍 송현리 288,35.5426073,128.4984246
창녕 송현동 마애여래좌상,경남 창녕군,경상남도 창녕군 창녕읍 화왕산로 55-12,35.5414375,128.5074551
창녕 술정리 동 삼층석탑,경남 창녕군,경상남도 창녕군 창녕읍 술정리,35.5371282,128.4918577
창녕 술정리 서삼층석탑,경남 창녕군,경상남도 창녕군 창녕읍 술정리 309-4,35.5405245,128.4897789
창녕 신라 진흥왕 척경비,경남 창녕군,경상남도 창녕군 창녕읍 교상리 28-1,35.5408406,128.5025647
창녕 영산 석빙고,경남 창녕군,경상남도 창녕군 영산면 교리,35.4584291,128.5414995
창녕 우포가시연꽃마을,경남 창녕군,경상남도 창녕군 대합면 닭계1길 12,35.5747246,128.4371584
창녕 우포늪,경남 창녕군,경상남도 창녕군 유어면 우포늪길 220,35.5445046,128.4185565
창녕 인양사 조성비,경남 창녕군,경상남도 창녕군 창녕읍 교리 302-3,35.5438669,128.4943871
창녕 진양하씨 고택,경남 창녕군,경상남도 창녕군 창녕읍 시장1길 63,35.5404148,128.4961117
창녕군 우포늪,경남 창녕군,경상남도 창녕군 유어면 우포늪길 220,35.5445046,128.4185565
창녕석리성씨고가,경남 창녕군,경상남도 창녕군 대지면 석동1길 11,35.5570822,128.4594345
창녕지석묘,경남 창녕군,경상남도 창녕군 장마면 유리,35.4449397,128.4735819
창녕포교당,경남 창녕군,경상남도 창녕군 창녕읍 신당2길 4-3,35.539547,128.5030143
창녕향교,경남 창녕군,경상남도 창녕군 창녕읍 향교길 54,35.5477461,128.4979756
창동예술촌,경남 창원시,경상남도 창원시 마산합포구 오동서6길 24,35.2070451,128.5746735
창렬사,경남 진주시,경상남도 진주시 남강로 626,35.1784006,128.0974023
창선교와 원시어업 죽방렴,경남 남해군,경상남도 남해군 삼동면 지족리,34.8250979,127.9979422
창선대교타운,경남 남해군,경상남도 남해군 창선면 동부대로2964번길,34.9175886,128.0310524
창선도(장포마을),경남 남해군,경상남도 남해군 창선면 창선로97번길 6,34.8577717,128.0121351
창원 성산 패총,경남 창원시,경상남도 창원시 성산구 성산패총로 137,35.2066232,128.6805946
창원 신방리 음나무 군,경남 창원시,경상남도 창원시 의창구 동읍 동읍로,35.3129409,128.6682618
창원 장미공원,경남 창원시,경남 창원시 성산구 가음동 31,35.2074414,128.6900412
창원 주남저수지,경남 창원시,경상남도 창원시 의창구 동읍 대산면 일원,35.2847297,128.6823332
창원 진례산성,경남 창원시,경상남도 창원시 성산구 토월동,35.2315871,128.7162246
창원 진해우체국,경남 창원시,경상남도 창원시 진해구 백구로 40,35.1490819,128.6603065
창원 편백 치유의 숲,경남 창원시,경상남도 창원시 진해구 장복산길 47,35.1720534,128.658852
창원단감테마공원,경남 창원시,경상남도 창원시 의창구 동읍 동읍로359번길 27,35.2972382,128.6608254
창원솔라타워,경남 창원시,경상남도 창원시 진해구 명동로 62,35.0921752,128.7193638
창원해양공원,경남 창원시,경상남도 창원시 진해구 명동로 62,35.0921752,128.7193638
창원향교,경남 창원시,경상남도 창원시 의창구 의안로59번길 6,35.2673267,128.6235238
창의사(합천),경남 합천군,경상남도 합천군 대병면 합천호수로 258-1,35.528945,128.035226
창충사,경남 거창군,경상남도 거창군 거창읍 창동로 167-11,35.6922478,127.9190927
창포 해안길,경남 창원시,경상남도 창원시 마산합포구 구산면 해양관광로 1872-60,35.0675669,128.5628474
천불사(경남),경남 양산시,경상남도 양산시 매곡4길 35,35.369493,129.1710932
천성산,경남 양산시,경상남도 양산시 하북면,35.4893069,129.0869475
천태산,경남 양산시,경상남도 양산시 원동면,35.3646853,128.9187874
천호엔케어,경남 양산시,경상남도 양산시 그린공단1길 27,35.3631186,129.1723172
천황산,경남 밀양시,경상남도 밀양시 단장면,35.5152332,128.875983
첨두서원,경남 창원시,경상남도 창원시 마산회원구 내서읍 삼계로 63,35.2313208,128.4978164
청계계곡,경남 산청군,경상남도 산청군 단성면 호암로701번길,35.3380994,127.8980177
청계서원(진주),경남 진주시,경상남도 진주시 본성동,35.1905961,128.0819629
청계서원(함안),경남 함안군,경상남도 함안군 칠서면 청계1길 116-12,35.3303837,128.4952288
청계서원(함양),경남 함양군,경상남도 함양군 수동면 수동2길 74,35.5497028,127.783381
청계서원(합천),경남 합천군,경상남도 합천군 율곡면 내천2길 23-61,35.61054,128.2335804
청곡리지석묘,경남 거제시,경상남도 거제시 사등면 청곡리,34.8991034,128.5057302
청곡사(진주),경남 진주시,경상남도 진주시 금산면 월아산로1440번길 138,35.1907784,128.1810848
청곡서원,경남 산청군,경상남도 산청군 신안면 청현로99번길 32-19,35.3216001,128.009164
청널공원,경남 사천시,경상남도 사천시 청널길 38-35,34.9273485,128.064507
청량사(합천),경남 합천군,경상남도 합천군 가야면 청량동길 144,35.7722103,128.1094981
청련암(창녕),경남 창녕군,경상남도 창녕군 계성면 계성화왕산로 288-102,35.4903985,128.5436023
청룡대각석,경남 창원시,경상남도 창원시 진해구 가주로 35,35.1094714,128.8399594
청마 생가,경남 통영시,경상남도 통영시 망일1길 82,34.8452694,128.4353621
청마거리,경남 통영시,경남 통영시 중앙동,34.8465818,128.4269332
청암 하동호 산중호수길,경남 하동군,경상남도 하동군 청암면,35.1560432,127.8000306
청암계곡,경남 하동군,경상남도 하동군 청암면 청학로,35.1929251,127.7620166
청학동 명륜학당,경남 하동군,경상남도 하동군 청암면 청학로 2359-12,35.2352899,127.7244342
청학동예절학교 선비서당,경남 하동군,경상남도 하동군 청암면 원묵길 60-10,35.2464263,127.7335972
초계향교,경남 합천군,경상남도 합천군 초계면 교촌3길 18-4,35.5613994,128.2631324
초선대마애석불,경남 김해시,경상남도 김해시 김해대로2580번길 21,35.2271783,128.9094817
촉석루,경남 진주시,경상남도 진주시 남강로 626,35.1784006,128.0974023
총림선원(진주),경남 진주시,경상남도 진주시 망진산길 71,35.1768416,128.0779155
최참판댁,경남 하동군,경상남도 하동군 악양면 평사리길 66-7,35.1556978,127.6884183
추도,경남 통영시,경상남도 통영시 산양읍 추도리,34.7551556,128.2935685
추봉도,경남 통영시,경상남도 통영시 한산면,34.7671397,128.5077047
추산근린공원,경남 창원시,경상남도 창원시 마산합포구 문신길 147,35.2065821,128.5690602
충렬사,경남 통영시,경상남도 통영시 여황로 251,34.8466263,128.4178473
충렬사와 거북선,경남 남해군,경상남도 남해군 설천면 노량로183번길 27,34.94194,127.8755844
충무교와 통영운하,경남 통영시,경상남도 통영시 당동,34.8358842,128.4060307
충무김밥거리,경남 통영시,경상남도 통영시,34.8544227,128.433182
충무시문화동벅수,경남 통영시,경상남도 통영시 세병로 26,34.8475453,128.4231521
충익사 의병탑,경남 의령군,경상남도 의령군 의령읍 충익로 1,35.3157369,128.261559
충익사(의령),경남 의령군,경상남도 의령군 의령읍 충익로 1,35.3157369,128.261559
충혼탑,경남 창원시,경상남도 창원시 의창구 충혼로 29,35.2281678,128.6572554
칠보정사(하동),경남 하동군,경상남도 하동군 적량면 칠성로 748-8,35.1377853,127.7605396
칠불사(하동),경남 하동군,경상남도 하동군 화개면 범왕길 528,35.2833959,127.6073945
칠선계곡(지리산),경남 함양군,경상남도 함양군 마천면 추성리,35.3681959,127.7113855
칠원향교,경남 함안군,경상남도 함안군 칠원읍 용산4길 60-1,35.3081981,128.5134512
칠탄서원,경남 밀양시,경상남도 밀양시 단장면 활성로 313-1,35.4864277,128.8001671
탑바위(의령),경남 의령군,경상남도 의령군 정곡면 죽전리 252,35.3652013,128.3232196
태암서원,경남 의령군,경상남도 의령군 용덕면 덕암로5길 5-2,35.3403971,128.2760377
통도 아쿠아 환타지아,경남 양산시,경상남도 양산시 하북면 통도7길 68,35.4999907,129.0831382
통도사[유네스코 세계문화유산],경남 양산시,경상남도 양산시 하북면 통도사로 108,35.4879503,129.0643366
통도환타지아,경남 양산시,경상남도 양산시 하북면 통도7길 68,35.4999907,129.0831382
통영 삼도수군통제영,경남 통영시,경상남도 통영시 세병로 27,34.8472457,128.423553
통영 섬탄다,경남 통영시,경상남도 통영시 도남로 269-20,34.8278387,128.4340295
통영 세병관,경남 통영시,경상남도 통영시 세병로 27,34.8472457,128.423553
통영 연명어촌체험마을,경남 통영시,경상남도 통영시 산양읍 연명길 134,34.7813333,128.3947476
통영 욕지섬 모노레일,경남 통영시,경상남도 통영시 욕지면 욕지일주로 1467,34.65038,128.240845
통영 한산도 이충무공 유적,경남 통영시,경상남도 통영시 한산면 한산일주로 70,34.7931145,128.4732333
통영RCE세자트라숲,경남 통영시,경상남도 통영시 용남면 용남해안로 116,34.86477,128.4500602
통영가스홍보관,경남 통영시,경상남도 통영시 광도면 안정로 770,34.9473687,128.4203339
통영대교,경남 통영시,경상남도 통영시 미수해안로 53-1,34.8301504,128.4046361
통영등대낚시공원,경남 통영시,경상남도 통영시 산양읍 삼칭이해안길 290,34.8164653,128.4386363
통영마리나리조트,경남 통영시,경상남도 통영시 큰발개1길 33,34.8276983,128.4400011
통영밤바다 야경투어,경남 통영시,경상남도 통영시 도남로 269-20,34.8278387,128.4340295
통영유람선,경남 통영시,경상남도 통영시 도남로 269-38,34.8286608,128.4337955
통영파라스파,경남 통영시,경상남도 통영시 미우지해안로 29,34.8278965,128.4030869
통영항,경남 통영시,경상남도 통영시 통영해안로 234,34.8396265,128.4196368
통영항 꿀빵거리,경남 통영시,경상남도 통영시 중앙동,34.8465818,128.4269332
통영향교,경남 통영시,경상남도 통영시 광도면 향교길 82,34.8787486,128.4077435
트윈터널,경남 밀양시,경상남도 밀양시 삼랑진읍 삼랑진로 537-11,35.4082812,128.8077945
파사석탑,경남 김해시,경상남도 김해시 가락로190번길 19-7,35.2436462,128.8788049
팔용산 돌탑,경남 창원시,경남 창원시 마산회원구 봉암동,35.2177911,128.6023239
편백나무숲속 나폴리농원,경남 통영시,경남 통영시 산양읍 영운리 미륵산길 152,34.8015997,128.424209
평사리공원,경남 하동군,경상남도 하동군 악양면 섬진강대로 3145-1,35.1358164,127.6918321
평사리들판,경남 하동군,경남 하동군 악양면 평사리,35.1511011,127.6829681
평인 노을길,경남 통영시,경상남도 통영시 평인일주로 132,34.853931,128.3995582
평천서원,경남 산청군,경상남도 산청군 생초면 왕산로 439-13,35.4800229,127.8305662
포충사,경남 거창군,경상남도 거창군 웅양면 원촌3길 29,35.8056535,127.9172452
표충비,경남 밀양시,경상남도 밀양시 무안면 동부동안길 4,35.4715075,128.6510394
표충사(밀양),경남 밀양시,경상남도 밀양시 단장면 표충로 1338,35.5326137,128.9601149
표충서원,경남 밀양시,경상남도 밀양시 단장면 표충로 1338,35.5326137,128.9601149
하동 고소성,경남 하동군,경상남도 하동군 악양면 평사리,35.1511011,127.6829681
하동 대도어촌체험마을,경남 하동군,경남 하동군 금남면 대도리 98,34.9330449,127.8318857
하동 범왕리 푸조나무,경남 하동군,경상남도 하동군 화개면 화개로 967,35.2267796,127.6366809
하동 삼신녹차마을,경남 하동군,경상남도 하동군 화개면 삼신길 7,35.2102507,127.6372746
하동 악양,경남 하동군,경상남도 하동군 악양면 평사리길 35,35.1530309,127.6889213
하동 옥종딸기마을,경남 하동군,경상남도 하동군 옥종면 북방우회길 7-4,35.164016,127.9294977
하동송림,경남 하동군,경상남도 하동군 하동읍 섬진강대로 2107-8,35.0855785,127.7273781
하동향교,경남 하동군,경상남도 하동군 하동읍 향교2길 5,35.0704693,127.7434846
하성,경남 거창군,경상남도 거창군 웅양면 한기리,35.8664853,127.9249724
학동마을,경남 거제시,경상남도 거제시 동부면 학동6길 18-1,34.7732898,128.6402494
학동흑진주몽돌해변,경남 거제시,경상남도 거제시 동부면 학동6길 18-1,34.7732898,128.6402494
학림서원,경남 거창군,경상남도 거창군 위천면 황산2길 137,35.7647988,127.8401001
학방암(하동),경남 하동군,경상남도 하동군 양보면 상고개로 377-59,35.0646731,127.8730149
한려수도 조망케이블카,경남 통영시,경상남도 통영시 발개로 205,34.8264304,128.4254229
한려해상 국립공원,경남 사천시,경상남도 사천시 용현면 대밭담로 5-9,35.0079873,128.0612647
한려해상 국립공원(동부),경남 통영시,경상남도 통영시 도남로 117,34.8311668,128.4173461
한려해상국립공원(거제),경남 거제시,경상남도 거제시 장승포동,34.8560493,128.7250423
한려해상국립공원(사천),경남 사천시,경상남도 사천시 늑도동,34.9227084,128.0368871
한려해상국립공원(통영),경남 통영시,경상남도 통영시 산양읍,34.8034883,128.3957402
한려해상국립공원(하동),경남 하동군,경상남도 하동군 금남면,34.9505316,127.8590187
한려해상국립공원(한려수도),경남 거제시,경상남도 사천시 용현면 대밭담로 5-9,35.0079873,128.0612647
한산대첩기념비,경남 통영시,경상남도 통영시 한산면 한산일주로 70,34.7931145,128.4732333
한산도,경남 통영시,경상남도 통영시 한산면,34.7671397,128.5077047
한산도 망산,경남 통영시,경상남도 통영시 한산면 하소리,34.7644497,128.4898268
한산사(하동),경남 하동군,경상남도 하동군 악양면 평사리길 59-102,35.1519983,127.6814761
한신계곡(백무동계곡),경남 함양군,경남 함양군 마천면 강청길,35.3785395,127.6662316
한우산,경남 의령군,경남 의령군 궁류면 벽계리,35.4156902,128.2028548
한우산 산악 드라이브길,경남 의령군,경상남도 의령군 대의면,35.3718521,128.1083413
한화리조트 거제 벨버디어,경남 거제시,경상남도 거제시 장목면 거제북로 2501-40,35.0065428,128.7119864
함목몽돌해변,경남 거제시,경상남도 거제시 남부면 함목길,34.7403972,128.6518925
함벽루,경남 합천군,경상남도 합천군 합천읍 죽죽길 80,35.5597354,128.1652024
함안 대산리 석조삼존상,경남 함안군,경상남도 함안군 함안면 한절골1길 36-12,35.2554362,128.4286162
함안 말이산 고분군,경남 함안군,경상남도 함안군 가야읍 본동길 114,35.2712032,128.4071173
함안 방어산 마애약사여래삼존입상,경남 함안군,경상남도 함안군 군북면 하림2길 181-78,35.2435972,128.3026494
함안 영동리 회화나무,경남 함안군,경상남도 함안군 칠북면 영동2길 18-31,35.3318192,128.5314145
함안 채미정,경남 함안군,경상남도 함안군 군북면 사군로 1216,35.2353631,128.3264107
함안무기리주씨고가,경남 함안군,경상남도 함안군 칠원읍 무기1길 33,35.2990028,128.5390218
함안무기연당,경남 함안군,경상남도 함안군 칠원읍 무기1길 33,35.2990028,128.5390218
함안주리사지사자석탑,경남 함안군,경상남도 함안군 함안면 함안대로 105-2,35.2414727,128.4208152
함안향교,경남 함안군,경상남도 함안군 함안면 덕암길 103,35.2362356,128.4179107
함양 군자정,경남 함양군,경상남도 함양군 서하면 봉전리,35.6491559,127.7366932
함양 동호정,경남 함양군,경상남도 함양군 서하면 황산리,35.6275153,127.7619541
함양 물레방아떡마을,경남 함양군,경상남도 함양군 안의면 안심길 39,35.6516044,127.801084
함양 화림동 거연정 일원,경남 함양군,경상남도 함양군 서하면 육십령로 2582,35.6267882,127.7376296
함양향교,경남 함양군,경상남도 함양군 함양읍 원교길 46-7,35.5294268,127.7272024
합천 반야사지 원경왕사비,경남 합천군,경상남도 합천군 가야면 해인사길 122,35.8013042,128.0975621
합천 백암리 석등,경남 합천군,경상남도 합천군 대양면,35.5165927,128.1745752
합천 영상테마파크,경남 합천군,경상남도 합천군 합천읍 동서로 119,35.5670285,128.1658076
합천 영암사지,경남 합천군,경상남도 합천군 가회면 황매산로 637-97,35.4741277,128.0028673
합천 옥전 고분군,경남 합천군,경상남도 합천군 쌍책면 성산리,35.5813653,128.2829878
합천댐 물 문화관,경남 합천군,경상남도 합천군 대병면 합천호수로 197,35.5313496,128.0294841
합천자연학교,경남 합천군,경상남도 합천군 대병면 장단길 25,35.5111632,128.0463671
합천향교,경남 합천군,경상남도 합천군 야로면 향교길 17-3,35.7057785,128.1677498
합천호,경남 합천군,경상남도 합천군 대병면 합천호반로,35.5425316,128.0264248
합천호 관광농원,경남 합천군,경상남도 합천군 대병면 합천호수로 310,35.5344003,128.0377933
항도몽돌해수욕장과 항도방파제,경남 남해군,경상남도 남해군 미조면 송정리,34.7430185,128.032001
해금강유람선,경남 거제시,경상남도 거제시 남부면 해금강로 270,34.7397542,128.6635477
해바리마을,경남 남해군,경상남도 남해군 창선면 서부로 255-4,34.8749835,127.9918237
해오름예술촌,경남 남해군,경상남도 남해군 삼동면 동부대로 995,34.7889562,128.0493347
해은사(김해),경남 김해시,경상남도 김해시 가야로405번안길 210-162,35.2460928,128.8925705
해인사(합천),경남 합천군,경상남도 합천군 가야면 해인사길 122,35.8013042,128.0975621
해저터널(통영),경남 통영시,경상남도 통영시 당동,34.8358842,128.4060307
해평열녀사당,경남 통영시,경상남도 통영시 해평5길 131,34.833088,128.4162242
허굴산,경남 합천군,경상남도 합천군 대병면,35.52118,128.0142613
혜산서원,경남 밀양시,경상남도 밀양시 산외면 다원1리길 17-18,35.5042419,128.8134732
호구산군립공원,경남 남해군,경상남도 남해군 이동면 용문사길 166-11,34.7881125,127.9230147
호국사(진주),경남 진주시,경상남도 진주시 남강로 626-71,35.1784006,128.0974023
호박소계곡,경남 밀양시,경상남도 밀양시 산내면 얼음골로 334-1,35.5862303,128.9964758
호암 이병철선생 생가,경남 의령군,경상남도 의령군 정곡면 호암길 22-4,35.3819988,128.3232491
홍룡사(양산),경남 양산시,경상남도 양산시 상북면 홍룡로 372,35.397199,129.0862398
홍룡폭포,경남 양산시,경상남도 양산시 상북면 홍룡로 372,35.397199,129.0862398
홍류동계곡,경남 합천군,경상남도 합천군 가야면 가야산로 1502-9,35.7842378,128.1124128
홍제사(밀양),경남 밀양시,경상남도 밀양시 무안면 동부동안길 4,35.4715075,128.6510394
홍포서원,경남 함안군,경상남도 함안군 칠서면 공단북안길 66,35.375641,128.4722996
화개천계곡,경남 하동군,경상남도 하동군 화개면 쌍계로 199-9,35.2018902,127.6331659
화림동계곡,경남 함양군,경상남도 함양군 안의면,35.6286663,127.8112809
화방사(남해),경남 남해군,경상남도 남해군 고현면 화방사길 128-6,34.8649947,127.8640368
화산서원,경남 함양군,경상남도 함양군 수동면 수동내동길 7-12,35.5230864,127.7887185
화왕산군립공원,경남 창녕군,경상남도 창녕군 창녕읍 옥천리,35.5204183,128.5589227
화전별곡꽃잠 (관광두레 주민사업체),경남 남해군,경상남도 남해군 남해읍 화전로38번길 8,34.8355628,127.8956938
화포천습지 생태공원,경남 김해시,경상남도 김해시 한림면 한림로 183-300,35.309161,128.8044206
황계폭포,경남 합천군,경상남도 합천군 용주면 황계2길 30,35.5113359,128.071184
황곡서원,경남 함안군,경상남도 함안군 가야읍 상검길 22-35,35.2668322,128.4249612
황매산 모산재,경남 합천군,경상남도 합천군 가회면 황매산로 607,35.4572539,128.0143471
황매산(산청),경남 산청군,경상남도 산청군 차황면 황매산로1202번길,35.4812077,127.9607662
황매산군립공원,경남 합천군,경상남도 합천군 가회면 황매산공원길 331,35.4850366,127.9977164
황산전통한옥마을,경남 거창군,경상남도 거창군 위천면 황산2길 19,35.7621343,127.8386667
황석산,경남 함양군,경상남도 함양군 서하면,35.6476193,127.6954621
황포돛대 노래비,경남 창원시,경상남도 창원시 진해구 남영로 373,35.1038575,128.7793344
황포해수욕장,경남 거제시,경상남도 거제시 장목면 황포1길,35.0267705,128.6775098
회원서원,경남 창원시,경상남도 창원시 마산회원구 회원북23길 22,35.2202623,128.5657427
회원현성지,경남 창원시,경상남도 창원시 마산합포구 서원곡2길 119,35.2118552,128.5541539
효산서원,경남 산청군,경상남도 산청군 차황면 신차로1480번길 7,35.4440521,127.954132
흥남해수욕장,경남 거제시,경상남도 거제시 장목면 흥남길,34.9593472,128.7138305
흥부암(김해),경남 김해시,경상남도 김해시 전하로 269-74,35.2263842,128.8697427
