No,name,region,address,경도,위도,상태
1,청남대,충북 청주시,충청북도 청주시 상당구 문의면 청남대길 646,127.490601854282,36.4622308931084,정좌표
2,단양 수양개빛터널,충북 단양군,충청북도 단양군 적성면 수양개유적로 390,128.332464758928,36.9604654071168,정좌표
4,도담삼봉,충북 단양군,충청북도 단양군 매포읍 삼봉로 644-33,128.343216462563,37.0033972987781,정좌표
5,수안보온천 관광특구,충북 충주시,충청북도 충주시 수안보면 주정산로 12,127.989572024151,36.8483669709815,정좌표
6,중앙탑공원(충주),충북 충주시,충청북도 충주시 중앙탑면 중앙탑길 112-28,127.865422669511,37.0161390542678,정좌표
7,보은 법주사[유네스코 세계문화유산],충북 보은군,충청북도 보은군 속리산면 법주사로 405,127.834112536804,36.5419442838917,정좌표
10,청풍호 관광모노레일,충북 제천시,충청북도 제천시 청풍면 청풍명월로 879-17,128.134034421425,37.003153146602,정좌표
11,충주라이트월드,충북 충주시,충청북도 충주시 남한강로 24,127.905571601322,36.9878309108107,정좌표
12,제천 의림지와 제림,충북 제천시,충청북도 제천시 의림지로 33,128.208085950397,37.1740441194366,정좌표
13,옥천 수생식물학습원,충북 옥천군,충청북도 옥천군 군북면 방아실길 255,127.553063572684,36.3914009609977,정좌표
14,충주 탄금대와 탄금대공원,충북 충주시,충청북도 충주시 탄금대안길 105,127.898290790479,36.9882499414599,정좌표
15,청풍문화재단지,충북 제천시,충청북도 제천시 청풍면 청풍호로 2048,128.17002765318,37.0047177027483,정좌표
16,진천만뢰산 자연생태공원,충북 진천군,충청북도 진천군 진천읍 김유신길 340-38,127.36572029366,36.8499144840737,정좌표
18,청풍호반케이블카,충북 제천시,충청북도 제천시 청풍면 문화재길 166,128.166780311178,37.0012644204331,정좌표
20,충북알프스자연휴양림,충북 보은군,충청북도 보은군 산외면 속리산로 1880,127.785513044026,36.5738035825073,정좌표
21,단양강 잔도,충북 단양군,충청북도 단양군 단양읍 삼봉로 31,128.348990214208,36.981761623481,정좌표
25,월악산국립공원,충북 제천시,충청북도 제천시 한수면 미륵송계로 1647,128.078314198177,36.8870519201378,정좌표
26,단양 방곡도깨비마을,충북 단양군,충청북도 단양군 대강면 선암계곡로 148,128.311647582113,36.8282520440763,정좌표
27,단양 고수동굴,충북 단양군,충청북도 단양군 단양읍 고수동굴길 8,128.381664321798,36.9884508298384,정좌표
29,부소담악(추소정),충북 옥천군,충청북도 옥천군 군북면 추소리 519-1,127.557977935853,36.3481781058156,정좌표
31,화양구곡(화양동계곡),충북 괴산군,충청북도 괴산군 청천면 화양동길 78,127.802429459812,36.6730065410036,정좌표
32,충주호관광선 청풍나루,충북 제천시,충청북도 제천시 청풍면 문화재길 54,128.172619764419,37.0080676090624,정좌표
33,수암골 벽화마을,충북 청주시,충청북도 청주시 상당구 수암로 58,127.494308351042,36.6472977307191,정좌표
34,충주 라바랜드,충북 충주시,충청북도 충주시 남한강로 30,127.907786834316,36.9896949783096,정좌표
35,충주세계무술공원,충북 충주시,충청북도 충주시 남한강로 24,127.905571601322,36.9878309108107,정좌표
36,온달관광지,충북 단양군,충청북도 단양군 영춘면 온달로 23,128.492194825131,37.0628295757202,정좌표
37,속리산 숲체험휴양마을,충북 보은군,충청북도 보은군 속리산면 속리산로 596,127.792629011097,36.4903605384196,정좌표
38,단양 사인암,충북 단양군,충청북도 단양군 대강면 사인암2길 42,128.339997887458,36.8942103949671,정좌표
39,배론성지,충북 제천시,충청북도 제천시 봉양읍 배론성지길 296,128.082146812595,37.1616786138891,정좌표
40,조령산자연휴양림,충북 괴산군,충청북도 괴산군 연풍면 새재로 1795,128.050001316226,36.8114302982412,정좌표
41,중부내륙순환열차(O-트레인),충북 제천시,서울특별시 용산구 한강대로 405,126.971731586488,37.5548360733687,정좌표
43,민주지산 자연휴양림,충북 영동군,충청북도 영동군 용화면 휴양림길 60,127.82507721407,36.0534817369052,정좌표
45,구인사(단양),충북 단양군,충청북도 단양군 영춘면 구인사길 73,128.479408675659,37.0311908996017,정좌표
46,앙성탄산온천,충북 충주시,충청북도 충주시 앙성면 가곡로 1457,127.797192953032,37.093843598284,정좌표
47,상수허브랜드,충북 청주시,충청북도 청주시 서원구 남이면 부용외천길 18,127.426279670268,36.5299576696002,정좌표
49,만수계곡,충북 보은군,충청북도 보은군 속리산면 만수길 136,127.867825653562,36.4953733647679,정좌표
50,충주 미륵대원지,충북 충주시,충청북도 충주시 수안보면 미륵리사지길 150,128.094528965612,36.8343011881295,정좌표
51,미동산수목원,충북 청주시,충청북도 청주시 상당구 미원면 수목원길 51,127.667826879405,36.6260981370872,정좌표
52,청풍호 유람선,충북 제천시,충청북도 제천시 청풍면 청풍호로50길 6,128.17734716054,37.0130819362469,정좌표
53,단양 온달동굴,충북 단양군,충청북도 단양군 영춘면 온달로 23,128.492194825131,37.0628295757202,정좌표
54,충주자연호텔,충북 충주시,충청북도 충주시 살미면 팔봉로 1061,127.955778145712,36.8877551983827,정좌표
55,청주 상당산성,충북 청주시,충청북도 청주시 상당구 산성동 산28-2,127.537964345128,36.6653694562582,정좌표
56,좌구산자연휴양림,충북 증평군,충청북도 증평군 증평읍 솟점말길 107,127.650772224001,36.7043762056589,정좌표
57,하늘재,충북 충주시,충청북도 충주시 수안보면 미륵송계로 614,128.067955347447,36.8295430014832,정좌표
59,진천공예마을,충북 진천군,충청북도 진천군 문백면 공예촌길 116-3,127.456797977512,36.789829613703,정좌표
60,문의문화재단지,충북 청주시,충청북도 청주시 상당구 문의면 대청호반로 721,127.494226429256,36.5080689661796,정좌표
61,"장령산자연휴양림(구, 장용산자연휴양림)",충북 옥천군,충청북도 옥천군 군서면 장령산로 519,127.55530774877,36.2456661671223,정좌표
62,한드미마을,충북 단양군,충청북도 단양군 가곡면 한드미길 30-12,128.439031751915,36.989392194233,정좌표
64,단양 다리안관광지,충북 단양군,충청북도 단양군 단양읍 소백산등산길 12,128.419437912134,36.9645820908451,정좌표
65,제천 산야초마을,충북 제천시,충청북도 제천시 수산면 옥순봉로6길 3,128.22658504269,36.9700631988054,정좌표
66,벌랏한지마을,충북 청주시,충청북도 청주시 상당구 문의면 염티소전로 708,127.546999878965,36.4576073739032,정좌표
67,음성큰바위얼굴조각공원,충북 음성군,충청북도 음성군 생극면 일생로 500,127.576363003258,37.0328072383757,정좌표
68,단양 장익는 마을,충북 단양군,충청북도 단양군 대강면 도예로 427-48,128.321083440436,36.817730509545,정좌표
70,음성 흥미진진한 팩토리 투어센터,충북 음성군,충청북도 음성군 대소면 대풍산단로 78,127.465910846584,36.9715130410376,정좌표
72,높은벌,충북 옥천군,충청북도 옥천군 청성면 고당로1길,127.692921146033,36.2771126605929,인근좌표
73,구절사,충북 옥천군,충청북도 옥천군 군서면 상중길 226,127.500201828404,36.3050552242247,정좌표
74,수옥폭포,충북 괴산군,충청북도 괴산군 연풍면 원풍리 141-2,128.026001593975,36.8052897129967,인근좌표
75,소노문 단양 오션플레이,충북 단양군,충청북도 단양군 단양읍 삼봉로 187-17,128.362475009816,36.9784249043013,정좌표
77,용암사(옥천),충북 옥천군,충청북도 옥천군 옥천읍 삼청2길 400,127.564087310386,36.2594285486124,정좌표
79,수암골전망대,충북 청주시,충청북도 청주시 상당구 수동로5번길 2,127.495468409896,36.6464842699347,정좌표
80,금수산,충북 단양군,충청북도 단양군 적성면 상학1길 210,128.267016315059,36.9803184100664,인근좌표
82,풍류문화관,충북 충주시,충청북도 충주시 중앙탑면 탑정안길 10,127.86612713987,37.0182902315544,정좌표
83,월악산국립공원,충북 제천시,충청북도 제천시 한수면 미륵송계로 1647,128.078314198177,36.8870519201378,정좌표
84,금강유원지,충북 옥천군,충청북도 옥천군 동이면 금강로 596,127.671405625648,36.2789012041103,정좌표
85,속리산 관광특구,충북 보은군,충청북도 보은군 속리산면 법주사로 405,127.834112536804,36.5419442838917,정좌표
86,단양고수동굴,충북 단양군,충청북도 단양군 단양읍 고수동굴길 8,128.381664321798,36.9884508298384,정좌표
87,영국사(영동),충북 영동군,충청북도 영동군 양산면 영국동길 225-35,127.610551011837,36.158308026543,정좌표
88,영동 국악체험촌,충북 영동군,충청북도 영동군 심천면 국악로1길 33,127.698809277169,36.212870500724,정좌표
89,괴산 둔율 올갱이마을,충북 괴산군,충청북도 괴산군 칠성면 둔율길 142,127.848762886718,36.7830147012964,정좌표
90,선유구곡(선유동계곡),충북 괴산군,충청북도 괴산군 청천면 선유동길 179,127.880763386853,36.6847546674674,정좌표
91,충주댐,충북 충주시,충청북도 충주시 충주호수로 737,127.990643279191,37.0044387228894,정좌표
92,청주 중앙공원,충북 청주시,충청북도 청주시 상당구 상당로55번길 33,127.488788006853,36.6328520109376,정좌표
93,소백산국립공원,충북 단양군,충청북도 단양군 가곡면 남한강로 494,128.384657738523,37.024356501985,정좌표
94,중원당 (청명주 양조장),충북 충주시,충청북도 충주시 중앙탑면 청금로 112-10,127.878829345379,36.9973122523728,정좌표
95,탁사정,충북 제천시,충청북도 제천시 봉양읍 제원로 478,128.106389320441,37.1667243467193,정좌표
96,충주댐 물 문화관,충북 충주시,충청북도 충주시 동량면 지등로 745,127.997336889195,37.0045122754163,정좌표
97,양방산전망대,충북 단양군,충청북도 단양군 단양읍 양방산길 350,128.38185404857,36.9682531843809,정좌표
99,청주동물원,충북 청주시,충청북도 청주시 상당구 명암로 224,127.522753232606,36.6516916597216,정좌표
100,청룡사(충주),충북 충주시,충청북도 충주시 소태면 청룡사지길 147,127.840191200299,37.1321996297818,정좌표
101,소선암자연휴양림,충북 단양군,충청북도 단양군 단성면 대잠2길 15,128.309782937353,36.9189492966936,정좌표
102,청주에듀피아,충북 청주시,충청북도 청주시 청원구 상당로 314,127.491194322666,36.6569762709758,정좌표
103,수옥정관광지,충북 괴산군,충청북도 괴산군 연풍면 수옥정길 174,128.036234628415,36.8136330581289,정좌표
104,계명산자연휴양림,충북 충주시,충청북도 충주시 충주호수로 1170,127.995200120144,36.9786297464063,정좌표
105,북벽,충북 단양군,충청북도 단양군 영춘면 북벽길 51-3,128.49245125573,37.0845533803389,정좌표
106,교동민화마을(관광두레 주민사업체),충북 제천시,충청북도 제천시 용두천로20길 18,128.216808585624,37.1410624599654,정좌표
109,단양 향산리 삼층석탑,충북 단양군,충청북도 단양군 가곡면 향산1길 14-3,128.417170544111,37.054416061967,정좌표
111,국립 황정산자연휴양림,충북 단양군,충청북도 단양군 대강면 황정산로 239-11,128.34765257369,36.8408226159886,정좌표
112,선암계곡(하선암),충북 단양군,충청북도 단양군 단성면 선암계곡로 1337,128.3093815411,36.9079286147971,정좌표
113,속리산국립공원,충북 보은군,충청북도 보은군 속리산면 법주사로 84,127.817677141233,36.5172811439357,정좌표
114,감곡매괴성모순례지성당,충북 음성군,충청북도 음성군 감곡면 성당길 10,127.641291704506,37.1210901333326,정좌표
115,덕동계곡,충북 제천시,충청북도 제천시 백운면 화당로2길 19,127.987695698999,37.1721229327037,정좌표
116,정지용 생가,충북 옥천군,충청북도 옥천군 옥천읍 향수길 56,127.581586936023,36.3150367259234,정좌표
118,우드트레인,충북 제천시,충청북도 제천시 봉양읍 의암로 698,128.077854409264,37.1008025871815,정좌표
119,연풍성지,충북 괴산군,충청북도 괴산군 연풍면 중앙로홍문2길 14,127.993876811473,36.7638753277946,정좌표
120,대청댐,충북 청주시,대전광역시 대덕구 대청로 618-136,127.481813330483,36.4743036237165,정좌표
121,미타사(음성),충북 음성군,충청북도 음성군 소이면 소이로61번길 164,127.730411987677,36.9551978667666,정좌표
122,정방사,충북 제천시,충청북도 제천시 수산면 옥순봉로12길 165,128.206756775172,36.9991040643269,정좌표
123,박달재자연휴양림,충북 제천시,충청북도 제천시 백운면 금봉로 228,128.045772274268,37.1470596049917,정좌표
124,석문,충북 단양군,충청북도 단양군 매포읍 삼봉로 644-33,128.343216462563,37.0033972987781,정좌표
125,영동 비단강숲마을,충북 영동군,충청북도 영동군 양산면 수두1길 20-27,127.658076927685,36.1327357403254,정좌표
127,충주 하니마을,충북 충주시,충북 충주시 살미면 재오개리 호수로2114,127.982204422853,36.9356437095223,인근좌표
128,진천 배티 성지,충북 진천군,충청북도 진천군 백곡면 배티로 663-13,127.326190325535,36.9269582687214,정좌표
129,음성동요마을,충북 음성군,충청북도 음성군 생극면 오신로342번길 27,127.629771779426,37.0274052261268,정좌표
130,명암산채건강마을,충북 제천시,충청북도 제천시 봉양읍 명암로3길 91,128.120522759501,37.1855750287344,정좌표
131,상선암,충북 단양군,충청북도 단양군 단성면 선암계곡로 790,128.290658214504,36.872171979347,정좌표
132,보탑사(진천),충북 진천군,충청북도 진천군 진천읍 김유신길 641,127.341242433247,36.8392369236626,정좌표
133,반야사,충북 영동군,충청북도 영동군 황간면 백화산로 652,127.909096108055,36.2810368860992,정좌표
134,청주 충청도병마절도사영문,충북 청주시,충청북도 청주시 상당구 남사로 115,127.487676573607,36.6321069926903,정좌표
136,보은 분저실마을,충북 보은군,충청북도 보은군 회남면 군막길 8,127.575207758829,36.4233923091883,정좌표
137,석종사(충주),충북 충주시,충청북도 충주시 직동길 271-56,127.968761203248,36.9481906122934,정좌표
138,증평 좌구산천문대,충북 증평군,충청북도 증평군 증평읍 솟점말길 187,127.653099617914,36.7037073069733,정좌표
140,티테라피체험장,충북 제천시,충청북도 제천시 바이오밸리1로 56,128.167383075863,37.1472935645612,정좌표
141,국립현대미술관(청주관),충북 청주시,충청북도 청주시 청원구 상당로 314,127.491194322666,36.6569762709758,정좌표
142,진천 김유신 탄생지와 태실,충북 진천군,충청북도 진천군 진천읍 김유신길 170-4,127.374917121753,36.840682237623,정좌표
143,백마권역마을,충북 괴산군,충청북도 괴산군 사리면 사리로 517,127.651041288776,36.8388063401852,정좌표
144,하강서원,충북 충주시,충청북도 충주시 금가면 김생로 1455-54,127.888207889901,37.054204129014,정좌표
145,율리휴양촌,충북 증평군,충청북도 증평군 증평읍 율리휴양로 287,127.645609063994,36.7135605571161,정좌표
146,에이스 침대 음성공장,충북 음성군,충청북도 음성군 삼성면 상곡로 55-35,127.450420513269,37.0002231146925,정좌표
147,단양 감골 바람개비마을,충북 단양군,충청북도 단양군 적성면 금수산로 784-10,128.284501967572,36.9737465345758,정좌표
148,충주 민속공예거리,충북 충주시,충청북도 충주시 중앙탑면 가곡로 1965,127.846406855894,37.076959404228,정좌표
149,단호사(충주),충북 충주시,충청북도 충주시 충원대로 201,127.900820901177,36.946799894603,정좌표
150,"능강계곡, 얼음골",충북 제천시,충청북도 제천시 수산면 옥순봉로 1185,128.197068212725,36.9866946445503,정좌표
151,청원 연꽃마을,충북 청주시,충청북도 청주시 흥덕구 강내면 궁현연꽃2길 33-6,127.367802791104,36.5813552705968,정좌표
152,충주 관아공원,충북 충주시,충청북도 충주시 관아1길 21,127.935596252762,36.9704281775422,정좌표
153,보강천미루나무숲,충북 증평군,충청북도 증평군 증평읍 인삼로 104-48,127.580316578096,36.7884818402681,정좌표
154,덕동생태숲,충북 제천시,충청북도 제천시 백운면 덕동로 435,127.963724636616,37.2095734242919,정좌표
155,보광산관광농원,충북 괴산군,충청북도 괴산군 사리면 모래재로 646-8,127.681332641088,36.8062390081871,정좌표
157,다리안계곡,충북 단양군,충청북도 단양군 단양읍 다리안로 528-10,128.416841660728,36.9728996971117,정좌표
158,제원 송계리 망개나무,충북 제천시,충청북도 제천시 한수면 미륵송계로 1405,128.087429136523,36.8663223057839,정좌표
159,충주 임충민공 충렬사,충북 충주시,충청북도 충주시 충열1길 6,127.904553010902,36.9466553585397,정좌표
160,수레의산자연휴양림,충북 음성군,충청북도 음성군 생극면 차생로 310-108,127.65148843164,37.0387848324202,정좌표
161,청주 용두사지 철당간,충북 청주시,충청북도 청주시 상당구 남문로 2가 48-19,127.489752917579,36.6330942531166,정좌표
162,소백산국립공원(북부),충북 단양군,충청북도 단양군 가곡면 남한강로 494,128.384657738523,37.024356501985,정좌표
163,영동 난계사,충북 영동군,충청북도 영동군 심천면 국악로 13-34,127.703369750428,36.2106258853043,정좌표
166,반기문 유엔사무총장 생가마을,충북 음성군,충청북도 음성군 원남면 행치길 17-1,127.664636767764,36.8922607855791,정좌표
167,제천 엽연초수납 취급소,충북 제천시,충청북도 제천시 의병대로12길 14-1,128.206552540786,37.1369786677462,정좌표
168,조동산촌마을,충북 영동군,충청북도 영동군 용화면 민주지산로 765,127.814757370239,36.0465682609926,정좌표
169,증평 에듀팜(블랙스톤 벨포레 리조트),충북 증평군,충청북도 증평군 도안면 벨포레길 346,127.582119264355,36.8451503850882,정좌표
170,사담계곡,충북 괴산군,충청북도 괴산군 청천면 괴산로대방래길 158,127.823635876778,36.6186483096421,정좌표
171,청룡사지,충북 충주시,충청북도 충주시 소태면 청룡사지길 147,127.840191200299,37.1321996297818,정좌표
174,보은 선병국가옥,충북 보은군,충청북도 보은군 장안면 개안길 10-2,127.789840589486,36.4686295675467,정좌표
175,심천역(영동),충북 영동군,충청북도 영동군 심천면 심천로5길 5-1,127.721928816048,36.2361836519434,정좌표
176,천동관광지,충북 단양군,충청북도 단양군 단양읍 다리안로 534,128.417752680771,36.973340030272,정좌표
177,제천 자양영당,충북 제천시,충청북도 제천시 봉양읍 의암로 566-7,128.086670401966,37.0993530902273,정좌표
178,충북도민안전체험관,충북 청주시,충청북도 청주시 흥덕구 풍년로180번길 37-1,127.43342898936,36.6290701822966,정좌표
179,대성사(옥천),충북 옥천군,충청북도 옥천군 옥천읍 지용로 142,127.59100133437,36.3160915911397,정좌표
180,조령민속공예촌,충북 괴산군,충청북도 괴산군 연풍면 원풍로 224-11,128.017659536933,36.7840121596296,정좌표
184,제천 청풍관광마을,충북 제천시,충청북도 제천시 청풍면 배시론로 3,128.166220669609,36.9963761540884,정좌표
185,보타사(증평),충북 증평군,충청북도 증평군 증평읍 초평로 1571,127.547130392141,36.8044770703008,정좌표
186,충주 탑평리 칠층석탑,충북 충주시,충청북도 충주시 중앙탑면 탑평리 11,127.866596323483,37.0158678232322,정좌표
187,평동전통떡마을,충북 청주시,충청북도 청주시 흥덕구 평동로 147,127.414592660445,36.6597304229326,정좌표
188,옥천 육영수 생가,충북 옥천군,충청북도 옥천군 옥천읍 향수길 119,127.587797711726,36.3178959074919,정좌표
189,제천한방엑스포공원,충북 제천시,충청북도 제천시 한방엑스포로 19,128.160130766665,37.1428665481402,정좌표
190,슬로시티 제천(수산면측백숲과 옥순봉생태공원),충북 제천시,충청북도 제천시 수산면 월악로26길 39,128.18076060089,36.933827855954,정좌표
192,옥순대교,충북 제천시,충청북도 제천시 수산면 옥순봉로 399,128.231881029276,36.9492797855153,정좌표
193,꽃단지마을,충북 제천시,충청북도 제천시 한수면 월악로7길 94,128.104462207361,36.9265762660471,정좌표
194,남천계곡,충북 단양군,충청북도 단양군 영춘면 남천계곡로 375,128.513368370038,37.0390103727877,정좌표
195,월리사(청주),충북 청주시,충청북도 청주시 상당구 문의면 염티소전로 55-100,127.531074202701,36.4647312921812,정좌표
196,단양 관광특구,충북 단양군,충청북도 단양군 단양읍 고수동굴길 3-11,128.381703227282,36.9875671541144,정좌표
197,코리아크래프트브류어리,충북 음성군,충청북도 음성군 원남면 원남산단로 97,127.68287382907,36.8896762303961,정좌표
198,충주자연생태체험관,충북 충주시,충청북도 충주시 동량면 지등로 260,127.951853348799,37.0251577534976,정좌표
199,용화사(청주),충북 청주시,충청북도 청주시 서원구 무심서로 565,127.481760746738,36.6417906677308,정좌표
200,속리산 산채비빔밥 거리,충북 보은군,충청북도 보은군 속리산면 법주사로 223,127.819630701518,36.5286135115892,정좌표
201,태교사,충북 음성군,충청북도 음성군 원남면 원중로399번길 316,127.588810683006,36.8623274959812,정좌표
203,영동 와인터널,충북 영동군,충청북도 영동군 영동읍 영동힐링로 30,127.784277262977,36.16126726622,정좌표
205,동부창고,충북 청주시,충청북도 청주시 청원구 상당로 314,127.491194322666,36.6569762709758,정좌표
206,쌍곡구곡,충북 괴산군,충청북도 괴산군 칠성면 쌍곡로 242,127.889716131402,36.7617357230652,정좌표
207,문암생태공원,충북 청주시,충청북도 청주시 흥덕구 문암동 100,127.451225732391,36.6742039219865,정좌표
208,청주 무농정,충북 청주시,충청북도 청주시 상당구 단재로 273,127.502042751381,36.6057771158959,정좌표
209,명암유원지,충북 청주시,충청북도 청주시 상당구 성내로124번길 14,127.542727008243,36.6646800461805,정좌표
210,단양조자형가옥,충북 단양군,충청북도 단양군 가곡면 덕천1길 19,128.38396217122,37.0033644869355,정좌표
211,천동동굴,충북 단양군,충청북도 단양군 단양읍 천동2길 18,128.420175604382,36.9724490666479,정좌표
212,깊은산속 옹달샘,충북 충주시,충청북도 충주시 노은면 우성1길 201-61,127.753062573254,37.0251318742004,정좌표
213,현암사(충북),충북 청주시,충청북도 청주시 서원구 현도면 대청호반로 151,127.477366792309,36.48023253617,정좌표
215,속리산조각공원,충북 보은군,충청북도 보은군 속리산면 법주사로 293,127.824750744976,36.5335839487042,정좌표
216,청주 흥덕사지,충북 청주시,충청북도 청주시 흥덕구 직지대로 713,127.472263258502,36.64365376239,정좌표
217,영동 한천정사,충북 영동군,충청북도 영동군 황간면 원촌동1길 48,127.892280654749,36.2343647647904,정좌표
219,보련마을,충북 진천군,충청북도 진천군 진천읍 보련골길 41-22,127.350831585035,36.8464621515063,정좌표
220,충주호 유람선,충북 단양군,충청북도 단양군 단성면 월악로 3811-19,128.253950713659,36.9314917146045,정좌표
222,난계 박연선생 생가,충북 영동군,충청북도 영동군 심천면 하고당1길 14-17,127.702587141321,36.2180628318522,정좌표
223,능암온천랜드,충북 충주시,충청북도 충주시 앙성면 새바지길 37,127.801874698438,37.0936233635151,정좌표
225,미륵대흥사(단양),충북 단양군,충청북도 단양군 대강면 황정산로 423,128.347589063642,36.8570354312497,정좌표
226,하이트진로 청주공장,충북 청주시,충청북도 청주시 서원구 현도면 현도공단로 177,127.415842486271,36.507729570259,정좌표
229,별새꽃돌 자연탐사과학관,충북 제천시,충청북도 제천시 봉양읍 옥전4길 45,128.058271086202,37.1857606767409,정좌표
231,암서재,충북 괴산군,충청북도 괴산군 청천면 화양동2길 30,127.814813873192,36.6686979633422,정좌표
232,성불산자연휴양림,충북 괴산군,충청북도 괴산군 괴산읍 충민로기곡길 78,127.846768759849,36.808047664324,정좌표
233,월류봉(한천팔경),충북 영동군,충청북도 영동군 황간면 원촌리 48-3,127.891699290433,36.2342736415857,정좌표
234,공전자연학교,충북 제천시,충청북도 제천시 봉양읍 의암로 345,128.078945734221,37.1144424174241,정좌표
236,정심사(충주),충북 충주시,충청북도 충주시 유주막로 248,127.928152607758,36.9381870232965,정좌표
237,옥천 이지당,충북 옥천군,충청북도 옥천군 군북면 이백6길 126,127.556080099368,36.3296080393729,정좌표
239,가락공방,충북 청주시,충청북도 청주시 상당구 탑동로 95-5,127.502508356555,36.6336040915634,정좌표
241,서원계곡,충북 보은군,충청북도 보은군 장안면 장안로 491-4,127.818262383462,36.4801732270666,정좌표
242,제3한방명의촌 한방자연치유센터,충북 제천시,충청북도 제천시 청풍면 학현소야로 324,128.219569726871,37.0099364547451,정좌표
243,자연드림파크(괴산),충북 괴산군,충청북도 괴산군 칠성면 자연드림길 240,127.862662619133,36.7680177176547,정좌표
244,무극전적 국민관광지,충북 음성군,충청북도 음성군 음성읍 생음대로 594,127.646889169111,36.9517394491642,정좌표
246,증평 장이익어가는마을,충북 증평군,충청북도 증평군 증평읍 송티로 76-12,127.578394541136,36.8002754842599,정좌표
248,조산공원,충북 충주시,충청북도 충주시 수안보면 조산공원길 64,127.991789479717,36.8438899269289,정좌표
249,낭추골 현장체험학습원,충북 청주시,충청북도 청주시 상당구 낭성면 단재로 1890,127.618031630782,36.5985888782098,정좌표
250,보은 하얀민들레마을,충북 보은군,충청북도 보은군 회인면 부수길 111-2,127.609648599746,36.492008920917,정좌표
251,목계나루,충북 충주시,충청북도 충주시 엄정면 동계길 29-1,127.888355439929,37.0750096726048,정좌표
252,충주 상대촌농촌체험마을,충북 충주시,충청북도 충주시 앙성면 둔터로 558,127.715591456122,37.0976257293247,정좌표
253,문성자연휴양림,충북 충주시,충청북도 충주시 노은면 우성1길 191,127.754086687187,37.0279399140642,정좌표
254,사담계곡유원지,충북 괴산군,충청북도 괴산군 청천면 괴산로대방래길 158,127.823635876778,36.6186483096421,정좌표
256,진천 생거진천화랑촌,충북 진천군,충청북도 진천군 진천읍 보련골길 40-4,127.353039405554,36.845579211395,정좌표
257,괴산 백운사 승탑군,충북 괴산군,충청북도 괴산군 사리면 사리로소매2길 125-146,127.667095928304,36.8548884538272,정좌표
260,구병리아름마을,충북 보은군,충청북도 보은군 속리산면 구병길 6,127.871168865549,36.4801195617217,정좌표
261,CJ 블로썸 캠퍼스 (CJ제일제당),충북 진천군,충청북도 진천군 진천읍 씨제이로 110,127.464207780979,36.8760698703995,정좌표
262,옥천 장수마을,충북 옥천군,충청북도 옥천군 청성면 장수로1길 79-1,127.743725218019,36.315734607141,정좌표
263,도담삼봉 음악분수,충북 단양군,충청북도 단양군 매포읍 삼봉로 644-13,128.341834580588,37.0007749748966,정좌표
264,"괴산 홍범식 고가(벽초 홍명희 생가, 일완 홍범식 고택)",충북 괴산군,충청북도 괴산군 괴산읍 임꺽정로 16,127.794937058637,36.8135467307701,정좌표
265,소백산 가리점마을(마조리마을),충북 단양군,충청북도 단양군 단양읍 마조로 237,128.391453715336,36.9449192034195,정좌표
266,설성공원,충북 음성군,충청북도 음성군 음성읍 설성공원길 28,127.6910188144,36.932786773561,정좌표
268,덕주사(제천),충북 제천시,충청북도 제천시 한수면 미륵송계로2길 87,128.098519026576,36.8619703972083,정좌표
269,오뚜기 대풍공장,충북 음성군,충청북도 음성군 대소면 대풍산단로 128,127.463503035959,36.9657577536498,정좌표
270,구룡산 장승공원,충북 청주시,충청북도 청주시 서원구 현도면 하석2길 153,127.471472662963,36.4873724935265,정좌표
271,옥화자연휴양림,충북 청주시,충청북도 청주시 상당구 미원면 운암옥화길 140,127.69494979636,36.5997059934792,정좌표
272,독수리봉,충북 보은군,충청북도 보은군 회남면 안내회남로 1390-1,127.580702521747,36.421553025714,정좌표
273,석천암(괴산),충북 괴산군,충청북도 괴산군 청천면 삼송길 205-182,127.901462729634,36.6726800654555,정좌표
276,오갑사지 석불좌상,충북 충주시,충청북도 충주시 앙성면 모점1길 404,127.712796771186,37.1510604223779,정좌표
277,충주 제금당,충북 충주시,충청북도 충주시 관아1길 21,127.935596252762,36.9704281775422,정좌표
278,구계서원,충북 청주시,충청북도 청주시 서원구 안뜸로47번길 28,127.482340551552,36.6133686378341,정좌표
279,강천사(제천),충북 제천시,충청북도 제천시 송학면 옥천3길 56-10,128.26713973825,37.206477081064,정좌표
280,수안보 인공암벽장,충북 충주시,충청북도 충주시 수안보면 수안보로 129,127.998411097721,36.8422724502303,정좌표
282,공림사,충북 괴산군,충청북도 괴산군 청천면 괴산로공림길 104,127.817096627697,36.632157858482,정좌표
283,백운사(괴산),충북 괴산군,충청북도 괴산군 사리면 사리로소매2길 125-146,127.667095928304,36.8548884538272,정좌표
284,삼탄유원지,충북 충주시,충청북도 충주시 산척면 인등로 177,127.981192269193,37.0739246152974,정좌표
286,제천 청풍 망월산성,충북 제천시,충청북도 제천시 청풍면 청풍호로 2048,128.17002765318,37.0047177027483,정좌표
287,증평 좌구산 구름다리 & 좌구산 숲 명상의 집,충북 증평군,충청북도 증평군 증평읍 솟점말길 107,127.650772224001,36.7043762056589,정좌표
288,안골관광농원,충북 진천군,충청북도 진천군 백곡면 용암2길 108-36,127.366330044059,36.8749724228677,정좌표
289,대원사(충주),충북 충주시,충청북도 충주시 사직산12길 55,127.929398197142,36.969415180002,정좌표
290,각연사(괴산),충북 괴산군,충청북도 괴산군 칠성면 각연길 451,127.926889962861,36.7548358433251,정좌표
291,진천 길상사,충북 진천군,충청북도 진천군 진천읍 문진로 1411-38,127.423181373431,36.8533380648202,정좌표
292,복천암(보은),충북 보은군,충청북도 보은군 속리산면 법주사로 702-5,127.852607025641,36.5519902536938,정좌표
293,비학봉마을,충북 괴산군,충청북도 괴산군 칠성면 명태재로 265,127.840146443891,36.76915589336,정좌표
294,개심사(괴산),충북 괴산군,충청북도 괴산군 괴산읍 역말길 22,127.794693309262,36.8152116249259,정좌표
295,회인향교,충북 보은군,충청북도 보은군 회인면 부수1길 31-11,127.601322980684,36.4968090285916,정좌표
296,영천사(충북),충북 영동군,충청북도 영동군 황간면 신흥2길 12-127,127.907047905459,36.2420023359965,정좌표
298,청주 탑동 양관,충북 청주시,충청북도 청주시 상당구 탑동로32번길 17-6,127.498933955439,36.6284284268955,정좌표
299,화양서원,충북 괴산군,충청북도 괴산군 청천면 화양동길 188,127.811516270355,36.668900454639,정좌표
300,한국기초과학지원연구원(오창),충북 청주시,충청북도 청주시 청원구 오창읍 연구단지로 162,127.435706988486,36.7192894501784,정좌표
301,꽃절(화사),충북 음성군,충청북도 음성군 원남면 보덕로 330,127.63445135743,36.8994506724142,정좌표
302,대성사(이원),충북 옥천군,충청북도 옥천군 이원면 강청길 36-9,127.613711759849,36.245683511519,정좌표
303,청련암(단양),충북 단양군,충청북도 단양군 대강면 사인암2길 42,128.339997887458,36.8942103949671,정좌표
304,옥천 후율당,충북 옥천군,충청북도 옥천군 안내면 도이길 42,127.671903187153,36.4025041224466,정좌표
305,하늘다리,충북 진천군,충청북도 진천군 초평면 평화로 403-132,127.504133047242,36.8298660748235,정좌표
306,봉학골산림욕장,충북 음성군,충청북도 음성군 음성읍 용광로230번길 138,127.68574161424,36.9682288567794,정좌표
308,한국전통문화체험학교,충북 제천시,충청북도 제천시 덕산면 월악산로4길 10,128.137542428461,36.8923063107639,정좌표
309,제천 청풍 한벽루,충북 제천시,충청북도 제천시 청풍면 청풍호로 2048,128.17002765318,37.0047177027483,정좌표
310,영수사(진천),충북 진천군,충청북도 진천군 초평면 영구리길 60-125,127.550745034355,36.8353587823223,정좌표
312,괴산향교,충북 괴산군,충청북도 괴산군 괴산읍 향교길 23,127.788947190141,36.815380056947,정좌표
313,미륵사(증평),충북 증평군,충청북도 증평군 증평읍 미륵댕이1길 13-5,127.58573156356,36.7948751032042,정좌표
314,청주 성공회 성당,충북 청주시,충청북도 청주시 상당구 교동로47번길 33,127.493781108517,36.6389137803314,정좌표
315,새밭계곡,충북 단양군,충청북도 단양군 가곡면 새밭로 845,128.460492396561,36.9882323561066,정좌표
316,영동 금강모치마을,충북 영동군,충청북도 영동군 학산면 모리1길 38,127.64754911698,36.1119205334225,정좌표
318,증평 증안골마을,충북 증평군,충청북도 증평군 증평읍 삼보로 113,127.577144041513,36.7808799943534,정좌표
319,물안뜰체험관,충북 진천군,충청북도 진천군 백곡면 백곡로 964,127.381701844835,36.8802656904413,정좌표
320,김시민장군 충민사,충북 괴산군,충청북도 괴산군 괴산읍 충민사길 46,127.846958476834,36.8364195598256,정좌표
321,문수암(옥천),충북 옥천군,충청북도 옥천군 청성면 도장1길 33,127.731429822141,36.3791383710479,정좌표
322,청주 신채호사당 및 묘소,충북 청주시,충청북도 청주시 상당구 낭성면 귀래길 249,127.620325830263,36.6359909235468,정좌표
324,충주 최응성 고가,충북 충주시,충청북도 충주시 살미면 중원대로 2220,127.980262107723,36.8958439369691,정좌표
326,괴산 송시열 유적,충북 괴산군,충청북도 괴산군 청천면 화양동길 188,127.811516270355,36.668900454639,정좌표
328,괴산 청천리 고가,충북 괴산군,충청북도 괴산군 청천면 청천4길 17,127.738481176003,36.6619902234945,정좌표
329,상천민속마을,충북 제천시,충청북도 제천시 수산면 상천1길 16,128.238377181562,36.9658799415179,정좌표
330,솔밭관광농원,충북 괴산군,충청북도 괴산군 괴산읍 능촌로5길 39,127.850782529337,36.8395837415407,정좌표
331,제천 사자빈신사지 사사자 구층석탑,충북 제천시,충청북도 제천시 한수면 송계리 1002-1,128.083270021908,36.8573052521538,정좌표
332,우암 송시열묘,충북 괴산군,충청북도 괴산군 청천면 청천8길 19,127.736315074825,36.6623877717699,정좌표
334,봉학사(충주),충북 충주시,충청북도 충주시 중앙탑면 장천윗말1길 173,127.855966830501,37.0502025714703,정좌표
335,후평숲유원지,충북 괴산군,충청북도 괴산군 청천면 후평도원로 129-19,127.755762870429,36.6586447195253,정좌표
339,옥천 경율당,충북 옥천군,충청북도 옥천군 안남면 종미3길 120,127.669423941125,36.3414387143586,정좌표
340,월악산 약초마을,충북 제천시,충청북도 제천시 덕산면 약초로 78,128.164575475737,36.9102399219233,정좌표
341,우암산,충북 청주시,충청북도 청주시 상당구 교동로71번길 91,127.499443457591,36.6422202739224,정좌표
343,복천암(청주),충북 청주시,충청북도 청주시 상당구 교동로71번길 120,127.500159414248,36.6434834530591,정좌표
344,안터선사공원,충북 옥천군,충청북도 옥천군 동이면 안터1길 36,127.618723571351,36.3191166621259,정좌표
345,음성향교,충북 음성군,충청북도 음성군 음성읍 중앙로 223,127.694538442146,36.9416164535817,정좌표
346,제천역 (철도체험학습장),충북 제천시,충청북도 제천시 의림대로 1,128.203833524626,37.1286309855944,정좌표
347,영동소석고택,충북 영동군,충청북도 영동군 심천면 초강로6길 26,127.712839497763,36.2179470370406,정좌표
348,화암서원,충북 괴산군,충청북도 괴산군 괴산읍 괴강로 313,127.824001492589,36.8034906729191,정좌표
349,운곡서원(음성),충북 음성군,충청북도 음성군 삼성면 청용로365번길 22,127.466753067189,37.0175848986933,정좌표
350,괴산 이창훈 고가,충북 괴산군,충청북도 괴산군 감물면 충민로오간길 64,127.859461467895,36.8411443908961,정좌표
351,산모랭이풀내음,충북 보은군,충청북도 보은군 내북면 산척상궁로 421-100,127.637528514119,36.510833036583,정좌표
352,단양향교,충북 단양군,충청북도 단양군 단성면 충혼로 26,128.322816583495,36.9375710274337,정좌표
353,괴산군수 관사,충북 괴산군,충청북도 괴산군 괴산읍 읍내로13길 12,127.794329093041,36.8108629437193,정좌표
355,보현사(청주),충북 청주시,충청북도 청주시 청원구 우암산로 190-37,127.500864270572,36.6504238922497,정좌표
357,신풍전통한지체험,충북 괴산군,충청북도 괴산군 연풍면 원풍로 224-11,128.017659536933,36.7840121596296,정좌표
358,보안사(괴산),충북 괴산군,충청북도 괴산군 청안면 효근1길 3-8,127.654864380283,36.7581308848527,정좌표
359,만뢰사,충북 진천군,충청북도 진천군 백곡면 강당길 50-6,127.322381827633,36.8915603176269,정좌표
360,청주 문의문산관,충북 청주시,충청북도 청주시 상당구 문의면 대청호반로 721,127.494226429256,36.5080689661796,정좌표
362,백록서원,충북 청주시,충청북도 청주시 흥덕구 옥산면 환희3길 38-20,127.359441666355,36.6741234489439,정좌표
363,연화사(청주),충북 청주시,충청북도 청주시 흥덕구 부모산로 134,127.412012352638,36.634953264002,정좌표
365,표충사,충북 청주시,충청북도 청주시 상당구 수동로53번길 9,127.493648322275,36.6468751658969,정좌표
366,청주 신전동 고가,충북 청주시,충청북도 청주시 흥덕구 신전로175번길 169,127.402144384281,36.6089992247134,정좌표
368,음성김주태가옥,충북 음성군,충청북도 음성군 감곡면 영산안길 47-13,127.657857741907,37.0807991691209,정좌표
369,채운암,충북 괴산군,충청북도 괴산군 청천면 화양동2길 30,127.814813873192,36.6686979633422,정좌표
371,신흥사(충주),충북 충주시,충청북도 충주시 엄정면 족동2길 197,127.94566024989,37.1123073231358,정좌표
374,백운암(충주),충북 충주시,충청북도 충주시 엄정면 내창로 617-80,127.921090045044,37.1148118517516,정좌표
376,진천 연곡리 석비,충북 진천군,충청북도 진천군 진천읍 김유신길 641,127.341242433247,36.8392369236626,정좌표
378,보살사(청주),충북 청주시,충청북도 청주시 상당구 낙가산로 168,127.536468653656,36.6283867905273,정좌표
379,대한성공회 진천성당,충북 진천군,충청북도 진천군 진천읍 문화3길 72,127.442789286147,36.8432911028822,정좌표
380,청주향교,충북 청주시,충청북도 청주시 상당구 대성로122번길 81,127.497613881462,36.6371514902033,정좌표
382,진천 금성대군 사당,충북 진천군,충청북도 진천군 초평면 수의1길 75-7,127.550998300024,36.7902817714134,정좌표
385,창룡사(충주),충북 충주시,충청북도 충주시 고든골길 63-89,127.959996256865,36.9515220018597,정좌표
388,괴산 칠충사와 피세정,충북 괴산군,충청북도 괴산군 문광면 괴산로 3440-14,127.782426268374,36.7891021887131,정좌표
389,동화사(충북),충북 청주시,충청북도 청주시 서원구 남이면 척산화당로 444,127.485279082947,36.5456107007018,정좌표
390,음성 하당골녹색체험마을,충북 음성군,충청북도 음성군 원남면 하초로 74,127.676403232237,36.907720744934,정좌표
391,옥천 독락정,충북 옥천군,충청북도 옥천군 안남면 연주길 170,127.665289163615,36.3474758159087,정좌표
392,청룡사(청주),충북 청주시,충청북도 청주시 흥덕구 청정로 116,127.379661101232,36.6061896652696,정좌표
393,소백산 천문대,충북 단양군,충청북도 단양군 단양읍 소백산길 639,128.459594264303,36.9351497929448,정좌표
394,송계서원,충북 청주시,충청북도 청주시 흥덕구 내곡로 40-18,127.429592968986,36.6616649248239,정좌표
395,무암사,충북 제천시,충청북도 제천시 금성면 청풍호로39길 285,128.205486126538,37.0310951467776,정좌표
397,괴산 청안 안민헌,충북 괴산군,충청북도 괴산군 청안면 청안읍내로2길 5,127.639269648346,36.7720611360209,정좌표
400,고산사 석조나한상,충북 제천시,충청북도 제천시 덕산면 월악로9길 113,128.115396858974,36.9281302689738,정좌표
401,제천 장락동 칠층모전석탑,충북 제천시,충청북도 제천시 탑안로8길 24,128.230817572378,37.1477159658337,정좌표
402,어제 달천 충렬사비,충북 충주시,충청북도 충주시 충열1길 6,127.904553010902,36.9466553585397,정좌표
403,화양동관광농원,충북 괴산군,충청북도 괴산군 청천면 다보길 8,127.886569000269,36.6422364736632,정좌표
404,안심사(청원),충북 청주시,충청북도 청주시 서원구 남이면 사동길 169-28,127.413048806849,36.5517800526259,정좌표
405,진천 노원리 왜가리 번식지,충북 진천군,충청북도 진천군 이월면 논실길 113-12,127.415756461527,36.9232356452867,정좌표
406,한삼인 증평공장,충북 증평군,충청북도 증평군 증평읍 중앙로 88,127.572919740819,36.7748753993503,정좌표
407,보광사(괴산),충북 괴산군,충청북도 괴산군 사리면 모래재로시동2길 231,127.684103283117,36.8194672510168,정좌표
409,청목화랑,충북 보은군,충청북도 보은군 보은읍 보청대로 1471,127.754013821641,36.4877489471472,정좌표
411,탈골암(충북),충북 보은군,충청북도 보은군 속리산면 법주사로 569-72,127.847434676737,36.5478618424427,정좌표
412,개심사 목조여래좌상과 목조관음보살좌상,충북 괴산군,충청북도 괴산군 괴산읍 역말길 22,127.794693309262,36.8152116249259,정좌표
413,옥천 석탄리 고인돌,충북 옥천군,충청북도 옥천군 동이면 안터1길 36,127.618723571351,36.3191166621259,정좌표
414,박약재,충북 제천시,충청북도 제천시 중말16길 5-4,128.264629366668,37.1365867079223,정좌표
415,충주 신흥사 석조 나한상,충북 충주시,충청북도 충주시 엄정면 족동2길 197,127.94566024989,37.1123073231358,정좌표
417,진천 정송강사,충북 진천군,충청북도 진천군 문백면 송강로 523,127.408643616847,36.7990346419114,정좌표
418,월명사(제천),충북 제천시,충청북도 제천시 송학면 시곡5길 3,128.280388554635,37.1917350180167,정좌표
419,한산사(제천),충북 제천시,충청북도 제천시 용두천로8길 27,128.213439469798,37.1343572398498,정좌표
420,충주 청녕헌,충북 충주시,충청북도 충주시 관아1길 21,127.935596252762,36.9704281775422,정좌표
421,영동 화수루,충북 영동군,충청북도 영동군 상촌면 하도대3안길 33-18,127.895407806208,36.1346779936011,정좌표
422,괴산 김항묵 고택,충북 괴산군,충청북도 괴산군 칠성면 칠성로4길 20,127.859370985162,36.7814720812339,정좌표
424,연안이씨 쌍효각,충북 충주시,충청북도 충주시 동량면 대전리1길 25,127.963389229836,37.0561762497423,정좌표
426,영동김참판고택(김선조가옥),충북 영동군,충청북도 영동군 양강면 괴목1길 13-5,127.754739710169,36.1531981776188,정좌표
428,진천향교,충북 진천군,충청북도 진천군 진천읍 문화5길 30,127.434960130074,36.8495364016034,정좌표
429,충주 단호사 철조여래좌상,충북 충주시,충청북도 충주시 충원대로 201,127.900820901177,36.946799894603,정좌표
430,옥천 석탄리 선돌,충북 옥천군,충청북도 옥천군 동이면 안터1길 36,127.618723571351,36.3191166621259,정좌표
432,정안둥구나무마을,충북 증평군,충청북도 증평군 증평읍 증안2길 22,127.573870998603,36.7713489546206,정좌표
433,대흥사(진천),충북 진천군,충청북도 진천군 진천읍 문진로 1300-80,127.422669514993,36.8401673138925,정좌표
434,충주 창룡사 다층 청석탑,충북 충주시,충청북도 충주시 고든골길 63-89,127.959996256865,36.9515220018597,정좌표
435,백족사(충북),충북 청주시,충청북도 청주시 상당구 가덕면 은행상야로 441-122,127.584115383916,36.5931838247969,정좌표
436,제천솔방죽 생태공원,충북 제천시,충청북도 제천시 청전동 240-1 일원,128.208622531316,37.1568157216293,정좌표
437,수안보 하이스파,충북 충주시,충청북도 충주시 수안보면 물탕2길 17,127.990874559732,36.846955327017,정좌표
438,만동묘정비,충북 괴산군,충청북도 괴산군 청천면 화양동길 188,127.811516270355,36.668900454639,정좌표
439,괴산 보안사 삼층석탑,충북 괴산군,충청북도 괴산군 청안면 효근1길 3-8,127.654864380283,36.7581308848527,정좌표
440,음성 경호정,충북 음성군,충청북도 음성군 음성읍 설성공원길 28,127.6910188144,36.932786773561,정좌표
441,괴산 수월정,충북 괴산군,충청북도 괴산군 칠성면 산막이옛길 315-38,127.84083678166,36.7471229460417,정좌표
442,과일나라테마공원,충북 영동군,충청북도 영동군 영동읍 영동힐링로 248,127.792596445035,36.1611220896435,정좌표
443,옥천향교,충북 옥천군,충청북도 옥천군 옥천읍 향수8길 8-5,127.586652552606,36.3180500059255,정좌표
444,영동 성위제가옥,충북 영동군,충청북도 영동군 학산면 미촌길 67-11,127.710555267605,36.1213211289279,정좌표
445,광덕사,충북 증평군,충청북도 증평군 도안면 상그린로 239,127.624608433782,36.8329379607465,정좌표
449,팔봉서원,충북 충주시,충청북도 충주시 대소원면 팔봉안길 11-6,127.922765210446,36.9010891881055,정좌표
450,덕주사 마애여래입상 (덕주사 마애불),충북 제천시,충청북도 제천시 한수면 미륵송계로2길 87,128.098519026576,36.8619703972083,정좌표
451,검암서원,충북 청주시,충청북도 청주시 상당구 가덕면 병암리 215-2,127.57152828218,36.5788936428617,정좌표
452,영동향교,충북 영동군,충청북도 영동군 영동읍 성안길 20-9,127.769946435153,36.1757502789967,정좌표
453,애한정,충북 괴산군,충청북도 괴산군 괴산읍 충민로검승1길 18-9,127.823061644898,36.8057615950422,정좌표
454,괴산 봉학사지 석조여래좌상,충북 괴산군,충청북도 괴산군 사리면 모래재로시동2길 231,127.684103283117,36.8194672510168,정좌표
456,괴산 삼방리 삼층석탑,충북 괴산군,충청북도 괴산군 불정면 삼방연지길 49,127.80997520842,36.9341179440085,인근좌표
457,원각사(충북),충북 제천시,충청북도 제천시 의병대로 118,128.213845078282,37.1348325416705,정좌표
460,영동 세천재,충북 영동군,충청북도 영동군 매곡면 내오곡길 94-97,127.942141486196,36.1790664857101,정좌표
463,연제 안승갑 고가,충북 진천군,충청북도 진천군 진천읍 보련골길 46,127.353273147454,36.8461519307588,정좌표
464,용담사(충주),충북 충주시,충청북도 충주시 신니면 내포길 27-110,127.711910449663,37.0072095913735,정좌표
466,증평 연병호 생가,충북 증평군,충청북도 증평군 도안면 산정길 21,127.620179271122,36.8284194937691,정좌표
467,목은영당,충북 청주시,충청북도 청주시 청원구 충청대로272번길 230-14,127.508384820069,36.6772193393831,정좌표
468,영동 삼괴당,충북 영동군,충청북도 영동군 상촌면 임산3길 28-13,127.911203929951,36.1483804487879,정좌표
469,진천 신헌 고가,충북 진천군,충청북도 진천군 이월면 논실안길 58-1,127.41655589159,36.923734263066,정좌표
470,영동규당고택,충북 영동군,충청북도 영동군 영동읍 금동로4길 9-9,127.776232930515,36.1809424735955,정좌표
473,취묵당,충북 괴산군,충청북도 괴산군 괴산읍 충민사길 45,127.843437902541,36.8361480743756,정좌표
475,괴산중학교 구 본관,충북 괴산군,충청북도 괴산군 괴산읍 괴산로 3527,127.7835560814,36.7959258026668,정좌표
476,계담서원,충북 괴산군,충청북도 괴산군 감물면 감물로이담5길 19,127.8645166998,36.8709357638636,정좌표
477,청덕사,충북 괴산군,충청북도 괴산군 불정면 한불로청덕2길 14,127.850666111336,36.8727093172681,정좌표
479,괴산 읍내리 은행나무,충북 괴산군,충청북도 괴산군 청안면 청안읍내로3길 8,127.639804863015,36.7725123284751,정좌표
481,충주 억정사지 대지국사탑비,충북 충주시,충청북도 충주시 엄정면 비석2길 35-21,127.927333036036,37.1035634171012,정좌표
482,송천서원,충북 청주시,충청북도 청주시 청원구 오창읍 오창양지길 22-3,127.443957527538,36.7388862041081,정좌표
483,충주 미륵리 오층석탑,충북 충주시,충청북도 충주시 수안보면 미륵리 56,128.095157019113,36.8219032602393,정좌표
484,방곡 도예촌,충북 단양군,충청북도 단양군 대강면 선암계곡로 133,128.311457531903,36.8265867525046,정좌표
485,충주 단호사 삼층석탑,충북 충주시,충청북도 충주시 충원대로 201,127.900820901177,36.946799894603,정좌표
486,제천 백련사 목조아미타여래좌상,충북 제천시,충청북도 제천시 봉양읍 명암로5길 414,128.138408824943,37.2284934595229,정좌표
488,하담 김시양 신도비,충북 괴산군,충청북도 괴산군 괴산읍 능촌로 182,127.838581193427,36.8383908723687,정좌표
489,여적암(보은),충북 보은군,충청북도 보은군 속리산면 사내1길 407,127.831519184748,36.5561661238342,정좌표
491,연풍향청,충북 괴산군,충청북도 괴산군 연풍면 중앙로 44,127.995720776116,36.7629290494227,정좌표
492,중원 원평리 미륵석불,충북 충주시,충청북도 충주시 신니면 원평리 108,127.720675585523,37.0000465646294,인근좌표
493,충주 박팽년 사당,충북 충주시,충청북도 충주시 신니면 참샘길 115,127.745097590514,37.0020594141033,정좌표
495,신륵사(제천),충북 제천시,충청북도 제천시 덕산면 월악산로4길 180,128.130125095545,36.8794618850833,정좌표
496,만천하 알파인코스터,충북 단양군,충청북도 단양군 적성면 옷바위길 10,128.33728655466,36.9776542297561,정좌표
497,채운암 대웅전,충북 괴산군,충청북도 괴산군 청천면 화양동2길 30,127.814813873192,36.6686979633422,정좌표
498,청안 사마소,충북 괴산군,충청북도 괴산군 청안면 청안읍내로5길 33-13,127.641348529245,36.7748779623218,정좌표
503,멍딩이마을,충북 괴산군,충청북도 괴산군 소수면 원소로명덕2길 3,127.717781529246,36.840526033206,정좌표
504,음성 읍내리 삼층석탑,충북 음성군,충청북도 음성군 음성읍 설성공원길 28,127.6910188144,36.932786773561,정좌표
505,영동 영모재,충북 영동군,충청북도 영동군 상촌면 관기길 16-5,127.916591398917,36.1508028153376,정좌표
507,영축선원(충북),충북 영동군,충청북도 영동군 매곡면 해평길 240-29,127.948007644829,36.1463573950419,정좌표
509,황강 영당 및 수암사,충북 제천시,충청북도 제천시 한수면 미륵송계로 1801,128.073210615755,36.8993982503076,정좌표
511,충주 청룡사 위전비,충북 충주시,충청북도 충주시 소태면 청룡사지길 147,127.840191200299,37.1321996297818,정좌표
512,가섭사,충북 음성군,충청북도 음성군 음성읍 가섭길 494,127.703239185724,36.966433360822,정좌표
513,제천 지곡리 고가,충북 제천시,충청북도 제천시 청풍면 청풍호로 2048,128.17002765318,37.0047177027483,정좌표
514,충주 지당리 석불입상,충북 충주시,충청북도 충주시 앙성면 삼당2길 11,127.725149607655,37.1139756807174,정좌표
515,만성사(문수암),충북 진천군,충청북도 진천군 진천읍 금사로 252-106,127.392169419979,36.8212871906551,정좌표
517,동래부사송상현충렬사(청주),충북 청주시,충청북도 청주시 흥덕구 강상로18번길 44,127.392251085295,36.6215936738005,정좌표
519,노은영당,충북 진천군,충청북도 진천군 이월면 논실길 113-10,127.416179334353,36.9234883516501,정좌표
521,복천사(제천),충북 제천시,충청북도 제천시 독순로21길 14,128.217632840441,37.138481715215,정좌표
522,황간향교,충북 영동군,충청북도 영동군 황간면 구교리길 88,127.916133510297,36.2284601539516,정좌표
523,충주 이수일 신도비,충북 충주시,충청북도 충주시 금가면 석교길 19,127.885279988248,37.0114699165321,정좌표
524,청풍향교,충북 제천시,충청북도 제천시 청풍면 청풍호로 2048,128.17002765318,37.0047177027483,정좌표
526,고산사 석조관음보살좌상,충북 제천시,충청북도 제천시 덕산면 월악로9길 113,128.115396858974,36.9281302689738,정좌표
528,상현서원,충북 보은군,충청북도 보은군 장안면 장안로 225,127.798983367079,36.4800427839787,정좌표
529,중원 미륵리 도요지,충북 충주시,충청북도 충주시 수안보면 미륵송계로 835,128.087925762372,36.8240371940347,정좌표
530,제천 청풍 금남루,충북 제천시,충청북도 제천시 청풍면 청풍호로 2048,128.17002765318,37.0047177027483,정좌표
531,괴산 오가리 느티나무,충북 괴산군,충청북도 괴산군 장연면 미선로오가7길 19-7,127.957338185085,36.8263600108454,정좌표
532,보안사 석조여래좌상,충북 괴산군,충청북도 괴산군 청안면 효근1길 3-8,127.654864380283,36.7581308848527,정좌표
533,위정사,충북 괴산군,충청북도 괴산군 장연면 충민로광진8길 53-1,127.943458536721,36.8804414487091,정좌표
537,장락사(제천),충북 제천시,충청북도 제천시 탑안로8길 24,128.230817572378,37.1477159658337,정좌표
539,가산사,충북 옥천군,충청북도 옥천군 안내면 안내회남로 671,127.597442212574,36.4015377995811,정좌표
540,충주 김생사지,충북 충주시,충청북도 충주시 금가면 김생로 325,127.908184128984,37.0063363016419,정좌표
541,괴산 정인지 묘소,충북 괴산군,충청북도 괴산군 불정면 외령로1길 24,127.819944161614,36.9257801430285,정좌표
543,수룡폭포,충북 충주시,충청북도 충주시 노은면 수룡봉황길 249,127.80181883947,37.0600340513428,정좌표
544,영춘향교,충북 단양군,충청북도 단양군 영춘면 영부로 2884-3,128.488427701666,37.081305912704,정좌표
545,용화사(진천),충북 진천군,충청북도 진천군 진천읍 소강정1길 83,127.451200485078,36.8555648841431,정좌표
546,충주 숭선사지 당간지주,충북 충주시,충청북도 충주시 신니면 숭선길 56,127.699089259773,37.0202091815837,정좌표
547,연풍향교,충북 괴산군,충청북도 괴산군 연풍면 향교로 40-2,127.998713997373,36.7650270601296,정좌표
548,괴산동헌,충북 괴산군,충청북도 괴산군 괴산읍 향교길 23,127.788947190141,36.815380056947,정좌표
553,제천 한산사 석조여래입상,충북 제천시,충청북도 제천시 용두천로8길 27,128.213439469798,37.1343572398498,정좌표
555,신항서원,충북 청주시,충청북도 청주시 상당구 이정골로 115-8,127.525991656843,36.6357502748465,정좌표
556,금당서원,충북 증평군,충청북도 증평군 도안면 금당1길 34-5,127.622939241626,36.8051587396851,정좌표
557,화양서원 묘정비,충북 괴산군,충청북도 괴산군 청천면 화양동길 188,127.811516270355,36.668900454639,정좌표
558,산막와이너리,충북 영동군,충청북도 영동군 영동읍 산막골길 31-45,127.820604018154,36.1667257311685,정좌표
559,보련산,충북 충주시,충청북도 충주시 노은면 수룡봉황길 249,127.80181883947,37.0600340513428,정좌표
560,제천 엽연초생산조합 구사옥,충북 제천시,충청북도 제천시 의병대로12길 8,128.206770460165,37.1365007966175,정좌표
561,청안향교,충북 괴산군,충청북도 괴산군 청안면 청안읍내로5길 33-14,127.642105357592,36.7754709533409,정좌표
562,제천 청풍 금병헌,충북 제천시,충청북도 제천시 청풍면 청풍호로 2048,128.17002765318,37.0047177027483,정좌표
563,죽계서원(청주),충북 청주시,충청북도 청주시 청원구 북이면 용계4길 8-12,127.522158692202,36.7585428646185,정좌표
564,석보군묘각,충북 괴산군,충청북도 괴산군 청안면 조천상길 74-21,127.662301311321,36.7799795381548,정좌표
565,영동 흥학당,충북 영동군,충청북도 영동군 매곡면 내동1길 42,127.926558965008,36.2060006208157,인근좌표
567,제천 청풍 응청각,충북 제천시,충청북도 제천시 청풍면 청풍호로 2048,128.17002765318,37.0047177027483,정좌표
568,충주 문주리 석불좌상,충북 충주시,충청북도 충주시 대소원면 팔봉로 359,127.9027872325,36.903492181902,정좌표
569,괴산 장담 충신각,충북 괴산군,충청북도 괴산군 청안면 청안읍내로 151,127.639480126875,36.7834622170876,정좌표
570,제천향교,충북 제천시,충청북도 제천시 칠성로 117,128.218195452217,37.1418630730661,정좌표
571,백련사(제천),충북 제천시,충청북도 제천시 봉양읍 명암로5길 414,128.138408824943,37.2284934595229,정좌표
574,봉유재,충북 영동군,충청북도 영동군 매곡면 내동1길 40-2,127.927140658256,36.2060628271361,정좌표
575,충용사,충북 음성군,충청북도 음성군 음성읍 용광로114번길 113,127.691362384652,36.9554036029042,정좌표
576,불휘농장,충북 영동군,충청북도 영동군 심천면 약목2길 26,127.72040158919,36.2020162939186,정좌표
577,영동블루와인농원,충북 영동군,충청북도 영동군 양산면 호탄길 53-23,127.637594799538,36.1325514036585,정좌표
578,"우천석, 우팽 부자 묘소",충북 충주시,충청북도 충주시 산척면 송강행정길 53,127.964647766651,37.0813687282246,정좌표
579,충주 이수일 묘소,충북 충주시,충청북도 충주시 금가면 석교길 19,127.885279988248,37.0114699165321,정좌표
580,서정우 가옥,충북 음성군,충청북도 음성군 감곡면 영산로55번길,127.638195746224,37.0744404093422,인근좌표
581,수정암(충북),충북 보은군,충청북도 보은군 속리산면 법주사로 379,127.83107959044,36.5403954773732,정좌표
582,청산향교,충북 옥천군,충청북도 옥천군 청산면 교평2길 18,127.797203546839,36.3457306669746,정좌표
584,보은향교,충북 보은군,충청북도 보은군 보은읍 향교2길 21-5,127.713348902803,36.4919824223375,정좌표
587,충주 창동리 오층석탑,충북 충주시,충청북도 충주시 중앙탑면 청금로 112-10,127.878829345379,36.9973122523728,정좌표
588,충주 이시진 묘소,충북 충주시,충청북도 충주시 동량면 대전리1길,127.963389229836,37.0561762497423,정좌표
589,충주 미륵리 사지 사각석등,충북 충주시,충청북도 충주시 수안보면 미륵리 52-3,128.095174791266,36.8221694570231,정좌표
590,제천 무암사 목조아미타여래좌상,충북 제천시,충청북도 제천시 금성면 청풍호로39길 285,128.205486126538,37.0310951467776,정좌표
591,기암서원,충북 청주시,충청북도 청주시 상당구 낭성면 갈산3길 15,127.570622014334,36.6573872060514,정좌표
593,청풍 황석리 고가,충북 제천시,충청북도 제천시 청풍면 청풍호로 2048,128.17002765318,37.0047177027483,정좌표
594,덕주사 약사여래입상,충북 제천시,충청북도 제천시 한수면 미륵송계로2길 87,128.098519026576,36.8619703972083,정좌표
595,제천 중전리 고가,충북 제천시,충청북도 제천시 금성면 신담길 278,128.190940623229,37.0623212936484,정좌표
596,청풍 후산리 고가,충북 제천시,충청북도 제천시 청풍면 청풍호로 2048,128.17002765318,37.0047177027483,정좌표
597,지천서원,충북 음성군,충청북도 음성군 생극면 팔성길 88,127.593332353437,37.0468405682001,정좌표
598,운곡서원,충북 청주시,충청북도 청주시 상당구 목련로214번길 37-3,127.52790351123,36.605875195687,정좌표
601,덕천서원,충북 청주시,충청북도 청주시 상당구 가덕면 노동3길 16-30,127.534477153334,36.5435669542616,정좌표
604,금성사(영동),충북 영동군,충청북도 영동군 영동읍 난계로 1120-28,127.76754607624,36.1770313813077,정좌표
605,보은동헌,충북 보은군,충청북도 보은군 보은읍 삼산로 56-14,127.715423887411,36.4845444996324,정좌표
606,영동 사로당,충북 영동군,충청북도 영동군 매곡면 내동1길 8,127.930364341298,36.2053874632341,정좌표
607,화동강목판본,충북 제천시,충청북도 제천시 봉양읍 의암로 566-7,128.086670401966,37.0993530902273,정좌표
608,목담서원,충북 옥천군,충청북도 옥천군 동이면 옥천동이로 788-30,127.640864553284,36.2866313074858,정좌표
609,문의향교,충북 청주시,충청북도 청주시 상당구 문의면 문의시내1길 11-14,127.496397446568,36.5158154272417,정좌표
611,도명산,충북 괴산군,충청북도 괴산군 청천면 화양동길 12,127.802684724952,36.6788903592463,정좌표
612,이시진 효자각,충북 충주시,충청북도 충주시 동량면 대전리1길 149,127.963389229836,37.0561762497423,정좌표
613,고미술거리,충북 충주시,충청북도 충주시 중앙탑면 가곡로 2077,127.858560576276,37.0750122610541,정좌표
614,도란원 샤토미소,충북 영동군,충청북도 영동군 매곡면 유전장척길 143,127.936854367676,36.1920840236487,정좌표
615,악휘봉,충북 괴산군,충청북도 괴산군 연풍면 입석길 172,127.95809650497,36.764233742003,정좌표
616,묵정서원,충북 청주시,충청북도 청주시 상당구 낭성면 관정길 71-29,127.629657037128,36.6143260398516,정좌표
620,관음암(충북),충북 보은군,충청북도 보은군 속리산면 법주사로 658-191,127.867474721371,36.5575301861291,정좌표
621,중사자암,충북 보은군,충청북도 보은군 속리산면 법주사로 832,127.853739702943,36.5614774054133,정좌표
622,상환암(충북),충북 보은군,충청북도 보은군 속리산면 법주사로 658-22,127.859930744328,36.5471768665757,정좌표
623,"지장사(구, 대각사)",충북 영동군,충청북도 영동군 황간면 황간동로 284-28,127.920151911212,36.2462720334313,정좌표
624,천등산전통발효식품,충북 충주시,충청북도 충주시 산척면 세고개로 277,127.959288782942,37.0928984138834,정좌표
625,중화사(영동),충북 영동군,충청북도 영동군 영동읍 화신로 529,127.839164825491,36.1481959205345,정좌표
626,만천하 짚와이어,충북 단양군,충청북도 단양군 적성면 옷바위길 10,128.33728655466,36.9776542297561,정좌표
627,북단양리조트,충북 단양군,충청북도 단양군 적성면 적성로 172-64,128.28924395896,37.026154084608,정좌표
628,성내동 관아골,충북 충주시,충청북도 충주시 관아4길 15,127.934527837864,36.9707228069411,정좌표
