,name,region,tel,keyword,photo,address,lat,lon,Unnamed: 0
0,유리섬박물관,경기 안산시,032-885-6262,"['가족체험여행', '남녀노소', '문화시설', '사계절', '수도권', '아이와함께', '안산가볼만한곳']",https://cdn.visitkorea.or.kr/img/call?cmd=VIEW&id=6626a1a9-6006-4887-9f1e-93736d6cc512&thumb,경기도 안산시 단원구 부흥로 254,37.21975458,126.60241909999999,
1,돼지박물관(돼지보러오면돼지),경기 이천시,031-641-7540,"['가족체험여행', '농촌체험', '돼지박물관', '마을축제', '문화시설', '박물관', '사계절']",https://cdn.visitkorea.or.kr/img/call?cmd=VIEW&id=a4c82bab-8e1e-4231-8fe6-934fa8fb75a6&thumb,경기도 이천시 율면 임오산로372번길 129-7,37.08577621,127.5839422,
2,아쿠아플라넷 일산,경기 고양시,031-960-8500,"['당일치기여행', '데이트코스', '문화시설', '미세먼지_피하는_실내여행', '사계절']",https://cdn.visitkorea.or.kr/img/call?cmd=VIEW&id=e2a8bda8-46b4-4b62-8146-86a9e184b88c&thumb,경기도 고양시 일산서구 한류월드로 282,37.66383701,126.7556101,
3,조명박물관,경기 양주시,070-7780-8911,"['교과서속여행', '문화시설', '박물관', '복합문화공간', '사계절', '상설공연', '수도권']",https://cdn.visitkorea.or.kr/img/call?cmd=VIEW&id=04084d57-5cbe-4850-a018-b0418f05d781&thumb,경기도 양주시 광적면 광적로 235-48,37.83609524,126.96753059999999,
4,한국잡월드,경기 성남시,1644-1333,"['경상남도과학교육원', '교육여행', '남녀노소', '문화시설', '사계절', '수도권']",https://cdn.visitkorea.or.kr/img/call?cmd=VIEW&id=b5f71425-ee73-4a4c-b0dc-f3e9fb55e3ce&thumb,경기도 성남시 분당구 분당수서로 501,37.37849451,127.1063938,
5,한국근현대사박물관,경기 파주시,031-957-1125,"['근현대사여행', '문화시설', '박물관', '수도권', '안보관광', '역사공부', '역사를품은곳']",https://cdn.visitkorea.or.kr/img/call?cmd=VIEW&id=2fdab79e-86f3-4474-8e01-c992b3c124c0&thumb,경기도 파주시 탄현면 헤이리마을길 59-85,37.79087271,126.69520190000001,
6,경기도미술관,경기 안산시,031-481-7000,"['경기도미술관', '남녀노소', '문화시설', '문화예술', '미술관', '미술작품', '복합문화공간']",https://cdn.visitkorea.or.kr/img/call?cmd=VIEW&id=8812d329-b4de-4b2a-b423-463b9730ac41&thumb,경기도 안산시 단원구 동산로 268,37.32507855,126.80998980000001,
7,해우재,경기 수원시,031-271-9777,"['가족여행', '가족체험여행', '당일치기여행', '똥도서관', '문화시설', '박물관']",https://cdn.visitkorea.or.kr/img/call?cmd=VIEW&id=9cd038b3-ecf5-427c-8ddb-9d2ce5ed91c4&thumb,경기도 수원시 장안구 장안로458번길 9,37.31922693,126.97804409999999,
8,미메시스 아트 뮤지엄,경기 파주시,031-955-4100,"['문화공간', '문화시설', '문화예술창작공간', '문화예술활동', '미메시스아트뮤지엄']",https://cdn.visitkorea.or.kr/img/call?cmd=VIEW&id=90cf7334-7fd9-45b8-9f74-eca45bbba0c2&thumb,경기도 파주시 문발로 253,37.71664923,126.6890972,
9,목아박물관,경기 여주시,031-885-9952,"['나들이', '목아박물관', '문화시설', '미세먼지_피하는_실내여행', '박물관', '수도권']",https://cdn.visitkorea.or.kr/img/call?cmd=VIEW&id=012813fe-1ca3-4065-ad10-f4f25d400b13&thumb,경기도 여주시 강천면 이문안길 21,37.28855027,127.68812290000001,
10,국립과천과학관,경기,02-3677-1500,"['가족과함께', '겨울방학가볼만한곳', '과천가볼만한곳', '국립과천과학관', '남녀노소']",https://cdn.visitkorea.or.kr/img/call?cmd=VIEW&id=d1fce5dd-69bd-4723-8cc3-330f0fe7a0ca&thumb,경기도 과천시 상하벌로 110,37.43963718,127.00229499999999,
11,경기도자박물관,경기 광주시,031-799-1500,"['가족여행', '경기도자박물관', '문화시설', '서울근교여행', '아이와함께', '예술']",https://cdn.visitkorea.or.kr/img/call?cmd=VIEW&id=329b617f-ea11-46b6-8ca0-6d502d7f2c7f&thumb,경기도 광주시 곤지암읍 경충대로 727,37.35028278,127.3347855,
12,청암민속박물관,경기 양주시,031-855-5100,"['기차여행', '문화시설', '박물관', '서울근교여행', '수도권', '아이와함께', '이색체험']",https://cdn.visitkorea.or.kr/img/call?cmd=VIEW&id=464014a8-8941-4d96-a109-56ebe7ead2b6&thumb,경기도 양주시 장흥면 권율로 83-5,37.72205241,126.9457903,
13,수원화성박물관,경기 수원시,031-228-4242,"['문화공간', '문화시설', '박물관', '복합문화공간', '수도권', '수원화성박물관']",https://cdn.visitkorea.or.kr/img/call?cmd=VIEW&id=3b1c372a-ab86-48c5-84ca-5c3065283310&thumb,경기도 수원시 팔달구 창룡대로 21,37.28259139,127.01898510000001,
14,여주박물관,경기 여주시,031-887-3583,"['교과서속여행', '문화시설', '미세먼지_피하는_실내여행', '박물관', '수도권']",https://cdn.visitkorea.or.kr/img/call?cmd=VIEW&id=a71e90cb-fb0f-491e-8866-b2fe5bd866b8&thumb,경기도 여주시 신륵사길 6-12,37.29965313,127.6533791,
15,구하우스미술관,경기 양평군,031-774-7460,"['건축여행', '구하우스', '기획전시', '문화시설', '미술관', '수도권', '양평가볼만한곳']",https://cdn.visitkorea.or.kr/img/call?cmd=VIEW&id=cad82fbf-a791-4ceb-a7fa-be4bdcae06b3&thumb,경기도 양평군 서종면 무내미길 49-12,37.60305157,127.35114440000001,
16,C 아트뮤지엄(숲속의 미술공원),경기 양평군,031-775-6945,"['C아트뮤지엄', '당일치기여행', '문화공간', '문화시설', '미술관', '미술작품']",https://cdn.visitkorea.or.kr/img/call?cmd=VIEW&id=94daf80d-ff43-4c09-8efc-ce26fe7a06a4&thumb,경기도 양평군 양동면 다락근이길 57-13,37.39488762,127.7373348,
17,경기도박물관,경기 용인시,031-288-5300,"['가족여행', '경기도박물관', '무료관람', '문화시설', '박물관', '수도권', '아이와함께']",https://cdn.visitkorea.or.kr/img/call?cmd=VIEW&id=157b0d55-4dd9-46a5-8eeb-4d1b1facc513&thumb,경기도 용인시 기흥구 상갈로 6,37.26817020000001,127.1088507,
18,경기도어린이박물관,경기 용인시,031-270-8600,"['가족여행', '경기도어린이박물관', '교과서속여행', '문화시설', '박물관', '수도권']",https://cdn.visitkorea.or.kr/img/call?cmd=VIEW&id=31d6e42d-979b-4649-afd5-1f089a490a04&thumb,경기도 용인시 기흥구 상갈로 6,37.26817020000001,127.1088507,
19,안산 어촌민속박물관,경기 안산시,032-886-0126,"['가족여행', '가족체험여행', '문화시설', '박물관', '수도권', '아이와함께', '안산가볼만한곳']",https://cdn.visitkorea.or.kr/img/call?cmd=VIEW&id=8e415e31-bd91-4de9-9deb-6d260fac3103&thumb,경기도 안산시 단원구 대부황금로 7,37.19250726,126.64612050000001,
20,박물관 얼굴,경기 광주시,031-765-3522,"['가족여행', '경기권', '경기도 광주', '문화시설', '박물관얼굴', '서울근교', '체험학습']",https://cdn.visitkorea.or.kr/img/call?cmd=VIEW&id=a79b87d4-c251-4b42-a708-c59daaf10e86&thumb,경기도 광주시 남종면 분원길 3-6,37.4939575,127.30205090000001,
21,부천자연생태공원,경기 부천시,032-320-3000,"['나들이', '문화시설', '박물관', '부천자연생태공원', '서울근교여행', '아이와함께']",https://cdn.visitkorea.or.kr/img/call?cmd=VIEW&id=80a216cc-3f06-401b-a76d-c2d6a862cee5&thumb,경기도 부천시 원미구 길주로 660,37.50512868,126.8156874,
22,더 파크 아프리카뮤지엄,경기 포천시,031-543-3600,"['교과서속여행', '더파크아프리카뮤지엄', '문화시설', '박물관', '수도권', '아이와함께']",https://cdn.visitkorea.or.kr/img/call?cmd=VIEW&id=b4291a81-f3fd-46f9-a314-3d50585f4900&thumb,경기도 포천시 소흘읍 광릉수목원로 967,37.77526972,127.1393277,
23,전곡선사박물관,경기 연천군,031-830-5600,"['가족여행', '문화시설', '박물관', '수도권', '아이와함께', '전곡선사박물관']",https://cdn.visitkorea.or.kr/img/call?cmd=VIEW&id=ab0986f3-2f0b-417d-8ea5-c43bc735608d&thumb,경기도 연천군 전곡읍 평화로443번길 2,38.01159172,127.0637623,
24,백남준아트센터,경기 용인시,031-201-8500,"['문화시설', '문화예술', '미세먼지_피하는_실내여행', '미술관', '백남준아트센터']",https://cdn.visitkorea.or.kr/img/call?cmd=VIEW&id=58055fa4-ed5f-4245-a8e1-6193f3c028e2&thumb,경기도 용인시 기흥구 백남준로 10,37.26914663,127.1104379,
25,모란미술관,경기 남양주시,031-594-8001,"['나들이', '데이트코스', '모란미술관', '문화시설', '미술관', '수도권', '실내여행지']",https://cdn.visitkorea.or.kr/img/call?cmd=VIEW&id=3ca6ffc9-68e9-4ec8-a467-0a0aa1b20483&thumb,경기도 남양주시 화도읍 경춘로2110번길 8,37.42467857,126.8634321,
26,광명업사이클아트센터,경기 광명시,02-2680-6952,"['가족과함께', '광명업사이클아트센터', '문화시설', '복합문화공간', '수도권']",https://cdn.visitkorea.or.kr/img/call?cmd=VIEW&id=0e6a3ba5-4892-48d7-a5fc-c691a7e85317&thumb,경기도 광명시 가학로85번길 142,37.6504135,127.32377749999999,
27,추억의 청춘뮤지엄,경기 양평군,031-775-8907,"['SNS감성사진', '감성사진', '문화시설', '복합문화공간', '사진찍기', '사진찍기좋은곳']",https://cdn.visitkorea.or.kr/img/call?cmd=VIEW&id=e7a0b1b9-891e-402e-b228-d91e141faf07&thumb,경기도 양평군 용문면 용문산로 620,37.5445765,127.5854011,
28,프라움악기박물관,경기 남양주시,031-521-6043,"['남양주가볼만한곳', '데이트코스', '문화공간', '문화시설', '복합문화공간', '사계절']",https://cdn.visitkorea.or.kr/img/call?cmd=VIEW&id=9e5a026d-d0b3-4516-9e59-f228db38d1c7&thumb,경기도 남양주시 와부읍 경강로 756,37.56850845,127.22704920000001,
29,부천시립심곡도서관,경기 부천시,032-625-4588,"['남녀노소', '도서관', '독서교육', '문화공간', '문화시설', '부천시립심곡도서관']",https://cdn.visitkorea.or.kr/img/call?cmd=VIEW&id=2ebf3bd2-0e70-43d5-a4f4-3264cd792100&thumb,경기도 부천시 성무로 24,37.48035202,126.7839472,
30,왈츠와 닥터만 커피박물관,경기 남양주시,031-576-0020,"['가족여행', '경기권', '문화시설', '서울근교여행', '왈츠와닥터만커피박물관']",https://cdn.visitkorea.or.kr/img/call?cmd=VIEW&id=a1b08438-933e-442f-952c-5e00679765d6&thumb,경기도 남양주시 조안면 북한강로 856-37,37.59196631,127.33845649999999,
31,수원시립아이파크미술관,경기 수원시,031-228-3800,"['문화시설', '문화예술공간', '미술관', '복합문화공간', '수도권', '수원시립아이파크미술관']",https://cdn.visitkorea.or.kr/img/call?cmd=VIEW&id=3aeedfbf-d58a-4740-812c-d03d21624b9e&thumb,경기도 수원시 팔달구 정조로 833,37.28270503,127.01582509999999,
32,안산문화원,경기 안산시,031-415-0041,"['가족여행', '경기권', '무장애', '문화시설', '서울근교여행', '안산문화원', '안산시']",https://cdn.visitkorea.or.kr/img/call?cmd=VIEW&id=6aa68e80-5a33-496d-8334-dbd0db4fa594&thumb,경기도 안산시 상록구 석호로 144,37.29932569,126.84763170000001,
33,국립수목원 산림박물관,경기 포천시,031-540-2000,"['국립수목원', '문화시설', '박물관', '산림박물관', '수도권', '수목원', '아이와함께']",https://cdn.visitkorea.or.kr/img/call?cmd=VIEW&id=489bc826-2926-4fd9-96c6-afbbf4f21799&thumb,경기도 포천시 소흘읍 광릉수목원로 415,37.75624231,127.1656646,
34,기형도문학관,경기 광명시,02-2621-8860,"['문학관', '문화시설', '복합문화공간', '시문학', '아이와함께', '열린문화공간']",https://cdn.visitkorea.or.kr/img/call?cmd=VIEW&id=6360782c-0a72-4bac-8693-4b6d95d9b6e1&thumb,경기도 광명시 오리로 268,37.42640701,126.8815782,
35,수원광교박물관,경기 수원시,031-228-4175,"['문화시설', '박물관', '수도권', '수원광교박물관', '아이와함께', '역사를품은곳']",https://cdn.visitkorea.or.kr/img/call?cmd=VIEW&id=24d44390-1633-4ff4-aef2-cf81f4c06218&thumb,경기도 수원시 영통구 광교로 182,37.29634871,127.0514216,
36,남양주시립박물관,경기 남양주시,031-590-8600,"['가족과함께', '남녀노소', '남양주시립박물관', '문화공간', '문화시설', '박물관']",https://cdn.visitkorea.or.kr/img/call?cmd=VIEW&id=6287129e-815e-48d0-a559-bcdd30c08a17&thumb,경기도 남양주시 와부읍 팔당로 121,37.54638614,127.2443744,
37,경기아트센터,경기 수원시,031-230-3200,"['경기도문화의전당', '단체관람', '문화시설', '서울근교여행', '아이와함께', '연인과함께']",https://cdn.visitkorea.or.kr/img/call?cmd=VIEW&id=82705d2e-71c0-47fd-b9cf-0c157f7b8430&thumb,경기도 수원시 팔달구 효원로307번길 20,37.26158333,127.0375696,
38,안성맞춤박물관,경기 안성시,031-676-4352,"['나들이', '문화시설', '박물관', '서울근교여행', '아이와함께', '안성맞춤박물관']",https://cdn.visitkorea.or.kr/img/call?cmd=VIEW&id=0c8320d1-2ba8-4d28-8028-c8a8ecf6ffdf&thumb,경기도 안성시 대덕면 서동대로 4726-15,37.01131789,127.22835590000001,
39,경기북부어린이박물관,경기 동두천시,031-860-2860,"['겨울방학가볼만한곳', '경기북부어린이박물관', '문화공간', '문화시설', '박물관']",https://cdn.visitkorea.or.kr/img/call?cmd=VIEW&id=46d3669f-0ce3-4f89-91c8-b031ea0fcc4e&thumb,경기도 동두천시 평화로2910번길 46,37.94467141,127.06445120000001,
40,한국 초콜릿연구소뮤지엄,경기 가평군,031-585-4691,"['가족과함께', '가족체험', '가평가볼만한곳', '문화시설', '복합문화공간', '아이와함께']",https://cdn.visitkorea.or.kr/img/call?cmd=VIEW&id=c25d1a61-82de-4880-a831-01423c18aa21&thumb,경기도 가평군 청평면 경춘로 157,37.69012485,127.38030309999999,
41,안성 3.1운동기념관,경기 안성시,31 031-678-2478,"['3·1운동_100주년_여행지추천', '가족여행', '교과서속여행', '기념관', '문화시설']",https://cdn.visitkorea.or.kr/img/call?cmd=VIEW&id=fcbccdce-018f-4419-822c-0006cd61b43e&thumb,경기도 안성시 원곡면 만세로 868,37.06278466,127.17529520000001,
42,여주세계생활도자관,경기 여주시,031-884-8644,"['가족여행', '도자기박물관', '문화시설', '미세먼지_피하는_실내여행', '반달미술관']",https://cdn.visitkorea.or.kr/img/call?cmd=VIEW&id=fdeae97a-ed9e-4541-854e-9e006c170665&thumb,경기도 여주시 신륵사길 7,37.30014504,127.65454620000001,
43,양평군립미술관,경기 양평군,031-775-8515,"['경기도', '기념품판매', '문화시설', '문화행사', '미술관', '아이와함께', '양평군립미술관']",https://cdn.visitkorea.or.kr/img/call?cmd=VIEW&id=fd5c5fa6-fe68-4b04-9baf-3fc3a61ce707&thumb,경기도 양평군 양평읍 문화복지길 2,37.49709935,127.4839989,
44,일본군'위안부'역사관,경기 광주시,031-768-0064,"['경기도 광주', '나눔의 집', '문화시설', '위안부', '일본군위안부역사관', '전쟁범죄']",https://cdn.visitkorea.or.kr/img/call?cmd=VIEW&id=b58322c7-4796-4985-83c6-1b3926b158f5&thumb,경기도 광주시 퇴촌면 가새골길 85,37.4428472,127.32201979999999,
45,한국미술관,경기 용인시,031-283-6418,"['데이트코스', '문화시설', '미술관', '수도권', '아이와함께', '연인과함께', '예술']",https://cdn.visitkorea.or.kr/img/call?cmd=VIEW&id=c1085628-915e-4411-90a3-db68d09f8ad9&thumb,경기도 용인시 기흥구 마북로 244-2,37.30896613,127.1319669,
46,김포독립운동기념관,경기 김포시,031-996-6270,"['교과서속여행', '기념관', '김포독립기념관', '무장애', '문화시설', '미세먼지_피하는_실내여행']",https://cdn.visitkorea.or.kr/img/call?cmd=VIEW&id=e80dffb4-830d-4341-bba3-e64eee98a4cb&thumb,경기도 김포시 양촌읍 양곡2로30번길 46,37.65335898,126.62964199999999,
47,지앤아트스페이스,경기 용인시,031-286-8500,"['남녀노소', '당일치기여행', '도예가', '도예체험', '문화시설', '미술관', '수도권']",https://cdn.visitkorea.or.kr/img/call?cmd=VIEW&id=0039c7b1-e6b4-480b-8199-4dfd0ceecfec&thumb,경기도 용인시 기흥구 백남준로 7,37.26991208,127.11012509999999,
48,만해기념관,경기 광주시,031-744-3100,"['가족여행', '근대문화유산', '만해기념관', '문화시설', '박물관', '수도권', '아이와함께']",https://cdn.visitkorea.or.kr/img/call?cmd=VIEW&id=b79f4094-a994-4431-9271-9fdf8a9da7cf&thumb,경기도 광주시 남한산성면 남한산성로792번길 24-8,37.47780122,127.18130500000001,
49,이천시립월전미술관,경기 이천시,031-637-0033,"['나들이', '데이트코스', '문화시설', '미술관', '수도권', '실내여행지', '아이와함께']",https://cdn.visitkorea.or.kr/img/call?cmd=VIEW&id=547ec234-c663-4bcc-93f0-d072d565b5dd&thumb,경기도 이천시 경충대로2709번길 185,37.28016656,127.4240472,
50,과천시민회관,경기,02-504-7300,"['공연장', '과천시민회관', '데이트코스', '문화시설', '복합문화공간', '상설공연']",https://cdn.visitkorea.or.kr/img/call?cmd=VIEW&id=179cb158-1b18-41c0-ad0a-7b35f61c201c&thumb,경기도 과천시 통영로 5,37.42819272,126.9891524,
51,용인 포은아트홀,경기 용인시,031-260-3300,"['가족여행', '데이트코스', '문화공간', '문화시설', '문화행사', '복합문화공간']",https://cdn.visitkorea.or.kr/img/call?cmd=VIEW&id=81321c14-4be2-43ed-b797-ef8623ee805a&thumb,경기도 용인시 수지구 포은대로 499,37.32561804,127.1047625,
52,부천시립원미도서관,경기 부천시,032-625-4723,"['남녀노소', '독서교육', '문화공간', '문화시설', '부천시립원미도서관']",https://cdn.visitkorea.or.kr/img/call?cmd=VIEW&id=6885cbb6-2347-453a-8ac4-bf63dca13051&thumb,경기도 부천시 소사로 456,37.4979854,126.7990398,
53,고양 아람누리,경기 고양시,1577-7766,"['고양아람누리', '문화시설', '문화행사', '복합문화공간', '상설공연', '수도권']",https://cdn.visitkorea.or.kr/img/call?cmd=VIEW&id=48f272ba-f2ad-4259-8f59-63e906e0aa82&thumb,경기도 고양시 일산동구 중앙로 1286,37.661485600000006,126.77445829999999,
54,고양 선인장전시관,경기 고양시,031-908-4525,"['고양선인장전시관', '당일치기여행', '문화시설', '서울근교여행', '수도권', '아이와함께']",https://cdn.visitkorea.or.kr/img/call?cmd=VIEW&id=c9f1784b-9cea-419b-908c-bf664c9f7b03&thumb,경기도 고양시 일산동구 호수로 731,37.66444706,126.7604422,
55,남한산성아트홀(광주시문화스포츠센터 공연장),경기 광주시,031-760-4480,"['가족여행', '남한산성아트홀', '데이트코스', '문화공간', '문화시설', '문화행사']",https://cdn.visitkorea.or.kr/img/call?cmd=VIEW&id=a81337bf-eb1f-4fbf-aa7c-83fbc1a4deb7&thumb,경기도 광주시 회안대로 891,37.4268685,127.25470609999999,
56,재미있는 추억 박물관,경기 파주시,031-943-2552,"['가족과함께', '골동품', '남녀노소', '문화시설', '박물관', '아이와함께', '연인과함께']",https://cdn.visitkorea.or.kr/img/call?cmd=VIEW&id=0aa89924-c8b9-4d3d-b355-4e2e28c6de8f&thumb,경기도 파주시 탄현면 헤이리마을길 93-148,37.79090185,126.69815729999999,
57,우석헌자연사박물관,경기 남양주시,031-572-9555,"['교과서속여행', '문화시설', '박물관', '사계절', '수도권', '실내여행지', '아이와함께']",https://cdn.visitkorea.or.kr/img/call?cmd=VIEW&id=8a6d6c1f-dd1c-4381-b545-d830c32e6a14&thumb,경기도 남양주시 진접읍 금강로 1095,37.69803201,127.1608188,
58,성호박물관,경기 안산시,031-481-2574,"['기념관', '무장애', '문화시설', '박물관', '서울근교여행', '성호기념관', '아이와함께']",https://cdn.visitkorea.or.kr/img/call?cmd=VIEW&id=19cf9afd-7052-458a-8ab1-fad2d5176053&thumb,경기도 안산시 상록구 성호로 131,37.31507523,126.85957739999999,
59,국립현대미술관(과천관),경기,02-2188-6000,"['과천관', '국립현대미술관', '나들이', '데이트코스', '문화시설', '미술관', '수도권']",https://cdn.visitkorea.or.kr/img/call?cmd=VIEW&id=3714fee5-3884-4159-8ebf-b69d7e8d713e&thumb,경기도 과천시 광명로 313,37.43100343,127.01992990000001,
60,경기도국악당,경기 용인시,031-289-6400,"['가족여행', '경기도국악당', '단체관람', '문화시설', '아이와함께', '연인과함께']",https://cdn.visitkorea.or.kr/img/call?cmd=VIEW&id=e2a5bde6-d18d-4c99-8cbf-54cf28d01e2d&thumb,경기도 용인시 기흥구 민속촌로 89,37.25940011,127.11361969999999,
61,일산밤가시초가,경기 고양시,031-8075-3388,"['가족여행', '경기권', '문화시설', '서울근교여행', '역사', '일산밤가시초가', '전통가옥']",https://cdn.visitkorea.or.kr/img/call?cmd=VIEW&id=26e9da51-e54b-47d9-831f-044f3a2f21ae&thumb,경기도 고양시 일산동구 햇살로105번길 36-7,37.67019413,126.78029540000001,
62,수원박물관,경기 수원시,031-228-4150,"['가족과함께', '교과서속여행', '남녀노소', '문화시설', '미세먼지_피하는_실내여행']",https://cdn.visitkorea.or.kr/img/call?cmd=VIEW&id=4aa9a7aa-6fd7-4b15-8377-3575dc8e63d3&thumb,경기도 수원시 영통구 창룡대로 265,37.29764714,127.03563290000001,
63,와동 생태곤충 체험관,경기 안산시,031-481-2629,"['가볼만한축제', '문화시설', '생태관', '생태테마', '아이와함께', '와동생태곤충체험관']",https://cdn.visitkorea.or.kr/img/call?cmd=VIEW&id=e9a13341-bd20-4051-b96d-d6a5c6335238&thumb,경기도 안산시 단원구 와동공원로 109,37.34001915,126.82030259999999,
64,뮤지엄그라운드,경기 용인시,031-265-8200,"['남녀노소', '문화공간', '문화시설', '문화예술', '문화예술공간', '미술관', '미술작품']",https://cdn.visitkorea.or.kr/img/call?cmd=VIEW&id=78d69bd2-2f9d-4b6e-bc6c-1490cf46970b&thumb,경기도 용인시 수지구 샘말로 122,37.35645009,127.0440969,
65,호암미술관,경기 용인시,031-320-1801,"['가족여행', '경기권', '문화시설', '서울근교여행', '호암미술관']",https://cdn.visitkorea.or.kr/img/call?cmd=VIEW&id=5d473405-a72b-4d87-b79a-38000133ae7f&thumb,경기도 용인시 처인구 포곡읍 에버랜드로562번길 38,37.29321604,127.192333,
66,부천 물 박물관,경기 부천시,032-625-3399,"['나들이', '문화시설', '박물관', '부천물박물관', '서울근교여행', '아이와함께']",https://cdn.visitkorea.or.kr/img/call?cmd=VIEW&id=4b261d1d-f45a-4457-a9f5-f5a129abff9c&thumb,경기도 부천시 길주로 691,37.520247999999995,126.812149,
67,남양주 어린이비전센터,경기 남양주시,031-560-1560,"['겨울방학가볼만한곳', '남양주어린이비전센터', '문화시설', '서울근교여행']",https://cdn.visitkorea.or.kr/img/call?cmd=VIEW&id=a8f303a8-5008-4989-8d43-a792d323b90f&thumb,경기도 남양주시 진접읍 해밀예당1로 96,37.71709051,127.19104879999999,
68,김포 아트빌리지,경기 김포시,031-996-6836,"['문화시설', '복합문화공간', '아이와함께', '연인과함께', '열린문화공간', '이색체험']",https://cdn.visitkorea.or.kr/img/call?cmd=VIEW&id=060d66ca-dcdc-4e9e-bd08-67466a91e048&thumb,경기도 김포시 모담공원로 170,37.64663282,126.6962136,
69,남송미술관,경기 가평군,031-581-0772,"['남송미술관', '명지산', '문화시설', '미술관', '수도권', '예술', '전망', '주말추천여행지']",https://cdn.visitkorea.or.kr/img/call?cmd=VIEW&id=d2186c0a-d175-441e-bdf4-6dc89dda97a7&thumb,경기도 가평군 북면 백둔로 322,37.9045119,127.4722748,
70,판교박물관,경기 성남시,031-729-4535,"['교과서속여행', '문화시설', '박물관', '수도권', '아이와함께', '역사공부', '역사를품은곳']",https://cdn.visitkorea.or.kr/img/call?cmd=VIEW&id=5914969e-cf4a-48b7-bd95-4186c3315224&thumb,경기도 성남시 분당구 판교로 191,37.40108358,127.09554569999999,
71,광주문화원(경기),경기 광주시,031-764-0686,"['광주문화원', '문화시설', '문화원', '사계절', '서울근교여행', '수도권', '실내여행지']",https://cdn.visitkorea.or.kr/img/call?cmd=VIEW&id=18a265ed-906e-4089-ab69-d61d6a983685&thumb,경기도 광주시 문화로85번길 19-12,37.40997626,127.2493751,
72,수원시미술전시관,경기 수원시,031-243-3647,"['가족여행', '문화시설', '미술관', '사계절', '수도권', '수원시미술전시관', '예술']",https://cdn.visitkorea.or.kr/img/call?cmd=VIEW&id=104addec-5ce3-4086-98f1-11285dc553d5&thumb,경기도 수원시 장안구 송정로 19,37.29703674,126.9994548,
73,서울액션스쿨 (마샬아트센터),경기 파주시,031-946-6746,"['남녀노소', '마샬아트센터', '문화시설', '서울액션스쿨', '수도권', '연인과함께']",https://cdn.visitkorea.or.kr/img/call?cmd=VIEW&id=0ee822cc-198d-4998-8666-b2a3a9738864&thumb,경기도 파주시 탄현면 헤이리마을길 18-61,37.78739839,126.6948364,
74,최용신기념관,경기 안산시,031-481-3040,"['교과서속여행', '근대문화유산', '기념관', '문화시설', '수도권', '애국계몽', '애국심']",https://cdn.visitkorea.or.kr/img/call?cmd=VIEW&id=d6055cc3-927b-4e8c-ac58-b9d8083dbf9b&thumb,경기도 안산시 상록구 샘골서길 64,37.29964386,126.8627402,
75,포천 반월아트홀,경기 포천시,031-540-6213,"['가족여행', '문화시설', '상설공연', '수도권', '아이와함께', '연인과함께', '예술']",https://cdn.visitkorea.or.kr/img/call?cmd=VIEW&id=91f7d377-55f2-444f-8f04-8551bbfb967a&thumb,경기도 포천시 군내면 청성로 111,37.89610864,127.21241840000002,
76,용인시여성회관,경기 용인시,1577-1122,"['문화공간', '문화시설', '문화행사', '복합문화공간', '사계절', '상설공연', '수도권']",https://cdn.visitkorea.or.kr/img/call?cmd=VIEW&id=aaa62baf-d5e1-488e-a8b7-a1dc297e6299&thumb,경기도 용인시 수지구 문정로7번길 15,37.32052477,127.095499,
77,한국항공대학교 항공우주박물관,경기 고양시,02-300-0466,"['문화시설', '박물관', '수도권', '아이와함께', '전시관', '체험학습', '친구와함께']",https://cdn.visitkorea.or.kr/img/call?cmd=VIEW&id=d43f029f-bb4f-4150-a6fe-e76f0211a5f8&thumb,경기도 고양시 덕양구 항공대학로 76,37.59901633,126.86417250000001,
78,고양 어린이박물관,경기 고양시,031-839-0300,"['가족과함께', '문화시설', '미세먼지_피하는_실내여행', '복합문화공간', '아이가_좋아하는_여행']",https://cdn.visitkorea.or.kr/img/call?cmd=VIEW&id=0b574fb7-f5ca-446a-a03f-fb187685e0e3&thumb,경기도 고양시 덕양구 화중로 26,37.62948078,126.8309491,
79,파주 나비나라박물관,경기 파주시,031-955-3727,"['가족과함께', '공예품', '나비전시관', '문화시설', '박물관', '서울근교여행', '수도권']",https://cdn.visitkorea.or.kr/img/call?cmd=VIEW&id=8068eb36-8a17-4e37-aae8-527dd906678f&thumb,경기도 파주시 광인사길 161,37.71485205,126.68691240000001,
80,배다골테마파크 고양민속박물관,경기 고양시,031-970-7339,"['가족과함께', '고양시', '데이트', '문화시설', '아이와함게']",https://cdn.visitkorea.or.kr/img/call?cmd=VIEW&id=57c8ea1b-821e-4483-be63-050e3dfdf499&thumb,경기도 고양시 덕양구 배다골길 131,37.63016535,126.84810929999999,
81,의왕조류생태과학관,경기 의왕시,031-8086-7490,"['교과서속여행', '무더위_피해_실내놀이', '문화시설', '박물관', '사계절', '수도권']",https://cdn.visitkorea.or.kr/img/call?cmd=VIEW&id=4abe289e-aa37-4e07-8ea2-0301b264285f&thumb,경기도 의왕시 왕송못동로 209,37.31088595,126.9503038,
82,여주곤충박물관,경기 여주시,031-885-1400,"['가족과함께', '곤충류', '곤충박물관', '곤충생태관', '곤충체험학습', '남녀노소']",https://cdn.visitkorea.or.kr/img/call?cmd=VIEW&id=e0ac3f64-abaa-460d-ad2f-00e8b54b5cc3&thumb,경기도 여주시 명품로 308-28,37.24330328,127.61602820000002,
83,중남미문화원,경기 고양시,031-962-9291,"['나들이', '데이트코스', '문화시설', '미술관', '박물관', '수도권', '실내여행지']",https://cdn.visitkorea.or.kr/img/call?cmd=VIEW&id=cd0f4b56-1249-4971-94a6-2ceaac2b7ff9&thumb,경기도 고양시 덕양구 대양로285번길 33-15,37.70358397,126.8953482,
84,고양 화장실전시관,경기 고양시,031-8075-4351,"['가족과함께', '고양가볼만한곳', '문화시설', '미세먼지_피하는_실내여행', '산책하기']",https://cdn.visitkorea.or.kr/img/call?cmd=VIEW&id=236416f4-830d-4053-9034-1740d4cd0147&thumb,경기도 고양시 일산동구 호수로 731,37.66444706,126.7604422,
85,현대어린이책미술관,경기 성남시,031-5170-3700,"['가족과함께', '문화시설', '미술관', '수도권', '아이와함께', '전시관', '체험학습']",https://cdn.visitkorea.or.kr/img/call?cmd=VIEW&id=7d30f5c1-bd20-4efe-bb40-c20125f163a3&thumb,경기도 성남시 분당구 판교역로146번길 20,37.39279462,127.1120875,
86,죽포미술관,경기 여주시,031-881-5905,"['남녀노소', '문화시설', '문화예술', '문화예술활동', '미술관', '복합문화공간']",https://cdn.visitkorea.or.kr/img/call?cmd=VIEW&id=c3cc4254-1643-43d7-abdc-0b91d664ca0c&thumb,경기도 여주시 산북면 고촌길 26-10,37.4100311,127.44263810000001,
87,갤러리박영,경기 파주시,031-955-4071,"['갤러리박영', '문화시설', '문화예술', '미술관', '수도권', '열린문화공간', '이색체험']",https://cdn.visitkorea.or.kr/img/call?cmd=VIEW&id=3352cf9a-8918-49e3-834b-be3fc118e5ee&thumb,경기도 파주시 회동길 37-9,37.70574008,126.6843092,
88,한과문화박물관 한가원,경기 포천시,031-533-8121,"['가족체험여행', '문화시설', '박물관', '서울근교여행', '수도권', '아이와함께']",https://cdn.visitkorea.or.kr/img/call?cmd=VIEW&id=1ec52d4d-c297-4da4-8d7c-f11461811ff2&thumb,경기도 포천시 영북면 산정호수로322번길 26-9,38.068356099999995,127.3037294,
89,용인시문예회관,경기 용인시,031-335-0455,"['가족여행', '데이트코스', '문화공간', '문화시설', '문화행사', '복합문화공간']",https://cdn.visitkorea.or.kr/img/call?cmd=VIEW&id=9f19f38f-f08d-46e0-8d9d-21736fbfa264&thumb,경기도 용인시 처인구 중부대로1392번길 15,37.23174325,127.1988706,
90,평택남부문화예술회관,경기 평택시,031-8024-5415,"['공연장', '데이트코스', '문화시설', '복합문화공간', '아이와함께', '연인과함께']",https://cdn.visitkorea.or.kr/img/call?cmd=VIEW&id=f19e4341-e9aa-493b-bbc9-51453f83fb61&thumb,경기도 평택시 중앙로 277,36.99113416,127.1140857,
91,연천수레울아트홀,경기 연천군,031-834-3770,"['가족여행', '데이트코스', '문화공간', '문화시설', '문화행사', '복합문화공간']",https://cdn.visitkorea.or.kr/img/call?cmd=VIEW&id=be875192-5bec-4b82-ba83-220048df9aad&thumb,경기도 연천군 연천읍 문화로 150,38.10712455,127.0797463,
92,동화나라,경기 파주시,031-942-1956,"['당일치기여행', '독서여행', '독서회', '동화나라', '문화공간', '문화시설', '복합문화공간']",https://cdn.visitkorea.or.kr/img/call?cmd=VIEW&id=5016451e-8b87-41b3-b679-bb50b072e833&thumb,경기도 파주시 탄현면 헤이리마을길 93-20,37.79066684,126.69852949999999,
93,성남문화원,경기 성남시,031-756-1082,"['경기도', '무장애', '문화시설', '문화원', '성남시', '지방문화원', '지역문화']",https://cdn.visitkorea.or.kr/img/call?cmd=VIEW&id=06cf3344-5258-420b-828d-d3ac807cfd8d&thumb,경기도 성남시 수정구 산성대로215번길 7,37.43905043,127.1408494,
94,오산문화예술회관,경기 오산시,031-379-9900,"['가족과함께', '공연/전시', '문화공간', '문화시설', '문화예술', '문화예술공간']",https://cdn.visitkorea.or.kr/img/call?cmd=VIEW&id=deaa35f5-3234-4ab9-b393-e7ecfc9690ef&thumb,경기도 오산시 경기동로 41,37.15954898,127.076857,
95,인터렉티브아트뮤지엄,경기 가평군,070-8899-4251,"['문화시설', '수도권', '연중무휴', '인터렉티브아트뮤지엄']",https://cdn.visitkorea.or.kr/img/call?cmd=VIEW&id=29c80d49-7618-4a4a-a3d5-f73f8051280d&thumb,경기도 가평군 가평읍 호반로 1655,37.74347669,127.51062579999999,
96,보름산미술관(김포),경기 김포시,031-985-0005,"['문화시설', '문화예술', '문화예술공간', '문화예술활동', '미술자료', '미술작품']",https://cdn.visitkorea.or.kr/img/call?cmd=VIEW&id=95535a78-e643-4852-88e6-d38a7e041357&thumb,경기도 김포시 고촌읍 수기로 100-78,37.59637231,126.760888,
97,안성 남사당 공연장,경기 안성시,031-678-2518,"['가족여행', '문화시설', '서울근교여행', '안성남사당공연장', '연인과함께', '음악회']",https://cdn.visitkorea.or.kr/img/call?cmd=VIEW&id=838bd420-aebd-40fd-8ed7-7f3b3d2cc53b&thumb,경기도 안성시 보개면 남사당로 198-2,37.03181804,127.31005060000001,
98,지도박물관,경기 수원시,031-210-2667,"['교과서속여행', '문화시설', '박물관', '사계절', '수도권', '실내여행지', '아이와함께']",https://cdn.visitkorea.or.kr/img/call?cmd=VIEW&id=d825f882-afb9-4d2a-a497-dd414779be82&thumb,경기도 수원시 영통구 월드컵로 92,37.27577145,127.0549634,
99,이천아트홀,경기 이천시,031-644-2100,"['가족여행', '데이트코스', '문화공간', '문화시설', '문화예술', '문화예술활동']",https://cdn.visitkorea.or.kr/img/call?cmd=VIEW&id=d384aa11-f7be-4a25-9efb-c7d591a69dc8&thumb,경기도 이천시 부악로 40,37.27212308,127.43503659999999,
100,한국등잔박물관,경기 용인시,031-334-0797,"['당일치기여행', '문화시설', '박물관', '수도권', '실내여행지', '아이와함께', '이색체험']",https://cdn.visitkorea.or.kr/img/call?cmd=VIEW&id=219145af-7f2b-4e59-9df6-9d416a39b11f&thumb,경기도 용인시 처인구 모현읍 능곡로56번길 8,37.33658645,127.17788090000002,
101,의정부문화원,경기 의정부시,031-872-5678,"['문화강좌', '문화시설', '열린문화공간', '의정부문화원']",https://cdn.visitkorea.or.kr/img/call?cmd=VIEW&id=a4f3c478-841f-4e05-b958-3e0227930186&thumb,경기도 의정부시 산단로 123,37.74638963,127.0794087,
102,말박물관,경기,02-509-1287,"['나들이', '말박물관', '문화시설', '박물관', '수도권', '실내여행지', '아이와함께']",https://cdn.visitkorea.or.kr/img/call?cmd=VIEW&id=bcdb62df-0c6c-49db-8c8c-007c253c50fa&thumb,경기도 과천시 경마공원대로 107,37.44120036,127.01612659999998,
103,하남역사박물관,경기 하남시,031-790-7990,"['교과서속여행', '문화시설', '박물관', '사계절', '수도권', '실내여행지', '아이와함께']",https://cdn.visitkorea.or.kr/img/call?cmd=VIEW&id=6987f3a8-6053-4fd9-9c39-739706cbc47f&thumb,경기도 하남시 덕풍동로 30,37.54546042,127.20608419999999,
104,양평 친환경농업박물관,경기 양평군,070-7715-3796,"['가족과함께', '가족여행', '농업박물관', '문화시설', '박물관', '산책하기좋은곳']",https://cdn.visitkorea.or.kr/img/call?cmd=VIEW&id=645f11f8-8dc5-4bd4-bf25-559fd6b7ca60&thumb,경기도 양평군 용문면 용문산로 670,37.54760517,127.58122479999999,
105,킨텍스,경기 고양시,031-810-8114,"['문화시설', '복합문화공간', '수도권', '열린문화공간', '전시관', '컨벤션', '킨텍스']",https://cdn.visitkorea.or.kr/img/call?cmd=VIEW&id=5466e110-f401-4a06-9322-035185c81ea1&thumb,경기도 고양시 일산서구 킨텍스로 217-60,37.66893348,126.74580279999999,
106,김포인삼쌀맥주갤러리,경기 김포시,031-996-0021,"['김포가볼만한곳', '김포인삼쌀맥주갤러리', '문화시설', '수도권', '수제맥주']",https://cdn.visitkorea.or.kr/img/call?cmd=VIEW&id=293c0d08-2406-4438-a1b6-f1dbaf55c319&thumb,경기도 김포시 대곶면 대명항로 518,37.64653895,126.5637598,
107,평택북부문화예술회관,경기 평택시,031-8024-7391,"['공연장', '데이트코스', '문화시설', '복합문화공간', '아이와함께', '연인과함께']",https://cdn.visitkorea.or.kr/img/call?cmd=VIEW&id=c2573ab2-fbb8-437f-ae49-e4ac1df6f452&thumb,경기도 평택시 경기대로 1366,37.06581156,127.0650909,
108,광명문화원,경기 광명시,02-2618-5800,"['광명문화원', '문화시설', '서울근교여행', '수도권', '아이와함께', '예술', '전통&역사문화체험']",https://cdn.visitkorea.or.kr/img/call?cmd=VIEW&id=35df2a1d-cd9c-4018-a817-094db6a6a880&thumb,경기도 광명시 철망산로 42,37.467468700000005,126.8732102,
109,가평현암농경유물박물관,경기 가평군,031-581-0612,"['가평현암농경유물박물관', '교과서속여행', '문화시설', '박물관', '수도권', '실내여행지']",https://cdn.visitkorea.or.kr/img/call?cmd=VIEW&id=2d20226c-f459-49e1-bccc-aa2891a7a383&thumb,경기도 가평군 북면 석장모루길 13,37.87934605,127.5481207,
110,양주시립 회암사지박물관,경기 양주시,031-8082-4187,"['건축', '문화시설', '양주시', '역사유물', '전통&역사문화체험', '회암사', '회암사지박물관']",https://cdn.visitkorea.or.kr/img/call?cmd=VIEW&id=880828fb-e214-4141-9369-ecd9b010cb86&thumb,경기도 양주시 회암사길 11,37.84122644,127.1029809,
111,활판공방,경기 파주시,031-955-0084,"['가족과함께', '근대문화', '근대문화예술', '근대사', '근대역사', '남녀노소', '문화시설']",https://cdn.visitkorea.or.kr/img/call?cmd=VIEW&id=8b4d0c0e-4f8f-4523-9eee-308d66f7eafe&thumb,경기도 파주시 문발로 203,37.71262039,126.6865563,
112,성남아트센터,경기 성남시,031-783-8000,"['가족여행', '문화시설', '문화행사', '사계절', '상설공연', '성남아트센터', '수도권']",https://cdn.visitkorea.or.kr/img/call?cmd=VIEW&id=c083b65b-d404-404f-b98d-e0fe4cd22f80&thumb,경기도 성남시 분당구 성남대로 808,37.40295657,127.13055990000002,
113,창조자연사박물관,경기 시흥시,031-435-1009,"['교과서속여행', '문화시설', '박물관', '사계절', '수도권', '실내여행지', '아이와함께']",https://cdn.visitkorea.or.kr/img/call?cmd=VIEW&id=9c27cd88-8f9d-4161-93f8-ce3951dc7046&thumb,경기도 시흥시 두문로71번길 4,37.43371524,126.7864731,
114,명필름아트센터,경기 파주시,031-930-6600,"['명필름아트센터', '문화공간', '문화시설', '문화콘텐츠산업', '미술관', '복합문화공간']",https://cdn.visitkorea.or.kr/img/call?cmd=VIEW&id=4923c0a9-e06c-4299-a0fa-66a62852d729&thumb,경기도 파주시 회동길 530-20,37.72349442,126.69335840000001,
115,경기과천교육도서관,경기,02-3677-0371,"['과천시', '독서교육', '문화시설', '아이와 함께']",https://cdn.visitkorea.or.kr/img/call?cmd=VIEW&id=fbf97664-cd32-40f6-ba0c-e4ff2e96eaec&thumb,경기도 과천시 도서관길 36,37.4323292,126.99660619999999,
116,영은미술관,경기 광주시,031-761-0137,"['가족여행', '단체관람', '데이트코스', '문화시설', '미술관', '서울근교여행', '아이와함께']",https://cdn.visitkorea.or.kr/img/call?cmd=VIEW&id=eac2f96c-7142-44fe-9864-f15e076a4044&thumb,경기도 광주시 청석로 300,37.41355842,127.268748,
117,예아리박물관,경기 용인시,031-323-7277,"['교과서속여행', '문화시설', '사계절', '수도권', '아이와함께', '여름방학가볼만한곳']",https://cdn.visitkorea.or.kr/img/call?cmd=VIEW&id=a61cfc8c-0668-4255-9861-69076661b31a&thumb,경기도 용인시 처인구 백암면 원설로270번길 25,37.14132389,127.3642612,
118,아지동테마파크(헤이리마을),경기 파주시,031-947-0677,"['가족과함께', '가족체험', '문화시설', '아이와함께', '역사공부', '역사속으로']",https://cdn.visitkorea.or.kr/img/call?cmd=VIEW&id=883c5b43-4ce2-4919-9b0a-1a029374b052&thumb,경기도 파주시 탄현면 헤이리마을길 93-75,37.79140653,126.69624879999999,
119,평촌아트홀,경기 안양시,031-687-0525,"['가족여행', '공연장', '문화시설', '문화예술', '복합문화공간', '사계절', '수도권']",https://cdn.visitkorea.or.kr/img/call?cmd=VIEW&id=571b2a6c-f023-46ae-93dc-b621141df984&thumb,경기도 안양시 동안구 평촌대로 76,37.37998052,126.9640318,
120,시흥문화원,경기 시흥시,031-317-0827,"['문화시설', '문화원', '사계절', '상설전시', '서울근교여행', '수도권', '시흥문화원']",https://cdn.visitkorea.or.kr/img/call?cmd=VIEW&id=0fd5e574-597b-415b-8e65-3742471b37cc&thumb,경기도 시흥시 연성로13번길 3,37.39044726,126.8047632,
121,가평문화예술회관,경기 가평군,031-8078-8076,"['가평문화예술회관', '공연장', '데이트코스', '문화시설', '문화행사', '상설공연']",https://cdn.visitkorea.or.kr/img/call?cmd=VIEW&id=2b01fbe4-86fc-421b-974b-dd0eb139aaaa&thumb,경기도 가평군 가평읍 문화로 131,37.82542273,127.5069577,
122,태평무 전수관,경기 안성시,031-676-0141,"['가족여행', '문화시설', '서울근교여행', '수도권', '태평무전수관']",https://cdn.visitkorea.or.kr/img/call?cmd=VIEW&id=2fd2e116-1500-420c-b78c-0828ed5f1aab&thumb,경기도 안성시 태평무길 42,37.03581661,127.26656650000001,
123,유엔군 초전기념관,경기 오산시,031-377-1625,"['가족여행', '교과서속여행', '문화시설', '사계절', '수도권', '아이와함께', '역사공부']",https://cdn.visitkorea.or.kr/img/call?cmd=VIEW&id=11d396c4-82ac-4338-8863-1eb970cf4b8f&thumb,경기도 오산시 경기대로 742,37.184610600000006,127.0490138,
124,부천문화원,경기 부천시,032-651-3739,"['문화강좌', '문화시설', '부천문화원', '열린문화공간']",https://cdn.visitkorea.or.kr/img/call?cmd=VIEW&id=f91aa26c-cd04-4ebc-bfe1-d243f1a5baf2&thumb,경기도 부천시 경인로92번길 33,37.48250488,126.766558,
125,안양아트센터,경기 안양시,031-687-0500,"['공연장', '데이트코스', '문화시설', '상설공연', '수도권', '아이와함께', '안양아트센터']",https://cdn.visitkorea.or.kr/img/call?cmd=VIEW&id=55f4dcdd-e318-4c43-a7ff-d99a65d4cad5&thumb,경기도 안양시 만안구 문예로36번길 16,37.38458842,126.931366,
126,지혜샘어린이도서관,경기 수원시,031-225-5566,"['경기도', '도서관', '무장애', '문화시설', '수원시', '어린이']",https://cdn.visitkorea.or.kr/img/call?cmd=VIEW&id=b0885f0d-45a8-4368-968c-e2b10464b3eb&thumb,경기도 수원시 권선구 동탄원천로 818,37.248009,127.0400808,
127,군포문화원,경기 군포시,031-397-0195,"['군포문화원', '무형문화재', '문화시설', '서울근교여행', '수도권', '아이와함께']",https://cdn.visitkorea.or.kr/img/call?cmd=VIEW&id=ea4afb29-3b5b-41e4-a014-7a3b764d1896&thumb,경기도 군포시 한세로56번길 12,37.34722585,126.9548318,
128,아시아출판문화정보센터,경기 파주시,031-955-0050,"['문화시설', '복합문화공간', '수도권', '실내여행지', '아시아출판문화정보센터']",https://cdn.visitkorea.or.kr/img/call?cmd=VIEW&id=f5039f19-bbcc-4cc7-9d5f-3835647b1ca7&thumb,경기도 파주시 회동길 145,37.70848115,126.68679329999999,
129,성포예술광장(성포예술공원),경기 안산시,031-481-5415,"['데이트코스', '문화시설', '서울근교여행', '성포예술공원', '성포예술광장', '수도권']",https://cdn.visitkorea.or.kr/img/call?cmd=VIEW&id=015b49b5-f865-4582-a96b-437d6fff750e&thumb,경기도 안산시 상록구 성포로 6,37.322456,126.84243300000001,
130,한국기독교역사박물관,경기 이천시,031-632-1391,"['교과서속여행', '문화시설', '박물관', '사계절', '수도권', '실내여행지', '아이와함께']",https://cdn.visitkorea.or.kr/img/call?cmd=VIEW&id=eda9418d-bfb3-4e91-a9bb-dadda7dc4fe1&thumb,경기도 이천시 대월면 대평로214번길 10-13,37.22281443,127.4992512,
131,풀짚공예박물관,경기 광주시,031-717-4538,"['공예체험', '공예품', '문화시설', '복합문화공간', '열린문화공간', '예술창작']",https://cdn.visitkorea.or.kr/img/call?cmd=VIEW&id=1f02a570-2b23-4772-8d09-f070cd91c868&thumb,경기도 광주시 오포읍 문형산길 76,37.364197600000004,127.16510770000001,
132,부천수석박물관,경기 부천시,032-655-2900,"['나들이', '문화시설', '박물관', '부천수석박물관', '서울근교여행', '아이와함께']",https://cdn.visitkorea.or.kr/img/call?cmd=VIEW&id=920958f9-4038-4a10-8bd1-d12bfe924446&thumb,경기도 부천시 소사로 482,37.50256527,126.79902539999999,
133,충현박물관,경기 광명시,02-898-0505,"['문화시설', '서울근교여행', '수도권', '충현박물관']",https://cdn.visitkorea.or.kr/img/call?cmd=VIEW&id=b6087114-9dec-42d6-94c9-285b6a23b080&thumb,경기도 광명시 오리로347번길 5-6,37.4339273,126.8777258,
134,석장리미술관,경기 연천군,031-835-2859,"['가족여행', '문화시설', '미술관', '사계절', '석장리미술관', '수도권', '예술', '이색체험']",https://cdn.visitkorea.or.kr/img/call?cmd=VIEW&id=aaca8a26-1235-4bba-9e90-46e6b359362f&thumb,경기도 연천군 백학면 백왕로225번길 240,38.05396568,126.91764180000001,
135,수원 청소년 문화센터,경기 수원시,031-218-0400,"['경기권', '교육공간', '문화복합시설', '문화시설', '수원청소년문화센터']",https://cdn.visitkorea.or.kr/img/call?cmd=VIEW&id=undefined&thumb,경기도 수원시 팔달구 권광로 293,37.27363194,127.0350112,
136,93뮤지엄,경기 파주시,031-948-6677,"['문화시설', '복합문화공간', '사진찍기', '사진찍기좋은곳', '사진촬영', '아이와함께']",https://cdn.visitkorea.or.kr/img/call?cmd=VIEW&id=4de08111-3d6d-4a30-a1db-e48ba160558a&thumb,경기도 파주시 탄현면 헤이리마을길 59-58,37.78979276,126.6963307,
137,추사박물관(과천),경기,02-2150-3650,"['가족체험여행', '교과서속여행', '문화시설', '박물관', '사계절', '수도권', '아이와함께']",https://cdn.visitkorea.or.kr/img/call?cmd=VIEW&id=e5bdbd16-4973-40e6-9b08-1e223da1e90e&thumb,경기도 과천시 추사로 78,37.45300477,127.02872509999999,
138,화성시어린이문화센터,경기 화성시,031-5183-3200,"['문화강좌', '문화생활', '문화시설', '아이와 함께', '어린이', '화성시']",https://cdn.visitkorea.or.kr/img/call?cmd=VIEW&id=da98e48e-e887-41a0-b054-81a7f87ad1c5&thumb,경기도 화성시 봉담읍 동화길 146,37.21233387,126.9608019,
139,파주시립중앙도서관,경기 파주시,031-940-5661,"['도서관', '독서', '독서회', '무장애', '문화시설', '시립', '파주시']",https://cdn.visitkorea.or.kr/img/call?cmd=VIEW&id=57f815f8-ab51-40a4-9dd4-520c36adc113&thumb,경기도 파주시 쇠재로 33,37.75001951,126.77071480000001,
140,평택문화원,경기 평택시,031-655-2002,"['문화시설', '복합문화공간', '아이와 함께', '열린문화공간', '평택문화원']",https://cdn.visitkorea.or.kr/img/call?cmd=VIEW&id=f948587c-2f1f-4dcd-8eec-ffb466a253cd&thumb,경기도 평택시 중앙로 277,36.99113416,127.1140857,
141,수원 영통도서관,경기 수원시,031-228-4758,"['도서관', '문화시설', '수도권', '영통도서관']",https://cdn.visitkorea.or.kr/img/call?cmd=VIEW&id=9849eb9a-1e1b-4561-aab0-d22f8e266d67&thumb,경기도 수원시 영통구 청명로 151,37.25718838,127.07205890000002,
142,열화당책박물관,경기 파주시,031-955-7020,"['가족과함께', '문화공간', '문화시설', '문화행사', '박물관', '복합문화공간', '수도권']",https://cdn.visitkorea.or.kr/img/call?cmd=VIEW&id=df660ef8-977b-4e7f-83e2-6657868d45ad&thumb,경기도 파주시 광인사길 25,37.70896725,126.6846747,
143,통진두레문화센터,경기 김포시,031-983-7225,"['가족여행', '데이트코스', '문화공간', '문화시설', '문화예술활동', '문화행사']",https://cdn.visitkorea.or.kr/img/call?cmd=VIEW&id=f9202e01-6c0b-42f2-a7f3-e3d63f033723&thumb,경기도 김포시 통진읍 김포대로 2347-8,37.69584376,126.58701429999999,
144,노작홍사용문학관,경기 화성시,031-8015-0880,"['교과서속여행', '노작홍사용문학관', '문화시설', '수도권', '아이와함께', '전시관']",https://cdn.visitkorea.or.kr/img/call?cmd=VIEW&id=77e5df75-ea33-41e8-98ca-abee0ddad04f&thumb,경기도 화성시 노작로 206,37.20562051,127.075897,
145,미누현대미술관,경기 성남시,031-754-9696,"['문화공간', '문화시설', '문화예술', '문화예술공간', '문화예술활동', '복합문화공간']",https://cdn.visitkorea.or.kr/img/call?cmd=VIEW&id=37e6c5ac-4863-480d-9b2e-0f27c8cd7ff2&thumb,경기도 성남시 수정구 공원로 360,37.44558105,127.1493753,
146,자유수호평화박물관,경기 동두천시,031-860-3330,"['교과서속여행', '문화시설', '박물관', '아이와함께', '자유수호평화박물관', '전통&역사문화체험']",https://cdn.visitkorea.or.kr/img/call?cmd=VIEW&id=bc6808f5-72a5-45f9-bd23-240b6f092968&thumb,경기도 동두천시 평화로2910번길 96-63,37.94250341,127.0660575,
147,아티누스,경기 파주시,031-948-6225,"['당일치기여행', '독서여행', '독서회', '문화시설', '복합문화공간', '브런치카페']",https://cdn.visitkorea.or.kr/img/call?cmd=VIEW&id=ef5c3226-c6f9-4d5a-8ecd-eb5576f72f20&thumb,경기도 파주시 탄현면 헤이리마을길 59-77,37.79031237,126.6955022,
148,헤이리 커피박물관,경기 파주시,070-4176-1212,"['남녀노소', '데이트', '문화공간', '문화시설', '박물관', '수제커피', '원두커피']",https://cdn.visitkorea.or.kr/img/call?cmd=VIEW&id=b1c61b85-a88c-4a4c-a428-c5fa75f75812&thumb,경기도 파주시 탄현면 헤이리마을길 23,37.78789469,126.69646000000002,
149,죽전야외음악당,경기 용인시,031-896-7595,"['가족여행', '공연장', '데이트코스', '문화공간', '문화시설', '문화행사', '복합문화공간']",https://cdn.visitkorea.or.kr/img/call?cmd=VIEW&id=567eaab2-f8de-4379-b4cc-317263ec7303&thumb,경기도 용인시 수지구 죽전로168번길 9,37.32544816,127.12647390000001,
150,안산문화예술의전당,경기 안산시,080-481-4000,"['가족여행', '문화시설', '박물관', '서울근교여행', '실내여행지', '아이와함께']",https://cdn.visitkorea.or.kr/img/call?cmd=VIEW&id=69d9062d-93d5-4423-ae76-b3326ebd96db&thumb,경기도 안산시 단원구 화랑로 312,37.31842711,126.82310729999999,
151,세종대왕 역사문화관,경기 여주시,031-885-3123,"['가족과함께', '문화시설', '세종대왕릉', '세종대왕역사문화관', '아이와함께']",https://cdn.visitkorea.or.kr/img/call?cmd=VIEW&id=0dfbe38d-d060-41c2-aac9-c5c8a3264a92&thumb,경기도 여주시 능서면 영릉로 269-10,37.30493307,127.6113328,
152,고양시립 주엽어린이도서관,경기 고양시,031-8075-9170,"['고양시립주엽어린이도서관', '도서관', '문화시설', '사계절', '수도권', '아이와함께']",https://cdn.visitkorea.or.kr/img/call?cmd=VIEW&id=f94470fa-35ed-4e25-9889-ef37ab20bdeb&thumb,경기도 고양시 일산서구 주엽로 104,37.66846313,126.75650459999999,
153,옛생활 체험박물관 타임캡슐,경기 파주시,031-949-9408,"['남녀노소', '문화시설', '역사를품은곳', '역사속', '역사속으로', '역사여행', '역사이야기']",https://cdn.visitkorea.or.kr/img/call?cmd=VIEW&id=e2650117-b186-4253-8e38-3d4509c9eaba&thumb,경기도 파주시 탄현면 헤이리마을길 59-63,37.79024205,126.69583429999999,
154,양주문화원,경기 양주시,031-836-6467,"['경기도', '광적면', '문화발전', '문화시설', '문화원', '양주시', '지역문화']",https://cdn.visitkorea.or.kr/img/call?cmd=VIEW&id=e13be6c3-4be5-4f51-b111-b2680465e046&thumb,경기도 양주시 광적면 삼일로29번길 20,37.82221958,126.98686640000001,
155,의정부예술의전당,경기 의정부시,031-828-5841,"['가족여행', '문화시설', '아이와함께', '연인과함께', '예술', '음악회', '의정부예술의전당']",https://cdn.visitkorea.or.kr/img/call?cmd=VIEW&id=95beb4d8-a827-4bd8-ba2e-a3bf68845d57&thumb,경기도 의정부시 의정로 1,37.7333846,127.0341291,
156,부천활박물관,경기 부천시,032-614-2678,"['가족여행', '가족체험여행', '경상권', '교과서속여행', '문화시설', '부천활박물관']",https://cdn.visitkorea.or.kr/img/call?cmd=VIEW&id=a3550b1b-23fc-4392-8728-2f6143e0a2f1&thumb,경기도 부천시 소사로 482,37.50256527,126.79902539999999,
157,고양 어울림누리,경기 고양시,1577-7766,"['고양어울림누리', '문화시설', '서울근교여행', '아이와함께', '체험학습']",https://cdn.visitkorea.or.kr/img/call?cmd=VIEW&id=90f3ab41-7da7-40ea-bc35-10f2e5a29c0e&thumb,경기도 고양시 덕양구 어울림로 33,37.64905648,126.83536799999999,
158,수원시민회관,경기 수원시,031-244-2161,"['공연장', '데이트코스', '문화시설', '수도권', '수원시민회관', '아이와함께', '연인과함께']",https://cdn.visitkorea.or.kr/img/call?cmd=VIEW&id=57784769-2215-4a64-aff0-7348be3e3cfd&thumb,경기도 수원시 팔달구 팔달산로 28,37.27359693,127.0113034,
159,파주문화원,경기 파주시,031-941-2425,"['문화시설', '복합문화공간', '열린문화공간', '파주문화원', '파주시']",https://cdn.visitkorea.or.kr/img/call?cmd=VIEW&id=37069980-4c7c-4458-8106-ab1461a66e72&thumb,경기도 파주시 와석순환로 415,37.72402922,126.7513065,
160,김포문화원,경기 김포시,031-982-1110,"['경기권', '교육프로그램', '김포문화원', '문화시설']",https://cdn.visitkorea.or.kr/img/call?cmd=VIEW&id=fe0f63b4-adac-4931-8b2a-314f4f0a11af&thumb,경기도 김포시 모담공원로 170-1,37.64510127,126.69468559999999,
161,헌책방 보물섬,경기 파주시,031-955-0077,"['독서여행', '독서회', '문화공간', '문화시설', '복합문화공간', '아이와함께', '열린문화공간']",https://cdn.visitkorea.or.kr/img/call?cmd=VIEW&id=6721ae8e-d1e5-4ecb-a7fe-43e638bddf1c&thumb,경기도 파주시 회동길 145,37.70848115,126.68679329999999,
162,부천아트벙커B39,경기 부천시,070-4238-2433,"['남녀노소', '문화공간', '문화시설', '문화예술공간', '문화예술활동', '복합문화공간']",https://cdn.visitkorea.or.kr/img/call?cmd=VIEW&id=06ef2cba-8fa6-45b1-a0e9-6748ea43ece1&thumb,경기도 부천시 삼작로 53,37.52189975,126.76766090000002,
163,출판도시 활판인쇄박물관,경기 파주시,031-955-7955,"['문화시설', '박물관', '서울근교여행', '수도권', '아이와함께', '이색체험', '주말추천여행지']",https://cdn.visitkorea.or.kr/img/call?cmd=VIEW&id=6acd5c5c-124b-4022-affc-7697d8028db4&thumb,경기도 파주시 회동길 145,37.70848115,126.68679329999999,
164,동두천문화원,경기 동두천시,031-865-2923,"['동두천문화원', '문화시설', '복합문화공간', '아이와 함께', '열린문화공간']",https://cdn.visitkorea.or.kr/img/call?cmd=VIEW&id=890122e1-785c-4dca-949e-cc6c0746e004&thumb,경기도 동두천시 어수로 4,37.90526295,127.04306319999999,
165,지영희국악관,경기 평택시,031-8024-8689,"['기념관', '문화시설', '문화예술', '문화예술공간', '복합문화공간', '수도권', '열린문화공간']",https://cdn.visitkorea.or.kr/img/call?cmd=VIEW&id=61e8058a-b8f8-40bc-9df1-3621c942f927&thumb,경기도 평택시 현덕면 평택호길 147,36.92120927,126.92085829999999,
166,한향림옹기박물관,경기 파주시,070-4161-7271,"['당일치기여행', '문화시설', '박물관', '서울근교여행', '수도권', '아이와함께']",https://cdn.visitkorea.or.kr/img/call?cmd=VIEW&id=d10bbd84-5868-4b99-91cd-2e8da084cc04&thumb,경기도 파주시 탄현면 헤이리마을길 96-43,37.78995433,126.7009185,
167,구삼뮤지엄,경기 파주시,031-948-6677,"['구삼뮤지엄', '당일치기여행', '데이트코스', '문화시설', '박물관', '서울근교여행']",https://cdn.visitkorea.or.kr/img/call?cmd=VIEW&id=045c1d77-c9dd-4b51-838f-79b0b16b231a&thumb,경기도 파주시 탄현면 헤이리마을길 59-58,37.78979276,126.6963307,
168,슬기샘어린이도서관,경기 수원시,031-242-6633,"['경기권', '문화시설', '수원어린이도서관', '슬기샘어린이도서관', '아이와함께']",https://cdn.visitkorea.or.kr/img/call?cmd=VIEW&id=02d3b1e2-8903-4b58-b1ee-e93dc73ae991&thumb,경기도 수원시 장안구 송정로 9,37.29757718,126.9991131,
169,수원문화원,경기 수원시,031-244-2161,"['경기권', '교육프로그램', '문화시설', '수원문화원']",https://cdn.visitkorea.or.kr/img/call?cmd=VIEW&id=2c0a1bde-9dca-49ae-8f10-656b19d8fd1b&thumb,경기도 수원시 팔달구 팔달산로 28,37.27359693,127.0113034,
170,하남문화예술회관,경기 하남시,031-790-7979,"['문화공간', '문화시설', '문화예술', '문화예술공간', '문화예술활동', '복합문화공간']",https://cdn.visitkorea.or.kr/img/call?cmd=VIEW&id=e6f8d7e4-d718-40ca-87aa-219ba970772e&thumb,경기도 하남시 신평로 125,37.54475416,127.2068381,
171,나폴레옹갤러리,경기 성남시,031-606-8525,"['나폴레옹갤러리', '남녀노소', '문화공간', '문화시설', '박물관', '복합문화공간']",https://cdn.visitkorea.or.kr/img/call?cmd=VIEW&id=9bef50aa-e113-490e-804f-126db77ac1ce&thumb,경기도 성남시 분당구 대왕판교로645번길 36,37.40037937,127.1020872,
172,수원야외음악당,경기 수원시,031-238-5740,"['공연장', '데이트코스', '문화시설', '수도권', '수원야외음악당', '아이와함께']",https://cdn.visitkorea.or.kr/img/call?cmd=VIEW&id=9ce50cc4-6c5f-4c9c-bf36-c028cb6e5307&thumb,경기도 수원시 팔달구 동수원로 335,37.25939225,127.0364507,
173,시흥오이도박물관,경기 시흥시,031-310-3052,"['경기권', '문화시설', '아이와함께', '역사체험', '오이도']",https://cdn.visitkorea.or.kr/img/call?cmd=VIEW&id=d92630ee-ed99-4765-bd28-a086685fc386&thumb,경기도 시흥시 오이도로 332,37.33518527,126.6912532,
174,가평문화원,경기 가평군,031-582-2016,"['가평문화원', '문화시설', '복합문화공간', '열린문화공간']",https://cdn.visitkorea.or.kr/img/call?cmd=VIEW&id=21bfd19e-6fc9-401a-ba0a-814f991938ee&thumb,경기도 가평군 가평읍 문화로 131,37.82542273,127.5069577,
175,명지산생태전시관,경기 가평군,031-582-7426,"['겨울방학가볼만한곳', '당일치기여행', '명지산', '명지산생태전시관', '문화시설']",https://cdn.visitkorea.or.kr/img/call?cmd=VIEW&id=02eec73d-b242-4146-bdb4-4d51fe10d3a7&thumb,경기도 가평군 북면 도대리,37.94584493,127.4727019,
176,고양시문예회관,경기 고양시,031-965-2957,"['고양시문예회관', '데이트코스', '문화시설', '서울근교여행', '수도권', '실내여행지']",https://cdn.visitkorea.or.kr/img/call?cmd=VIEW&id=ddd62f95-1bfa-4ccb-9748-8ddd7cb45618&thumb,경기도 고양시 덕양구 고양시청로 10,37.65841333,126.8319601,
177,한얼테마과학·박물관,경기 여주시,031-881-6316,"['경기권', '문화시설', '서울근교여행', '한얼테마과학·박물관']",https://cdn.visitkorea.or.kr/img/call?cmd=VIEW&id=undefined&thumb,경기도 여주시 대신면 대신1로 298,37.398655100000006,127.6092426,
178,화성문화원,경기 화성시,031-353-6330,"['문화강좌', '문화시설', '열린문화공간', '화성문화원']",https://cdn.visitkorea.or.kr/img/call?cmd=VIEW&id=0330e31e-1cdf-4b44-b85f-fb9601d8005b&thumb,경기도 화성시 향남읍 발안로 89,37.13243865,126.92033880000001,
179,선바위미술관,경기,02-507-8588,"['가족여행', '문화시설', '미술관', '사계절', '선바위미술관', '수도권', '예술', '이색체험']",https://cdn.visitkorea.or.kr/img/call?cmd=VIEW&id=4b4d9f4e-790d-4343-89b8-20b1f25ae88c&thumb,경기도 과천시 무네미길 34,37.45177261,126.9993028,
180,동두천꿈나무정보도서관,경기 동두천시,031-860-3281,"['독서여행', '동두천꿈나무정보도서관', '문화공간', '문화시설', '복합문화공간']",https://cdn.visitkorea.or.kr/img/call?cmd=VIEW&id=61cd3804-359a-4147-8e10-03380ecf59cb&thumb,경기도 동두천시 지행로 38,37.89214878,127.0513977,
181,지혜의 숲,경기 파주시,031-955-0050,"['남녀노소', '도서관', '독서여행', '독서회', '문화시설', '미세먼지_피하는_실내여행']",https://cdn.visitkorea.or.kr/img/call?cmd=VIEW&id=b00fb361-e524-4222-ad0d-64bc06c98379&thumb,경기도 파주시 회동길 145,37.70848115,126.68679329999999,
182,롯데갤러리(일산),경기 고양시,031-909-2688,"['당일치기여행', '데이트코스', '롯데갤러리', '문화시설', '서울근교여행', '연인과함께']",https://cdn.visitkorea.or.kr/img/call?cmd=VIEW&id=e20fa116-2714-44bb-9ebb-9bd69d034ec2&thumb,경기도 고양시 일산동구 중앙로 1283,37.66047176,126.7721263,
183,수원 중앙도서관,경기 수원시,031-228-4788,"['경기권', '문화시설', '수원시', '수원중앙도서관']",https://cdn.visitkorea.or.kr/img/call?cmd=VIEW&id=47ed03bd-e3ec-4493-8155-33e79790c140&thumb,경기도 수원시 팔달구 팔달산로 318,37.27358027,127.01213249999999,
184,구리문화원,경기 구리시,031-557-6383,"['구리문화원', '문화시설', '복합문화공간', '아이와 함께', '열린문화공간']",https://cdn.visitkorea.or.kr/img/call?cmd=VIEW&id=6ab64194-4ea9-4264-a37a-7d2689f33340&thumb,경기도 구리시 동구릉로 217-14,37.6184001,127.13847779999999,
185,용인문화원,경기 용인시,031-324-9600,"['문화시설', '문화예술', '용산문화원', '친구와 함께']",https://cdn.visitkorea.or.kr/img/call?cmd=VIEW&id=af798c55-da19-4e75-a220-1fc269ee96cc&thumb,경기도 용인시 처인구 중부대로 1199,37.24086733,127.17796840000001,
186,성남시 야외공연장,경기 성남시,031-711-7762,"['가족여행', '데이트코스', '문화시설', '사계절', '서울근교여행', '성남시야외공연장']",https://cdn.visitkorea.or.kr/img/call?cmd=VIEW&id=ae14b2eb-5d9b-4c7b-843f-4a2ad6eef456&thumb,경기도 성남시 분당구 성남대로 550,37.38030766,127.1211787,
187,문화예술원 마루홀,경기 용인시,031-323-6342,"['가족여행', '데이트코스', '문화공간', '문화시설', '문화예술원마루홀', '문화행사']",https://cdn.visitkorea.or.kr/img/call?cmd=VIEW&id=1fe7fcd4-bbd1-45b8-99a7-2c38f965b00e&thumb,경기도 용인시 처인구 중부대로 1199,37.24086733,127.17796840000001,
188,서호미술관,경기 남양주시,031-592-1864,"['경기도', '남양주시', '문화시설', '미술관', '실내여행지', '친구와함께', '화도읍']",https://cdn.visitkorea.or.kr/img/call?cmd=VIEW&id=05f00505-c774-43ae-ab97-7d41a5ddac7b&thumb,경기도 남양주시 화도읍 북한강로 1344,37.63270861,127.3515098,
189,아주대학교박물관,경기 수원시,031-219-2907,"['교과서속여행', '문화시설', '박물관', '수도권', '실내여행지', '아이와함께', '아주대학교박물관']",https://cdn.visitkorea.or.kr/img/call?cmd=VIEW&id=0d4ba3c0-b195-4fa9-91e9-e3ba02e425a8&thumb,경기도 수원시 영통구 월드컵로 206,37.28305638,127.04366,
190,명지대학교 박물관,경기 용인시,031-330-6074,"['교과서속여행', '명지대학교박물관', '문화시설', '박물관', '수도권', '실내여행지']",https://cdn.visitkorea.or.kr/img/call?cmd=VIEW&id=bae5a6aa-d282-4bc3-a96f-0836b0583ba7&thumb,경기도 용인시 처인구 명지로 116,37.22180726,127.1901837,
191,마가미술관,경기 용인시,031-334-0365,"['가족여행', '기념품판매', '마가미술관', '문화시설', '미술관', '복합문화공간']",https://cdn.visitkorea.or.kr/img/call?cmd=VIEW&id=1e720be8-6c9b-4d68-a71c-d237b2d767fe&thumb,경기도 용인시 처인구 모현면 문형동림로101번길 37,37.33175232,127.19278770000001,
192,서수원도서관,경기 수원시,031-228-4747,"['도서관', '문화시설', '사계절', '서수원도서관', '수도권', '체험학습', '친구와함께']",https://cdn.visitkorea.or.kr/img/call?cmd=VIEW&id=b11abd13-4696-4656-86ba-379d0fdc75de&thumb,경기도 수원시 권선구 탑동로57번길 35,37.27311888,126.9720678,
193,안성시립도서관,경기 안성시,031-676-7941,"['남녀노소', '독서공간', '문화시설', '안성시립도서관', '힐링']",https://cdn.visitkorea.or.kr/img/call?cmd=VIEW&id=ffaf745d-bd8d-43de-95d7-b62079948044&thumb,경기도 안성시 안성맞춤대로 1150,37.01524123,127.26853909999998,
194,경기성남교육도서관,경기 성남시,031-730-3500,"['경기도', '독서', '문화시설', '아이와함게']",https://cdn.visitkorea.or.kr/img/call?cmd=VIEW&id=c054aa0e-c9c6-43c9-9259-1cf890a82a19&thumb,경기도 성남시 수정구 공원로370번길 26,37.44663712,127.15009740000002,
195,분원백자자료관,경기 광주시,031-766-8465,"['가족여행', '교과서속여행', '문화시설', '분원백자자료관', '서울근교여행', '아이와함께']",https://cdn.visitkorea.or.kr/img/call?cmd=VIEW&id=fcd92ee3-f6a8-49ba-a6ef-5fbdc8125dba&thumb,경기도 광주시 남종면 산수로 1642-1,37.49625742,127.30344879999998,
196,수원 선경도서관,경기 수원시,031-228-4728,"['경기권', '문화시설', '수원선경도서관', '수원시', '아이와함께']",https://cdn.visitkorea.or.kr/img/call?cmd=VIEW&id=b45d33b4-157c-48cf-879e-3a3dd590a2ce&thumb,경기도 수원시 팔달구 신풍로23번길 68,37.28386229,127.0104322,
197,양주시문화예술회관,경기 양주시,031-828-9738,"['데이트코스', '문화시설', '수도권', '아이와함께', '양주시문화예술회관', '연인과함께']",https://cdn.visitkorea.or.kr/img/call?cmd=VIEW&id=b9d6a4ab-502d-4fd5-bfa8-b4cb2b4315c4&thumb,경기도 양주시 광적면 부흥로618번길 303,37.81249969,126.97230719999999,
198,부천시립꿈빛도서관,경기 부천시,032-625-4622,"['문화공간', '문화시설', '부천시', '부천시립꿈빛도서관']",https://cdn.visitkorea.or.kr/img/call?cmd=VIEW&id=54222b65-5833-4f11-9d2e-673fce7bc8de&thumb,경기도 부천시 신흥로275번길 19,37.50811617,126.7737125,
199,고양문화원,경기 고양시,031-963-0600,"['고양문화원', '교육프로그램', '문화시설']",https://cdn.visitkorea.or.kr/img/call?cmd=VIEW&id=b494e65e-8587-4475-8a1d-0e0464f9f0f7&thumb,경기도 고양시 일산서구 한류월드로 280,37.66501092,126.7562768,
200,유럽자기박물관,경기 부천시,032-661-0238,"['나들이', '문화시설', '박물관', '서울근교여행', '아이와함께', '유럽자기박물관']",https://cdn.visitkorea.or.kr/img/call?cmd=VIEW&id=45e35853-c7cf-49d3-b91c-155f3858cf5f&thumb,경기도 부천시 소사로 482,37.50256527,126.79902539999999,
201,이천문화원,경기 이천시,031-635-2316,"['문화시설', '문화원', '수도권', '이천문화원']",https://cdn.visitkorea.or.kr/img/call?cmd=VIEW&id=8b395553-0b51-4490-b6f1-939f800e88e9&thumb,경기도 이천시 영창로163번길 19,37.28264392,127.44056210000001,
202,국립여성사전시관,경기 고양시,031-819-2288,"['국립여성사전시관', '문화시설', '박물관', '사계절', '수도권', '실내여행지', '아이와함께']",https://cdn.visitkorea.or.kr/img/call?cmd=VIEW&id=89e192c4-a54f-4884-8feb-74369198c5b3&thumb,경기도 고양시 덕양구 화중로104번길 50,37.63581557,126.8340355,
203,평택서부문화예술회관,경기 평택시,031-8024-8321,"['공연장', '데이트코스', '문화시설', '서울근교여행', '수도권', '아이와함께', '연인과함께']",https://cdn.visitkorea.or.kr/img/call?cmd=VIEW&id=6df90ae2-7ae0-42c3-b6c2-edd141031673&thumb,경기도 평택시 안중읍 서동대로 1531,36.99013660000001,126.92015239999999,
204,두루뫼박물관,경기 파주시,031-958-6101,"['가족과함께', '문화공간', '문화시설', '박물관', '수집품', '아이와함께', '전통&역사']",https://cdn.visitkorea.or.kr/img/call?cmd=VIEW&id=723e2e19-1ebf-44d4-b28d-abc0c5b044c2&thumb,경기도 파주시 법원읍 초리골길 278,37.85680242,126.89604240000001,
205,한국카메라박물관,경기,02-502-4123,"['교과서속여행', '기념품판매', '문화시설', '박물관', '수도권', '아이와함께', '이색체험']",https://cdn.visitkorea.or.kr/img/call?cmd=VIEW&id=656eed08-ca74-44c1-98bd-5db78bc3db00&thumb,경기도 과천시 대공원광장로 8,37.43505342,127.00566699999999,
206,부천시립북부도서관,경기 부천시,032-625-4605,"['독서공간', '문화시설', '부천시립북부도서관', '아이와 함께', '친구와 함께']",https://cdn.visitkorea.or.kr/img/call?cmd=VIEW&id=a9b71b1a-fd2e-4232-926c-e187ba373619&thumb,경기도 부천시 삼작로301번길 5,37.52080153,126.79413559999999,
207,안성문화원,경기 안성시,031-673-2625,"['문화시설', '수도권', '아이와 함께', '안성문화원', '열린문화공간']",https://cdn.visitkorea.or.kr/img/call?cmd=VIEW&id=2cbde79e-6424-4c6e-9123-1e1f1a2fb921&thumb,경기도 안성시 보개면 종합운동장로 203,37.01471054,127.3236038,
208,농경유물전시관,경기 파주시,031-940-4801,"['교과서속여행', '농경유물전시관', '문화시설', '박물관', '사계절', '수도권', '실내여행지']",https://cdn.visitkorea.or.kr/img/call?cmd=VIEW&id=9bf3acca-29b4-4670-a9f8-7505760a21ea&thumb,경기도 파주시 통일로 600,37.7639808,126.7955513,
209,부천시민회관,경기 부천시,032-320-6481,"['데이트코스', '문화시설', '복합문화공간', '부천시민회관', '서울근교여행', '수도권']",https://cdn.visitkorea.or.kr/img/call?cmd=VIEW&id=771dd882-1fce-4149-a549-e9500f5a7dc7&thumb,경기도 부천시 부일로 365,37.48863335,126.7706577,
210,한국민속촌 옹기전시관,경기 용인시,031-274-3335,"['가족여행', '문화시설', '박물관', '서울근교여행', '실내여행지', '아이와함께']",https://cdn.visitkorea.or.kr/img/call?cmd=VIEW&id=2b1c8996-d14d-4446-aa8d-ffe755b35aba&thumb,경기도 용인시 기흥구 민속촌로 90,37.25913189,127.12254309999999,
211,마나스아트센터,경기 양평군,031-774-5121,"['남녀노소', '문화시설', '문화예술', '미술작품', '복합문화공간', '아트센터', '양평가볼만한곳']",https://cdn.visitkorea.or.kr/img/call?cmd=VIEW&id=418cb3ac-887c-4425-8239-ef152cfe9eaa&thumb,경기도 양평군 강상면 강남로 743,37.49371323,127.4609476,
212,남양주문화원,경기 남양주시,031-592-0667,"['경기도', '남양주시', '다산문화제', '무장애', '문화시설', '문화원', '지역문화']",https://cdn.visitkorea.or.kr/img/call?cmd=VIEW&id=0198b835-77a8-4a7d-adf8-3c978bf74f62&thumb,경기도 남양주시 경춘로 883-36,37.6329877,127.1983732,
213,경기대학교박물관,경기 수원시,031-249-9114,"['경기대학교박물관', '교과서속여행', '문화시설', '박물관', '수도권', '실내여행지']",https://cdn.visitkorea.or.kr/img/call?cmd=VIEW&id=30fa0b17-c5b1-444f-808c-10a6e793bc63&thumb,경기도 수원시 영통구 광교산로 154-42,37.29801369,127.03311670000001,
214,이영미술관,경기 용인시,031-213-8223,"['문화시설', '실내데이트', '연인과 함께', '이영미술관', '전시관']",https://cdn.visitkorea.or.kr/img/call?cmd=VIEW&id=7732cb30-3dad-4dca-9d21-bfaf1bbd777c&thumb,경기도 용인시 기흥구 흥덕4로 63,37.27730628,127.0901115,
215,여주문화원,경기 여주시,031-883-3450,"['문화시설', '복합문화공간', '여주문화원', '열린문화공간', '친구와 함께']",https://cdn.visitkorea.or.kr/img/call?cmd=VIEW&id=ed5066d5-dc92-4f01-be75-494c76123357&thumb,경기도 여주시 신륵사길 6-6,37.30018482,127.65235109999999,
216,해움미술관,경기 수원시,031-252-9194,"['문화시설', '문화예술', '문화예술활동', '미술관', '미술작품', '미술품', '복합문화공간']",https://cdn.visitkorea.or.kr/img/call?cmd=VIEW&id=d7113c55-1a80-447a-baf1-1705f4010199&thumb,경기도 수원시 팔달구 매산로 133,37.2722582,127.01499640000002,
217,가일미술관,경기 가평군,031-584-4722,"['가일미술관', '가족여행', '문화시설', '미술관', '서울근교여행', '실내여행지']",https://cdn.visitkorea.or.kr/img/call?cmd=VIEW&id=94f68f04-80c1-4b7d-a362-f6284c03bcfd&thumb,경기도 가평군 청평면 북한강로 1549,37.66041649,127.37943440000001,
218,안양문화원,경기 안양시,031-449-4451,"['교육프로그램', '문화시설', '안양문화원']",https://cdn.visitkorea.or.kr/img/call?cmd=VIEW&id=0bd51887-0a1b-4e03-baa1-44ddd22ac5a4&thumb,경기도 안양시 만안구 현충로 53,37.39042433,126.9258251,
219,의왕문화원,경기 의왕시,031-456-4994,"['문화시설', '복합문화공간', '열린문화공간', '의왕문화원']",https://cdn.visitkorea.or.kr/img/call?cmd=VIEW&id=da1a21f0-a988-4cbe-927c-2630ff4ab493&thumb,경기도 의왕시 백운로 23,37.35216142,126.98229429999999,
220,성남시 중원도서관,경기 성남시,031-752-3913,"['공공시설', '문화시설', '수도권', '중원도서관']",https://cdn.visitkorea.or.kr/img/call?cmd=VIEW&id=bb71a7cf-bc05-403e-9095-983725f0d4da&thumb,경기도 성남시 중원구 원터로17번길 46,37.43022949,127.1401659,
221,중앙대학교박물관,경기 안성시,031-670-3446,"['문화시설', '박물관', '수도권', '실내여행지', '아이와함께', '예술', '전시관', '전통&역사문화체험']",https://cdn.visitkorea.or.kr/img/call?cmd=VIEW&id=880fb62b-9354-4113-8019-41acb3f59dd5&thumb,경기도 안성시 대덕면 서동대로 4726,37.0004292,127.22870870000001,
222,단원미술관,경기 안산시,031-481-0505,"['문화공간', '문화시설', '문화예술공간', '미술관', '복합문화공간', '아이와함께']",https://cdn.visitkorea.or.kr/img/call?cmd=VIEW&id=a8d64eec-4bc1-4cda-852d-642698991acf&thumb,경기도 안산시 상록구 충장로 422,37.31617783,126.85153290000001,
223,성남시 분당도서관,경기 성남시,031-729-4800,"['공공시설', '문화시설', '분당도서관', '수도권']",https://cdn.visitkorea.or.kr/img/call?cmd=VIEW&id=3bd1dfaf-928c-4ca4-b0d4-161579d3adb4&thumb,경기도 성남시 중원구 원터로17번길 46,37.35810416,127.1165804,
224,단국대학교 석주선기념박물관,경기 용인시,031-8005-2389,"['단국대학교석주선기념박물관', '무료관람', '문화시설', '박물관', '수도권', '실내여행지']",https://cdn.visitkorea.or.kr/img/call?cmd=VIEW&id=4c60915f-4f6f-4eea-b8b2-e61f5734f01a&thumb,경기도 용인시 수지구 죽전로 152,37.32119387,127.13253590000002,
225,영집 궁시박물관,경기 파주시,031-944-6800,"['경기도', '국가무형문화재', '문화시설', '영집궁시박물관', '파주시', '활·화살박물관']",https://cdn.visitkorea.or.kr/img/call?cmd=VIEW&id=29db3d26-a53f-4701-875d-b1504604cb88&thumb,경기도 파주시 탄현면 국원말길 168,37.78492907,126.71136659999999,
226,부천교육박물관,경기 부천시,032-661-1282,"['나들이', '문화시설', '박물관', '부천교육박물관', '서울근교여행', '아이와함께']",https://cdn.visitkorea.or.kr/img/call?cmd=VIEW&id=e7fd7117-ae5b-4034-9146-3064508add3a&thumb,경기도 부천시 소사로 482,37.50256527,126.79902539999999,
227,김내현화랑,경기 고양시,031-963-3262,"['경기도', '고양시', '덕양구', '문화시설', '미술', '작품', '판화']",https://cdn.visitkorea.or.kr/img/call?cmd=VIEW&id=c713e702-3ecb-470f-8410-43ea2f8bb679&thumb,경기도 고양시 덕양구 내유길 265,37.72752065,126.8662136,
228,군포시문화예술회관,경기 군포시,031-390-3500,"['문화공간', '문화시설', '문화예술공간', '문화예술활동', '문화예술회관', '복합문화공간']",https://cdn.visitkorea.or.kr/img/call?cmd=VIEW&id=undefined&thumb,경기도 군포시 고산로 599,37.36577234,126.9274827,
229,성남시 중앙도서관,경기 성남시,031-729-4500,"['남녀노소', '독서', '문화공간', '문화시설', '성남시', '중앙도서관']",https://cdn.visitkorea.or.kr/img/call?cmd=VIEW&id=09754357-116c-423f-b23e-8f90335a6423&thumb,경기도 성남시 분당구 판교로 546,37.4039669,127.134723,
230,세계민속악기박물관,경기 파주시,031-946-9838,"['문화시설', '세계문화', '세계민속악기박물관', '안보관광', '이색체험']",https://cdn.visitkorea.or.kr/img/call?cmd=VIEW&id=fb234ca5-e36b-4f66-8c8b-f1919a7b90b6&thumb,경기도 파주시 탄현면 헤이리마을길 63-26,37.78950759,126.6993783,
231,명성황후 기념관,경기 여주시,031-881-9731,"['가족여행', '교과서속여행', '기념관', '명성황후기념관', '문화시설', '아이와함께']",https://cdn.visitkorea.or.kr/img/call?cmd=VIEW&id=2e162f3f-edd9-4345-81f0-90e5556ff970&thumb,경기도 여주시 명성로 71,37.25967518,127.6554281,
232,갤러리 와,경기 양평군,031-771-5454,"['문화시설', '문화예술', '문화예술공간', '문화예술활동', '미술작품', '복합문화공간']",https://cdn.visitkorea.or.kr/img/call?cmd=VIEW&id=4c255719-6c5f-4046-8023-24a216a42d98&thumb,경기도 양평군 강하면 전수샛골2길 3,37.50546301,127.43376869999999,
233,과천문화원,경기,02-504-6513,"['과천', '문화강좌', '문화시설', '친구와함께']",https://cdn.visitkorea.or.kr/img/call?cmd=VIEW&id=d4655c0c-0121-4556-8cee-9188181d5535&thumb,경기도 과천시 문원로 40-1,37.42834358,127.00179440000001,
234,성남시 수정도서관,경기 성남시,031-743-9600,"['독서', '문화시설', '성남시', '아이와함게']",https://cdn.visitkorea.or.kr/img/call?cmd=VIEW&id=c3d8e4f3-6813-4b97-ab73-38539c69afbe&thumb,경기도 성남시 수정구 수정로332번길 32,37.45223879,127.15284950000002,
235,다도박물관,경기 김포시,031-998-1000,"['공연', '문화시설', '문화행사', '복합문화시설', '전시/공연', '조각공원', '차문화']",https://cdn.visitkorea.or.kr/img/call?cmd=VIEW&id=619f7530-41ac-4cc8-b596-25603f167642&thumb,경기도 김포시 월곶면 애기봉로275번길 187-49,37.73752595,126.57443590000001,
236,포천아트밸리 천문과학관,경기 포천시,031538-3488,"['가족과함께', '문화시설', '아이와함께', '천문관', '포천아트밸리', '포천아트밸리천문과학관']",https://cdn.visitkorea.or.kr/img/call?cmd=VIEW&id=2142e029-7fd3-434a-9837-ecfe8d7cedca&thumb,경기도 포천시 신북면 아트밸리로 234,37.92344665,127.23650090000001,
237,양평문화원,경기 양평군,031-771-3866,"['문화강좌', '문화시설', '복합문화공간', '양평문화원', '열린문화공간']",https://cdn.visitkorea.or.kr/img/call?cmd=VIEW&id=e51bcb49-bfd5-4f3b-b9fe-b97a033da10c&thumb,경기도 양평군 양평읍 마유산로 5,37.49748641,127.4860423,
238,탄탄스토리하우스,경기 파주시,031-955-7660,"['남녀노소', '문화공간', '문화시설', '문화예술', '문화예술공간', '복합문화공간']",https://cdn.visitkorea.or.kr/img/call?cmd=VIEW&id=d9c6181d-6613-4581-81c7-ee58146303c1&thumb,경기도 파주시 회동길 130,37.70803622,126.68790179999999,
239,연천문화원,경기 연천군,031-834-2350,"['문화시설', '복합문화공간', '연천문화원', '열린문화공간', '친구와 함께']",https://cdn.visitkorea.or.kr/img/call?cmd=VIEW&id=6657980f-65ed-4023-ae22-a0d5c54d6b82&thumb,경기도 연천군 연천읍 문화로 143,38.10631864,127.07860990000002,
240,행복한 마음(김영사 북아울렛),경기 파주시,031-955-3100,"['김영사북아울렛', '독서여행', '문화시설', '서울근교여행', '수도권', '아이와함께']",https://cdn.visitkorea.or.kr/img/call?cmd=VIEW&id=f4a97023-7047-4e6d-bc73-cc5b433c35ff&thumb,경기도 파주시 문발로 197,37.71208653,126.6863742,
241,경기중앙교육도서관,경기 수원시,031-240-4064,"['경기권', '경기중앙교육도서관', '교육도서관', '문화시설', '아이와함께']",https://cdn.visitkorea.or.kr/img/call?cmd=VIEW&id=0c4a2590-e4c6-4236-9071-2f5ad8a731c2&thumb,경기도 수원시 장안구 조원로 18,37.29854134,127.02236459999999,
242,이경순 소리박물관,경기 안성시,031-670-6538,"['교과서속여행', '문화시설', '박물관', '사계절', '수도권', '실내여행지', '아이와함께']",https://cdn.visitkorea.or.kr/img/call?cmd=VIEW&id=4226a918-fb6a-4936-9b57-a62da8f9a6c2&thumb,경기도 안성시 삼죽면 동아예대길 47,37.06236123,127.3532946,
243,한국학중앙연구원 한국학학술정보관.장서각,경기 성남시,031-709-8111,"['도서관', '문화시설', '문화재자료', '수도권', '아이와함께', '역사공부', '역사를품은곳']",https://cdn.visitkorea.or.kr/img/call?cmd=VIEW&id=87273821-e54d-4c46-894a-74513a0c37d5&thumb,경기도 성남시 분당구 하오개로 323,37.39193525,127.0552655,
244,갤러리 서종,경기 양평군,031-774-5530,"['갤러리', '갤러리서종', '문화공간', '문화시설', '문화예술', '복합문화공간', '복합문화공간']",https://cdn.visitkorea.or.kr/img/call?cmd=VIEW&id=d454385d-fe93-46c9-8083-dcf7b4f2e3ab&thumb,경기도 양평군 서종면 중미산로 47,37.60404511,127.3572608,
245,드림갤러리,경기 성남시,02-720-4988,"['문화공간', '문화시설', '복합문화공간', '소통쉼터', '열린문화공간', '전시', '휴식공간']",https://cdn.visitkorea.or.kr/img/call?cmd=VIEW&id=cbeefd27-1f65-4a07-8f16-6705807bae9d&thumb,경기도 성남시 분당구 서현로439번길 11,37.37482007,127.1456875,
246,코오롱 스페이스K,경기,02-3677-3119,"['기획전시', '문화공간', '문화시설', '문화예술', '복합문화공간', '연인과함께']",https://cdn.visitkorea.or.kr/img/call?cmd=VIEW&id=6a302c2b-c51f-4fad-bacf-950475380b03&thumb,경기도 과천시 코오롱로 11,37.42557529,126.9905146,
247,바른샘어린이도서관,경기 수원시,031-216-9373,"['가족과함께', '경기권', '문화시설', '수원어린이도서관', '아이와함께']",https://cdn.visitkorea.or.kr/img/call?cmd=VIEW&id=a8dc41dd-8355-43b7-bd6e-9944d7c3d95f&thumb,경기도 수원시 영통구 매봉로 10,37.26885515,127.05236869999999,
248,대교 트라움벨트,경기 파주시,031-940-3910,"['교육여행', '교육체험', '문화시설', '문화예술', '미세먼지_피하는_실내여행']",https://cdn.visitkorea.or.kr/img/call?cmd=VIEW&id=7216cc6f-1026-46a8-8659-f8c6bf8143c6&thumb,경기도 파주시 회동길 342,37.71570046,126.6923436,
249,벽봉한국장신구박물관,경기 파주시,031-949-0848,"['가족과함께', '남녀노소', '문화시설', '복합문화공간', '아이와함께', '열린문화공간']",https://cdn.visitkorea.or.kr/img/call?cmd=VIEW&id=85761489-6ef7-46b7-bfd3-a768463765e5&thumb,경기도 파주시 탄현면 헤이리마을길 48-38,37.78763029,126.70006140000001,
250,도자기체험미술관 비즘,경기 양평군,031-771-0469,"['교과서속여행', '기념품판매', '도자기체험', '도자기체험미술관비즘', '문화시설']",https://cdn.visitkorea.or.kr/img/call?cmd=VIEW&id=6c1376d9-c011-4a39-9435-9aa31e2a1e7e&thumb,경기도 양평군 서종면 황순원로 165,37.59547451,127.38332720000001,
251,덕포진교육박물관,경기 김포시,031-989-8580,"['경기도', '덕포진교육박물관', '문화시설', '사립박물관', '파주시']",https://cdn.visitkorea.or.kr/img/call?cmd=VIEW&id=213d834d-f399-4884-b621-f7092619fc5e&thumb,경기도 김포시 대곶면 덕포진로103번길 90,37.65065352,126.5387223,
252,박두진 문학관,경기 안성시,031-678-2466,"['가족과함께', '교육여행', '문학', '문학관', '문학기행', '문화공간', '문화시설']",https://cdn.visitkorea.or.kr/img/call?cmd=VIEW&id=ec464c90-3bd3-49c3-a85d-69c683dd4a0f&thumb,경기도 안성시 보개면 남사당로 198-11,37.03497838,127.3108743,
253,미리내마술극단 은하수홀,경기 수원시,031-241-1238,"['가족과함께', '공연관람', '공연여행', '공연장', '남녀노소', '마술공연', '문화시설']",https://cdn.visitkorea.or.kr/img/call?cmd=VIEW&id=be04e71d-a44b-41d5-8420-50b55cba20ae&thumb,경기도 수원시 팔달구 정조로 767-8,37.27664396,127.01610790000001,
254,두물워크샵,경기 남양주시,010-5297-3336,"['공연', '문화공간', '문화시설', '복합문화공간', '열린문화공간', '음악회', '전시/공연']",https://cdn.visitkorea.or.kr/img/call?cmd=VIEW&id=247f25be-4853-4100-ae06-bbf4ce62482c&thumb,경기도 남양주시 화도읍 북한강로1112번길 19,37.61371444,127.34278379999999,
255,포천문화원,경기 포천시,031-532-5015,"['경기권', '교육프로그램', '문화시설', '포천문화원']",https://cdn.visitkorea.or.kr/img/call?cmd=VIEW&id=undefined&thumb,경기도 포천시 중앙로34번길 8,37.89046376,127.1982721,
256,설미재미술관,경기 가평군,031-585-6276,"['가족과함께', '교육체험', '문화시설', '복합문화공간', '열린문화공간', '예술창작']",https://cdn.visitkorea.or.kr/img/call?cmd=VIEW&id=d2c60739-a5f9-41e8-b5b2-7190ee7bed6d&thumb,경기도 가평군 설악면 유명로 1454-38,37.66088468,127.482238,
257,잔아문학박물관,경기 양평군,031-771-8577,"['문화시설', '복합문화공간', '열린문화공간', '잔아문학박물관']",https://cdn.visitkorea.or.kr/img/call?cmd=VIEW&id=d32f1534-c5b0-4a3e-8448-ed821b5f7d2e&thumb,경기도 양평군 서종면 사랑제길 9-9,37.59678273,127.35477560000001,
258,테라,경기 파주시,031-949-7879,"['도예가', '문화공간', '문화시설', '미술작품', '미술품', '복합문화공간', '연인과함께']",https://cdn.visitkorea.or.kr/img/call?cmd=VIEW&id=c4eb19d3-1dcd-4308-8d8c-d4f8e969af52&thumb,경기도 파주시 탄현면 헤이리마을길 18-33,37.78679106,126.6964097,
259,한향림 현대도자미술관,경기 파주시,070-4161-7275,"['문화시설', '연인과 함께', '전시관', '한향림', '현대도자기미술관']",https://cdn.visitkorea.or.kr/img/call?cmd=VIEW&id=5d49742c-f773-479b-9ff5-a356f7ad82df&thumb,경기도 파주시 탄현면 헤이리마을길 63,37.78911396,126.6984959,
260,앤갤러리,경기 성남시,070-7430-3323,"['문화시설', '문화예술', '문화예술공간', '미술관', '미술작품', '복합문화공간']",https://cdn.visitkorea.or.kr/img/call?cmd=VIEW&id=ec391215-d4c5-4fd9-a65a-350a9a95755e&thumb,경기도 성남시 분당구 새마을로 95,37.38363831,127.14121850000001,
261,여성생활사 박물관,경기 여주시,031-882-8100,"['교과서속여행', '문화시설', '박물관', '사계절', '수도권', '실내여행지', '아이와함께']",https://cdn.visitkorea.or.kr/img/call?cmd=VIEW&id=92b1f8ed-8175-4730-bfb1-a480a102414d&thumb,경기도 여주시 강천면 강천로 324-20,37.24252504,127.70814329999999,
262,아해박물관,경기,02-3418-5501,"['가족과함께', '기획전시', '무더위_피해_실내여행', '문화시설', '박물관', '실내여행지']",https://cdn.visitkorea.or.kr/img/call?cmd=VIEW&id=47efb7ef-6271-4eb0-8227-b8f7e1b9f5bc&thumb,경기도 과천시 추사로 133,37.45762016,127.02997920000001,
263,세종국악당,경기 여주시,031-887-2854,"['데이트코스', '문화시설', '세종국악당', '수도권', '아이와함께', '연인과함께']",https://cdn.visitkorea.or.kr/img/call?cmd=VIEW&id=04dbca03-a81c-4ac4-856c-445f6225abab&thumb,경기도 여주시 영릉로 125,37.29692248,127.62522659999998,
264,성남시수정청소년수련관,경기 성남시,031-729-9200,"['레포츠', '문화시설', '수도권', '수정청소년수련관', '청소년수련관']",https://cdn.visitkorea.or.kr/img/call?cmd=VIEW&id=e2cba128-e263-43bf-8289-5b3fce70d27a&thumb,경기도 성남시 수정구 희망로509번길 20,37.44930166,127.1501845,
265,조병화문학관,경기 안성시,031-674-0307,"['문학기념관', '문화시설', '수도권', '조병화문학관']",https://cdn.visitkorea.or.kr/img/call?cmd=VIEW&id=b97cd6e9-d4bb-421e-ac71-d2fea54516f0&thumb,경기도 안성시 양성면 난실길 14-1,37.11208086,127.2216269,
266,포네티브 스페이스,경기 파주시,031-949-8056,"['기획전시', '문화공간', '문화시설', '문화예술', '문화예술공간', '복합문화공간']",https://cdn.visitkorea.or.kr/img/call?cmd=VIEW&id=a0289ea5-a2e1-49b6-89c0-3f9e48e4e04b&thumb,경기도 파주시 탄현면 헤이리마을길 34,37.78711289,126.6970403,
267,동아방송예술대학교 DIMA아트센터,경기 안성시,031-670-6938,"['남녀노소', '문화시설', '문화예술', '문화예술활동', '미술관', '미술품', '복합문화공간']",https://cdn.visitkorea.or.kr/img/call?cmd=VIEW&id=736f92c1-6af7-4e4e-89f8-4e428eade6d1&thumb,경기도 안성시 삼죽면 동아예대길 47,37.06236123,127.3532946,
268,CICA 미술관,경기 김포시,031-988-6363,"['남녀노소', '문화공간', '문화시설', '문화예술', '문화예술공간', '문화예술활동']",https://cdn.visitkorea.or.kr/img/call?cmd=VIEW&id=b399644b-c755-4ed3-bf3b-9d5aa92df4e7&thumb,경기도 김포시 양촌읍 삼도로 196-30,37.60819722,126.5977739,
269,하남문화원,경기 하남시,031-795-1020,"['문화강좌', '문화시설', '아이와함게', '하남']",https://cdn.visitkorea.or.kr/img/call?cmd=VIEW&id=null&thumb,경기도 하남시 덕풍동로 12,37.54388177,127.20671029999998,
270,용인 농경문화전시관,경기 용인시,031-324-4054,"['농경문화전시관', '문화시설', '아이와함께', '이색체험', '전통&역사체험']",https://cdn.visitkorea.or.kr/img/call?cmd=VIEW&id=627fa77a-d15f-4df3-911e-f6b1bbec128f&thumb,경기도 용인시 처인구 원삼면 농촌파크로 80-1,37.17101661,127.29712090000001,
271,오산문화원,경기 오산시,031-375-7755,"['문화시설', '복합문화공간', '열린문화공간', '오산문화원']",https://cdn.visitkorea.or.kr/img/call?cmd=VIEW&id=null&thumb,경기도 오산시 성호대로 89,37.14914237,127.07140990000002,
272,김포아트홀,경기 김포시,031-996-1603,"['가족과함께', '김포아트홀', '문화시설', '아이와함께', '예술문화']",https://cdn.visitkorea.or.kr/img/call?cmd=VIEW&id=c8608e7b-9b54-4f6c-a16b-524e9622a3fc&thumb,경기도 김포시 돌문로 26,37.61893049,126.7201495,
273,대안미술공간 소나무,경기 안성시,031-673-0904,"['문화공간', '문화시설', '문화예술', '복합문화공간', '열린문화공간', '전시', '현대미술']",https://cdn.visitkorea.or.kr/img/call?cmd=VIEW&id=undefined&thumb,경기도 안성시 미양면 이박골길 75-33,36.98125922,127.24861200000001,
274,현대모터스튜디오 고양,경기 고양시,1899-6611,"['가족과함께', '교육여행', '문화시설', '아이와함께', '열린문화공간', '예술공간']",https://cdn.visitkorea.or.kr/img/call?cmd=VIEW&id=db4d84c7-536f-41dc-a333-2330f66540a7&thumb,경기도 고양시 일산서구 킨텍스로 217-6,37.66620656,126.74768490000001,
275,솔가람 아트홀,경기 파주시,031-950-1958,"['경기권', '공연장', '문화시설', '솔가람아트홀', '클래식공연장']",https://cdn.visitkorea.or.kr/img/call?cmd=VIEW&id=5dddcfd8-a3da-42b3-ae59-7ca34535f1b5&thumb,경기도 파주시 가람로116번길 170,37.73051234,126.7633962,
276,헤이리시네마,경기 파주시,031-942-1031,"['문화시설', '예술문화체험', '파주가볼만한곳', '헤이리시네마']",https://cdn.visitkorea.or.kr/img/call?cmd=VIEW&id=6a41d87a-c84e-4ec8-8552-c8281fb3c7ea&thumb,경기도 파주시 탄현면 헤이리마을길 93-119 커피공장 103 카페 3층,37.7916705,126.6976807,
277,벗이미술관,경기 용인시,031-333-2114,"['가족과함께', '경기권', '문화시설', '벗이미술관', '아이와함께']",https://cdn.visitkorea.or.kr/img/call?cmd=VIEW&id=fce16d3a-31e7-461b-8614-07a731073482&thumb,경기도 용인시 처인구 양지면 학촌로53번길 4,37.24141428,127.30218290000002,
278,외할머니의 부엌,경기 김포시,031-984-1993,"['가족과함께', '문화시설', '아이와함께', '이색체험']",https://cdn.visitkorea.or.kr/img/call?cmd=VIEW&id=7d1f4f33-e391-436e-9090-71368a7d09e1&thumb,경기도 김포시 대곶면 덕포진로103번길 95-7,37.64997572,126.5389774,
279,박명선 갤러리,경기 파주시,010-9968-5878,"['문화시설', '문화예술공간', '박명선갤러리', '예술공간']",https://cdn.visitkorea.or.kr/img/call?cmd=VIEW&id=4e258efa-d9d4-4ab2-81e2-343047274edd&thumb,경기도 파주시 탄현면 장릉로141번길 21,37.76662961,126.7084946,
280,갤러리 MOA,경기 파주시,031-949-3272,"['갤러리MOA', '문화시설', '예술문화체험', '파주가볼만한곳']",https://cdn.visitkorea.or.kr/img/call?cmd=VIEW&id=f5e1e90d-b1d3-4a58-bb66-9d7fdb54a08f&thumb,경기도 파주시 탄현면 헤이리마을길 48-37,37.7876955,126.70022979999999,
281,아쿠아플라넷 일산,경기 고양시,031-960-8500,"['당일치기여행', '데이트코스', '문화시설', '미세먼지_피하는_실내여행', '사계절']",https://cdn.visitkorea.or.kr/img/call?cmd=VIEW&id=e2a8bda8-46b4-4b62-8146-86a9e184b88c&thumb,경기도 고양시 일산서구 한류월드로 282,37.66383701,126.7556101,
282,조명박물관,경기 양주시,070-7780-8911,"['교과서속여행', '문화시설', '박물관', '복합문화공간', '사계절', '상설공연', '수도권']",https://cdn.visitkorea.or.kr/img/call?cmd=VIEW&id=04084d57-5cbe-4850-a018-b0418f05d781&thumb,경기도 양주시 광적면 광적로 235-48,37.83609524,126.9675306,
283,악티바,경기 광주시,031-763-4114,"['VR체험', '관광지', '남녀노소', '문화공간', '미세먼지_피하는_실내여행', '복합레저스포츠']",https://cdn.visitkorea.or.kr/img/call?cmd=VIEW&id=8cde03a3-d2b0-4562-9789-0077164b290f&thumb,경기도 광주시 곤지암읍 경충대로 729,37.35249014,127.3237019,
284,화성식염온천,경기 화성시,031-351-9700,"['가족여행', '관광지', '발안식염온천', '수도권', '실내여행지', '아이와함께', '연인과함께']",https://cdn.visitkorea.or.kr/img/call?cmd=VIEW&id=18293704-c2f3-4c2d-a099-471a2265f4e6&thumb,경기도 화성시 장안면 황골길 56-1,37.09360522,126.8669269,
285,목아박물관,경기 여주시,031-885-9952,"['나들이', '목아박물관', '문화시설', '미세먼지_피하는_실내여행', '박물관', '수도권']",https://cdn.visitkorea.or.kr/img/call?cmd=VIEW&id=012813fe-1ca3-4065-ad10-f4f25d400b13&thumb,경기도 여주시 강천면 이문안길 21,37.28855027,127.6881229,
286,국립과천과학관,경기,02-3677-1500,"['가족과함께', '겨울방학가볼만한곳', '과천가볼만한곳', '국립과천과학관', '남녀노소']",https://cdn.visitkorea.or.kr/img/call?cmd=VIEW&id=d1fce5dd-69bd-4723-8cc3-330f0fe7a0ca&thumb,경기도 과천시 상하벌로 110,37.43963718,127.002295,
287,여주박물관,경기 여주시,031-887-3583,"['교과서속여행', '문화시설', '미세먼지_피하는_실내여행', '박물관', '수도권']",https://cdn.visitkorea.or.kr/img/call?cmd=VIEW&id=a71e90cb-fb0f-491e-8866-b2fe5bd866b8&thumb,경기도 여주시 신륵사길 6-12,37.29965313,127.6533791,
288,백남준아트센터,경기 용인시,031-201-8500,"['문화시설', '문화예술', '미세먼지_피하는_실내여행', '미술관', '백남준아트센터']",https://cdn.visitkorea.or.kr/img/call?cmd=VIEW&id=58055fa4-ed5f-4245-a8e1-6193f3c028e2&thumb,경기도 용인시 기흥구 백남준로 10,37.26914663,127.1104379,
289,모란미술관,경기 남양주시,031-594-8001,"['나들이', '데이트코스', '모란미술관', '문화시설', '미술관', '수도권', '실내여행지']",https://cdn.visitkorea.or.kr/img/call?cmd=VIEW&id=3ca6ffc9-68e9-4ec8-a467-0a0aa1b20483&thumb,경기도 남양주시 화도읍 경춘로2110번길 8,37.6504135,127.3237775,
290,프라움악기박물관,경기 남양주시,031-521-6043,"['남양주가볼만한곳', '데이트코스', '문화공간', '문화시설', '복합문화공간', '사계절']",https://cdn.visitkorea.or.kr/img/call?cmd=VIEW&id=9e5a026d-d0b3-4516-9e59-f228db38d1c7&thumb,경기도 남양주시 와부읍 경강로 756,37.56850845,127.2270492,
291,주렁주렁 (롯데빅마켓 킨텍스점),경기 고양시,1644-2153,"['가족과함께', '고양가볼만한곳', '관광지', '남녀노소', '동물농장', '동물체험']",https://cdn.visitkorea.or.kr/img/call?cmd=VIEW&id=47d4655f-af1f-4dec-b695-7615783e508b&thumb,경기도 고양시 일산서구 주엽로 79,37.66727315,126.7536584,
292,여주세계생활도자관,경기 여주시,031-884-8644,"['가족여행', '도자기박물관', '문화시설', '미세먼지_피하는_실내여행', '반달미술관']",https://cdn.visitkorea.or.kr/img/call?cmd=VIEW&id=fdeae97a-ed9e-4541-854e-9e006c170665&thumb,경기도 여주시 신륵사길 7,37.30014504,127.6545462,
293,김포독립운동기념관,경기 김포시,031-996-6270,"['교과서속여행', '기념관', '김포독립기념관', '무장애', '문화시설', '미세먼지_피하는_실내여행']",https://cdn.visitkorea.or.kr/img/call?cmd=VIEW&id=e80dffb4-830d-4341-bba3-e64eee98a4cb&thumb,경기도 김포시 양촌읍 양곡2로30번길 46,37.65335898,126.629642,
294,안산시세계문화체험관,경기 안산시,031-481-3732,"['가족과함께', '가족체험', '관광지', '미세먼지_피하는_실내여행', '복합문화공간']",https://cdn.visitkorea.or.kr/img/call?cmd=VIEW&id=c348d72a-bde8-4c95-9232-81b2a7088112&thumb,경기도 안산시 단원구 원본로 15,37.33120824,126.7917695,
295,이천시립월전미술관,경기 이천시,031-637-0033,"['나들이', '데이트코스', '문화시설', '미술관', '수도권', '실내여행지', '아이와함께']",https://cdn.visitkorea.or.kr/img/call?cmd=VIEW&id=547ec234-c663-4bcc-93f0-d072d565b5dd&thumb,경기도 이천시 경충대로2709번길 185,37.28016656,127.4240472,
296,스토리 미니어처 뮤지엄,경기 파주시,031-947-0677,"['가족과함께', '관광지', '미세먼지_피하는_실내여행', '복합문화공간', '실내여행지']",https://cdn.visitkorea.or.kr/img/call?cmd=VIEW&id=94bb926f-c4d8-4bf0-8dcb-d59f6494d7f4&thumb,경기도 파주시 탄현면 헤이리마을길 93-75,37.79140653,126.6962488,
297,우석헌자연사박물관,경기 남양주시,031-572-9555,"['교과서속여행', '문화시설', '박물관', '사계절', '수도권', '실내여행지', '아이와함께']",https://cdn.visitkorea.or.kr/img/call?cmd=VIEW&id=8a6d6c1f-dd1c-4381-b545-d830c32e6a14&thumb,경기도 남양주시 진접읍 금강로 1095,37.69803201,127.1608188,
298,국립현대미술관(과천관),경기,02-2188-6000,"['과천관', '국립현대미술관', '나들이', '데이트코스', '문화시설', '미술관', '수도권']",https://cdn.visitkorea.or.kr/img/call?cmd=VIEW&id=3714fee5-3884-4159-8ebf-b69d7e8d713e&thumb,경기도 과천시 광명로 313,37.43100343,127.0199299,
299,광주문화원(경기),경기 광주시,031-764-0686,"['광주문화원', '문화시설', '문화원', '사계절', '서울근교여행', '수도권', '실내여행지']",https://cdn.visitkorea.or.kr/img/call?cmd=VIEW&id=18a265ed-906e-4089-ab69-d61d6a983685&thumb,경기도 광주시 문화로85번길 19-12,37.40997626,127.2493751,
300,중남미문화원,경기 고양시,031-962-9291,"['나들이', '데이트코스', '문화시설', '미술관', '박물관', '수도권', '실내여행지']",https://cdn.visitkorea.or.kr/img/call?cmd=VIEW&id=cd0f4b56-1249-4971-94a6-2ceaac2b7ff9&thumb,경기도 고양시 덕양구 대양로285번길 33-15,37.70358397,126.8953482,
301,지도박물관,경기 수원시,031-210-2667,"['교과서속여행', '문화시설', '박물관', '사계절', '수도권', '실내여행지', '아이와함께']",https://cdn.visitkorea.or.kr/img/call?cmd=VIEW&id=d825f882-afb9-4d2a-a497-dd414779be82&thumb,경기도 수원시 영통구 월드컵로 92,37.27577145,127.0549634,
302,말박물관,경기,02-509-1287,"['나들이', '말박물관', '문화시설', '박물관', '수도권', '실내여행지', '아이와함께']",https://cdn.visitkorea.or.kr/img/call?cmd=VIEW&id=bcdb62df-0c6c-49db-8c8c-007c253c50fa&thumb,경기도 과천시 경마공원대로 107,37.44120036,127.01612659999998,
303,한국등잔박물관,경기 용인시,031-334-0797,"['당일치기여행', '문화시설', '박물관', '수도권', '실내여행지', '아이와함께', '이색체험']",https://cdn.visitkorea.or.kr/img/call?cmd=VIEW&id=219145af-7f2b-4e59-9df6-9d416a39b11f&thumb,경기도 용인시 처인구 모현읍 능곡로56번길 8,37.33658645,127.17788090000002,
304,하남역사박물관,경기 하남시,031-790-7990,"['교과서속여행', '문화시설', '박물관', '사계절', '수도권', '실내여행지', '아이와함께']",https://cdn.visitkorea.or.kr/img/call?cmd=VIEW&id=6987f3a8-6053-4fd9-9c39-739706cbc47f&thumb,경기도 하남시 덕풍동로 30,37.54546042,127.2060842,
305,가평현암농경유물박물관,경기 가평군,031-581-0612,"['가평현암농경유물박물관', '교과서속여행', '문화시설', '박물관', '수도권', '실내여행지']",https://cdn.visitkorea.or.kr/img/call?cmd=VIEW&id=2d20226c-f459-49e1-bccc-aa2891a7a383&thumb,경기도 가평군 북면 석장모루길 13,37.87934605,127.5481207,
306,성남아트센터,경기 성남시,031-783-8000,"['가족여행', '문화시설', '문화행사', '사계절', '상설공연', '성남아트센터', '수도권']",https://cdn.visitkorea.or.kr/img/call?cmd=VIEW&id=c083b65b-d404-404f-b98d-e0fe4cd22f80&thumb,경기도 성남시 분당구 성남대로 808,37.40295657,127.13055990000002,
307,창조자연사박물관,경기 시흥시,031-435-1009,"['교과서속여행', '문화시설', '박물관', '사계절', '수도권', '실내여행지', '아이와함께']",https://cdn.visitkorea.or.kr/img/call?cmd=VIEW&id=9c27cd88-8f9d-4161-93f8-ce3951dc7046&thumb,경기도 시흥시 두문로71번길 4,37.43371524,126.7864731,
308,명필름아트센터,경기 파주시,031-930-6600,"['명필름아트센터', '문화공간', '문화시설', '문화콘텐츠산업', '미술관', '복합문화공간']",https://cdn.visitkorea.or.kr/img/call?cmd=VIEW&id=4923c0a9-e06c-4299-a0fa-66a62852d729&thumb,경기도 파주시 회동길 530-20,37.72349442,126.6933584,
309,가평문화예술회관,경기 가평군,031-8078-8076,"['가평문화예술회관', '공연장', '데이트코스', '문화시설', '문화행사', '상설공연']",https://cdn.visitkorea.or.kr/img/call?cmd=VIEW&id=2b01fbe4-86fc-421b-974b-dd0eb139aaaa&thumb,경기도 가평군 가평읍 문화로 131,37.82542273,127.5069577,
310,평촌아트홀,경기 안양시,031-687-0525,"['가족여행', '공연장', '문화시설', '문화예술', '복합문화공간', '사계절', '수도권']",https://cdn.visitkorea.or.kr/img/call?cmd=VIEW&id=571b2a6c-f023-46ae-93dc-b621141df984&thumb,경기도 안양시 동안구 평촌대로 76,37.37998052,126.9640318,
311,시흥문화원,경기 시흥시,031-317-0827,"['문화시설', '문화원', '사계절', '상설전시', '서울근교여행', '수도권', '시흥문화원']",https://cdn.visitkorea.or.kr/img/call?cmd=VIEW&id=0fd5e574-597b-415b-8e65-3742471b37cc&thumb,경기도 시흥시 연성로13번길 3,37.39044726,126.8047632,
312,아시아출판문화정보센터,경기 파주시,031-955-0050,"['문화시설', '복합문화공간', '수도권', '실내여행지', '아시아출판문화정보센터']",https://cdn.visitkorea.or.kr/img/call?cmd=VIEW&id=f5039f19-bbcc-4cc7-9d5f-3835647b1ca7&thumb,경기도 파주시 회동길 145,37.70848115,126.6867933,
313,일산황토마루한증막,경기 파주시,031-943-0990,"['관광지', '뷰티&스파', '사우나', '수도권', '실내여행지', '연인과함께', '온천&스파']",https://cdn.visitkorea.or.kr/img/call?cmd=VIEW&id=undefined&thumb,경기도 파주시 오도로130번길 37,37.75226235,126.7183682,
314,한국기독교역사박물관,경기 이천시,031-632-1391,"['교과서속여행', '문화시설', '박물관', '사계절', '수도권', '실내여행지', '아이와함께']",https://cdn.visitkorea.or.kr/img/call?cmd=VIEW&id=eda9418d-bfb3-4e91-a9bb-dadda7dc4fe1&thumb,경기도 이천시 대월면 대평로214번길 10-13,37.22281443,127.4992512,
315,안산문화예술의전당,경기 안산시,080-481-4000,"['가족여행', '문화시설', '박물관', '서울근교여행', '실내여행지', '아이와함께']",https://cdn.visitkorea.or.kr/img/call?cmd=VIEW&id=69d9062d-93d5-4423-ae76-b3326ebd96db&thumb,경기도 안산시 단원구 화랑로 312,37.31842711,126.8231073,
316,양평곤충박물관,경기 양평군,031-775-8022,"['가족과함께', '가족체험', '곤충박물관', '곤충체험학습', '미세먼지_피하는_실내여행']",https://cdn.visitkorea.or.kr/img/call?cmd=VIEW&id=9c855f3b-e75e-4a7f-9f43-52d4fc6b994e&thumb,경기도 양평군 옥천면 경강로 1496,37.50920175,127.44918590000002,
317,명지산생태전시관,경기 가평군,031-582-7426,"['겨울방학가볼만한곳', '당일치기여행', '명지산', '명지산생태전시관', '문화시설']",https://cdn.visitkorea.or.kr/img/call?cmd=VIEW&id=02eec73d-b242-4146-bdb4-4d51fe10d3a7&thumb,경기도 가평군 북면 가화로 2089-42,37.93603501,127.4877232,
318,고양시문예회관,경기 고양시,031-965-2957,"['고양시문예회관', '데이트코스', '문화시설', '서울근교여행', '수도권', '실내여행지']",https://cdn.visitkorea.or.kr/img/call?cmd=VIEW&id=ddd62f95-1bfa-4ccb-9748-8ddd7cb45618&thumb,경기도 고양시 덕양구 고양시청로 10,37.65841333,126.8319601,
319,아주대학교박물관,경기 수원시,031-219-2907,"['교과서속여행', '문화시설', '박물관', '수도권', '실내여행지', '아이와함께', '아주대학교박물관']",https://cdn.visitkorea.or.kr/img/call?cmd=VIEW&id=0d4ba3c0-b195-4fa9-91e9-e3ba02e425a8&thumb,경기도 수원시 영통구 월드컵로 206,37.28305638,127.04366,
320,서호미술관,경기 남양주시,031-592-1864,"['경기도', '남양주시', '문화시설', '미술관', '실내여행지', '친구와함께', '화도읍']",https://cdn.visitkorea.or.kr/img/call?cmd=VIEW&id=05f00505-c774-43ae-ab97-7d41a5ddac7b&thumb,경기도 남양주시 화도읍 북한강로 1344,37.63270861,127.3515098,
321,명지대학교 박물관,경기 용인시,031-330-6074,"['교과서속여행', '명지대학교박물관', '문화시설', '박물관', '수도권', '실내여행지']",https://cdn.visitkorea.or.kr/img/call?cmd=VIEW&id=bae5a6aa-d282-4bc3-a96f-0836b0583ba7&thumb,경기도 용인시 처인구 명지로 116,37.22180726,127.1901837,
322,국립여성사전시관,경기 고양시,031-819-2288,"['국립여성사전시관', '문화시설', '박물관', '사계절', '수도권', '실내여행지', '아이와함께']",https://cdn.visitkorea.or.kr/img/call?cmd=VIEW&id=89e192c4-a54f-4884-8feb-74369198c5b3&thumb,경기도 고양시 덕양구 화중로104번길 50,37.63581557,126.8340355,
323,한국민속촌 옹기전시관,경기 용인시,031-274-3335,"['가족여행', '문화시설', '박물관', '서울근교여행', '실내여행지', '아이와함께']",https://cdn.visitkorea.or.kr/img/call?cmd=VIEW&id=2b1c8996-d14d-4446-aa8d-ffe755b35aba&thumb,경기도 용인시 기흥구 민속촌로 90,37.25913189,127.1225431,
324,농경유물전시관,경기 파주시,031-940-4801,"['교과서속여행', '농경유물전시관', '문화시설', '박물관', '사계절', '수도권', '실내여행지']",https://cdn.visitkorea.or.kr/img/call?cmd=VIEW&id=9bf3acca-29b4-4670-a9f8-7505760a21ea&thumb,경기도 파주시 통일로 600,37.7639808,126.7955513,
325,경기대학교박물관,경기 수원시,031-249-9114,"['경기대학교박물관', '교과서속여행', '문화시설', '박물관', '수도권', '실내여행지']",https://cdn.visitkorea.or.kr/img/call?cmd=VIEW&id=30fa0b17-c5b1-444f-808c-10a6e793bc63&thumb,경기도 수원시 영통구 광교산로 154-42,37.29801369,127.0331167,
326,가일미술관,경기 가평군,031-584-4722,"['가일미술관', '가족여행', '문화시설', '미술관', '서울근교여행', '실내여행지']",https://cdn.visitkorea.or.kr/img/call?cmd=VIEW&id=94f68f04-80c1-4b7d-a362-f6284c03bcfd&thumb,경기도 가평군 청평면 북한강로 1549,37.66041649,127.3794344,
327,중앙대학교박물관,경기 안성시,031-670-3446,"['문화시설', '박물관', '수도권', '실내여행지', '아이와함께', '예술', '전시관', '전통&역사문화체험']",https://cdn.visitkorea.or.kr/img/call?cmd=VIEW&id=880fb62b-9354-4113-8019-41acb3f59dd5&thumb,경기도 안성시 대덕면 서동대로 4726,37.0004292,127.2287087,
328,단국대학교 석주선기념박물관,경기 용인시,031-8005-2389,"['단국대학교석주선기념박물관', '무료관람', '문화시설', '박물관', '수도권', '실내여행지']",https://cdn.visitkorea.or.kr/img/call?cmd=VIEW&id=4c60915f-4f6f-4eea-b8b2-e61f5734f01a&thumb,경기도 용인시 수지구 죽전로 152,37.32119387,127.13253590000002,
329,이경순 소리박물관,경기 안성시,031-670-6538,"['교과서속여행', '문화시설', '박물관', '사계절', '수도권', '실내여행지', '아이와함께']",https://cdn.visitkorea.or.kr/img/call?cmd=VIEW&id=4226a918-fb6a-4936-9b57-a62da8f9a6c2&thumb,경기도 안성시 삼죽면 동아예대길 47,37.06236123,127.3532946,
330,여성생활사 박물관,경기 여주시,031-882-8100,"['교과서속여행', '문화시설', '박물관', '사계절', '수도권', '실내여행지', '아이와함께']",https://cdn.visitkorea.or.kr/img/call?cmd=VIEW&id=92b1f8ed-8175-4730-bfb1-a480a102414d&thumb,경기도 여주시 강천면 강천로 324-20,37.24252504,127.7081433,
331,아해박물관,경기,02-3418-5501,"['가족과함께', '기획전시', '무더위_피해_실내여행', '문화시설', '박물관', '실내여행지']",https://cdn.visitkorea.or.kr/img/call?cmd=VIEW&id=47efb7ef-6271-4eb0-8227-b8f7e1b9f5bc&thumb,경기도 과천시 추사로 133,37.45762016,127.0299792,
332,여강길(1코스~5코스),경기 여주시,031-884-9089,"['남녀노소', '레포츠', '산책코스', '언택트관광지_100선', '역사이야기', '자연속으로']",https://cdn.visitkorea.or.kr/img/call?cmd=VIEW&id=2ad7b85f-b5ac-4c00-97c0-d79fd9d85bf0&thumb,경기도 여주시 교동,37.28031078,127.6320575,0.0
333,한탄강 주상절리길(포천),경기 포천시,031-538-2312,"['레포츠', '산책코스', '산책하기좋은곳', '언택트관광지_100선', '자연', '자연속으로']",https://cdn.visitkorea.or.kr/img/call?cmd=VIEW&id=16416f15-0a38-4f34-a4f6-7709542ecd83&thumb,경기도 포천시 영북면,38.08913503,127.2755211,1.0
334,평화누리길 1코스 염하강철책길,경기 김포시,031-956-8306,"['남녀노소', '레포츠', '산책길', '산책로', '산책코스', '산책하기', '산책하기좋은곳']",https://cdn.visitkorea.or.kr/img/call?cmd=VIEW&id=4e45dc9f-9a86-48ff-a1f9-0416e981daeb&thumb,경기도 김포시 대곶면 대명리 517-4,37.64138072,126.539728,2.0
335,자라섬오토캠핑장,경기 가평군,031-8078-8028,"['가족여행', '레포츠', '아이와함께', '연인과함께', '자라섬오토캠핑장', '자라섬오토캠핑장']",https://cdn.visitkorea.or.kr/img/call?cmd=VIEW&id=9249caa5-d38c-48a4-a84a-751f1d7289ee&thumb,경기도 가평군 가평읍 자라섬로 60,37.82089751,127.5210451,3.0
336,광릉숲길,경기 남양주시,031-540-1061,"['경치여행', '국립수목원광릉숲', '남양주광릉', '레포츠', '트레킹', '포천국립수목원']",https://cdn.visitkorea.or.kr/img/call?cmd=VIEW&id=2e90e233-c531-4818-ba76-873e95ac8455&thumb,경기도 남양주시 진접읍 부평리,37.74378465,127.1771783,4.0
337,플라이스테이션,경기 용인시,1855-3946,"['남녀노소', '레포츠', '복합레저스포츠', '스카이다이빙', '아이와함께', '연인과함께']",https://cdn.visitkorea.or.kr/img/call?cmd=VIEW&id=2025cd9e-d2dd-4738-aa81-8924c34cc1bc&thumb,경기도 용인시 처인구 포곡읍 성산로 521,37.28089164,127.19920790000002,5.0
338,웅진플레이도시 실내스키장,경기 부천시,1577-5773,"['레포츠', '서울근교여행', '수도권', '웅진플레이도시실내스키장', '테마파크']",https://cdn.visitkorea.or.kr/img/call?cmd=VIEW&id=03295683-f480-4285-828e-cd99290d0642&thumb,경기도 부천시 조마루로 2,37.49997006,126.7442354,6.0
339,남이섬 짚와이어,경기 가평군,031-582-8091,"['남이섬짚와이어', '레포츠', '서울근교여행', '수도권']",https://cdn.visitkorea.or.kr/img/call?cmd=VIEW&id=0fada9de-1053-43e3-b48e-5f41fa8b0cb9&thumb,경기도 가평군 가평읍 북한강변로 1024,37.80396191,127.5253669,7.0
340,양평레일바이크,경기 양평군,031-775-9911,"['가족여행', '경기권', '레포츠', '서울근교여행', '양평레일바이크', '연인과함께']",https://cdn.visitkorea.or.kr/img/call?cmd=VIEW&id=7fa6bc42-9c01-46d8-9baf-82747022e69c&thumb,경기도 양평군 용문면 용문로 277,37.47971462,127.5865471,8.0
341,경기의왕레일파크,경기 의왕시,031-462-3001,"['가족과함께', '경기의왕레일파크', '레일바이크', '레포츠', '사진찍기좋은곳']",https://cdn.visitkorea.or.kr/img/call?cmd=VIEW&id=f260f2f6-fc85-4356-888c-b547ba944406&thumb,경기도 의왕시 왕송못동로 209,37.31088595,126.9503038,9.0
342,송원글램핑파크,경기 용인시,010-2626-0060,"['가족여행', '낚시', '레포츠', '송원', '캠핑&글램핑']",https://cdn.visitkorea.or.kr/img/call?cmd=VIEW&id=a776c198-52cb-4483-a068-24542c603500&thumb,경기도 용인시 처인구 남사면 전궁로95번길 93,37.10740234,127.1429835,10.0
343,가평사계절썰매장,경기 가평군,031-8078-8048,"['가족과함께', '가평사계절썰매장', '겨울스포츠', '남녀노소', '눈썰매장', '레포츠']",https://cdn.visitkorea.or.kr/img/call?cmd=VIEW&id=a96d0fda-027d-4dea-bcc8-bec2732a563e&thumb,경기도 가평군 상면 깃대봉길 5-20,37.75548501,127.40240159999998,11.0
344,파주 카트랜드,경기 파주시,031-944-9736,"['교통수단', '레이싱', '레포츠', '연인과함께', '카트', '커플데이트', '파주1박2일']",https://cdn.visitkorea.or.kr/img/call?cmd=VIEW&id=6e20102d-c435-4764-a738-2b2e423aa929&thumb,경기도 파주시 탄현면 필승로 398-30,37.77749299,126.684548,12.0
345,지산 포레스트 리조트 스키장,경기 이천시,031-644-1200,"['겨울 스포츠', '레포츠', '리조트', '복합레저스포츠', '수도권', '스키장', '익스트림스포츠']",https://cdn.visitkorea.or.kr/img/call?cmd=VIEW&id=86ce27a3-f3d1-4049-82ee-510709033e6d&thumb,경기도 이천시 마장면 지산로 267,37.21900005,127.3420572,13.0
346,용인자연휴양림 에코어드벤처,경기 용인시,1588-5219,"['레포츠', '서울근교여행', '수도권', '용인자연휴양림에코어드벤처']",https://cdn.visitkorea.or.kr/img/call?cmd=VIEW&id=f72fe919-b9b8-4d5b-a7bf-58e20f07d9e9&thumb,경기도 용인시 처인구 모현읍 초부로 220,37.31487372,127.2678442,14.0
347,용담태교둘레길,경기 용인시,031-324-4054,"['걷기길', '레포츠', '사진찍기좋은곳', '산책로', '산책코스', '산책하기좋은곳']",https://cdn.visitkorea.or.kr/img/call?cmd=VIEW&id=94562c32-b32b-4258-b968-ff0fd551fa50&thumb,경기도 용인시 처인구 원삼면,37.17695241,127.3286748,15.0
348,W홀스랜드,경기 가평군,031-585-4288,"['가족과함께', '레포츠', '승마', '승마레슨', '승마장', '승마체험', '승마캠프', '승마트레킹']",https://cdn.visitkorea.or.kr/img/call?cmd=VIEW&id=069596f2-0a66-4112-9c56-5eedb5741bdd&thumb,경기도 가평군 상면 물골길 391,37.84904549,127.2935606,16.0
349,의왕스카이레일,경기 의왕시,031-8086-7372,['레포츠'],https://cdn.visitkorea.or.kr/img/call?cmd=VIEW&id=4ea106cf-fa2c-4675-9861-0a4983e18af7&thumb,경기도 의왕시 왕송못동로,37.31323565,126.9489864,17.0
350,남한강 자전거길,경기 남양주시,031-590-4338,"['남한강', '레포츠', '자연풍경', '자연환경', '자전거코스', '자전거투어', '힐링&여행']",https://cdn.visitkorea.or.kr/img/call?cmd=VIEW&id=681eac5f-4365-4a4e-9c9e-5f4ede48d1b5&thumb,경기도 남양주시 와부읍 경강로926번길 80,37.5495833,127.2387505,18.0
351,경기도종합사격장,경기 화성시,031-352-6056,"['레포츠', '사격', '사격장', '스포츠센터', '실내레포츠', '연인과함께', '이색체험']",https://cdn.visitkorea.or.kr/img/call?cmd=VIEW&id=7b676aec-aad2-48ad-b744-1f431805c985&thumb,경기도 화성시 양감면 사격장길 142,37.09390565,126.9565356,19.0
352,원마운트 스노우파크,경기 고양시,1566-2232,"['가족과함께', '레포츠', '스케이트장', '아이와함께', '원마운트 스노우파크', '친구와함께']",https://cdn.visitkorea.or.kr/img/call?cmd=VIEW&id=c6bf1919-e09e-481d-8014-98af953719b6&thumb,경기도 고양시 일산서구 한류월드로 300,37.6645541,126.75452659999998,20.0
353,안성시사계절썰매장,경기 안성시,031-675-6868,"['겨울스포츠', '경기권', '레포츠', '복합레저스포츠', '사계절썰매장', '서울근교여행']",https://cdn.visitkorea.or.kr/img/call?cmd=VIEW&id=d86435ce-76f4-402a-92a6-14386aab21ca&thumb,경기도 안성시 보개면 남사당로 198-3,37.03125388,127.3114616,21.0
354,서서울컨트리클럽,경기 파주시,031-943-4103,"['골프장', '레포츠', '서서울컨트리클럽', '클럽하우스', '파주']",https://cdn.visitkorea.or.kr/img/call?cmd=VIEW&id=c177dc0c-f15e-4727-89d9-01ae57c77c2b&thumb,경기도 파주시 광탄면 혜음로 324,37.73132545,126.8964689,22.0
355,고대산캠핑리조트,경기 연천군,,"['가족여행', '경기권', '고대산캠핑리조트', '레포츠', '서울근교여행', '캠핑장']",https://cdn.visitkorea.or.kr/img/call?cmd=VIEW&id=c14a8b19-1c02-405b-bebf-ce990d6ab857&thumb,경기도 연천군 신서면 고대산길 84-12,38.21251732,127.1456447,23.0
356,한탄강관광지 오토캠핑장,경기 연천군,031-833-0030,"['가족과함께', '경기권', '레포츠', '아이와함께', '연인과함께', '캠핑장', '한탄강관광지오토캠핑장']",https://cdn.visitkorea.or.kr/img/call?cmd=VIEW&id=8c62cda4-c179-44f5-8cfa-4ed8b335a2af&thumb,경기도 연천군 전곡읍 선사로 76,38.00887699,127.0588604,24.0
357,광명스피돔,경기 광명시,02-2067-5000,"['가족과함께', '경기권', '경륜장', '광명스피돔', '남녀노소', '레포츠', '복합레저스포츠']",https://cdn.visitkorea.or.kr/img/call?cmd=VIEW&id=7db6f28c-19cd-4d26-aec0-4331b74fbf6c&thumb,경기도 광명시 광명로 721,37.4668955,126.8453132,25.0
358,한국민속촌 눈썰매장,경기 용인시,031-288-0000,"['겨울스포츠', '눈썰매장', '레포츠', '한국민속촌', '한국민속촌 눈썰매장']",https://cdn.visitkorea.or.kr/img/call?cmd=VIEW&id=e223e219-203b-4ba9-9796-62fe2199548e&thumb,경기도 용인시 기흥구 민속촌로 90,37.25913189,127.1225431,26.0
359,양지파인리조트 눈썰매장,경기 용인시,031-329-9443,"['겨울스포츠', '눈썰매장', '레포츠', '복합레저스포츠', '아이가_좋아하는_여행']",https://cdn.visitkorea.or.kr/img/call?cmd=VIEW&id=76237099-70da-40dd-9d3c-d1ed55955437&thumb,경기도 용인시 처인구 양지면 남평로 112,37.2103839,127.2937759,27.0
360,다산길1코스,경기 남양주시,031-590-2416,"['걷기길', '걷기좋은길', '레포츠', '산책로', '산책코스', '산책하기좋은곳', '연인과함께']",https://cdn.visitkorea.or.kr/img/call?cmd=VIEW&id=8009af78-d3f4-40b5-8e7c-71c7ca43bf20&thumb,경기도 남양주시 와부읍 덕소로 56,37.58689758,127.2088195,28.0
361,대부도,경기 안산시,1899-1720,"['가족여행', '갯벌체험', '대부도', '드라이브여행', '레포츠', '바다낚시', '서울근교여행']",https://cdn.visitkorea.or.kr/img/call?cmd=VIEW&id=d781944b-3cfb-4d9b-9fc1-f43351bc3a88&thumb,경기도 안산시 단원구 대부동동,37.24902391,126.6016174,29.0
362,명지산 트레킹,경기 가평군,031-580-2481,"['경기권', '등산객', '등산여행', '레포츠', '명지산트레킹', '산책길', '산책하기']",https://cdn.visitkorea.or.kr/img/call?cmd=VIEW&id=093017dd-149e-4f51-8a22-74cf67a62ffa&thumb,경기도 가평군 북면 도대리 일원,37.94672420000001,127.4879054,30.0
363,라비돌 컨트리클럽(퍼블릭골프장),경기 화성시,031-352-7150,"['경기권', '골프장', '라비돌컨트리클럽', '레포츠']",https://cdn.visitkorea.or.kr/img/call?cmd=VIEW&id=3e765aa6-0c51-4dfd-a8bd-9e5e66e169b0&thumb,경기도 화성시 정남면 세자로 286,37.18708443,126.9841532,31.0
364,평화누리길 10코스 고랑포길,경기 연천군,031-839-2063,"['레포츠', '산책', '산책길', '산책로', '산책코스', '산책하기', '산책하기좋은곳']",https://cdn.visitkorea.or.kr/img/call?cmd=VIEW&id=4fc7e27c-80bb-4259-86c9-27076b4c39dc&thumb,경기도 연천군 장남면 원당리,37.98547211,126.87869750000002,32.0
365,[경기옛길 삼남길 제1길] 한양관문길(남태령표석 ~ 인덕원옛터),경기,070-8269-6937,"['경기옛길', '레포츠', '산책코스', '트래킹', '한양관문길']",https://cdn.visitkorea.or.kr/img/call?cmd=VIEW&id=c164487c-7781-47d1-bf29-1840f4b3b1ef&thumb,경기도 과천시 남태령옛길,37.45278279,126.9928967,33.0
366,[경기옛길 삼남길 제4길] 서호천길(지지대비 ~ 서호공원입구),경기 수원시,070-8269-6937,"['레포츠', '산책코스', '서호천길', '자연환경', '지지대비']",https://cdn.visitkorea.or.kr/img/call?cmd=VIEW&id=c382f92d-e221-49f0-85f1-01e947a0874b&thumb,경기도 수원시 장안구 경수대로,37.29361515,127.015895,34.0
367,의정부실내빙상장,경기 의정부시,031-828-4855,"['레포츠', '수도권', '실내빙상장', '의정부실내빙상장']",https://cdn.visitkorea.or.kr/img/call?cmd=VIEW&id=53560b62-907d-431d-a9aa-69fb812ea8c8&thumb,경기도 의정부시 체육로 136,37.75879471,127.0238361,35.0
368,성은낚시터,경기 안성시,031-655-6507,"['계곡형저수지', '낚시', '레포츠']",https://cdn.visitkorea.or.kr/img/call?cmd=VIEW&id=90dce488-3b72-4af0-95b3-0edf646b2fe6&thumb,경기도 안성시 원곡면 통심길 16-46,37.07048505,127.1678744,36.0
369,가평 자라섬테마파크,경기 가평군,031-581-1771,"['가평', '래프팅', '레포츠', '서울근교', '카누카약체험', '캠핑']",https://cdn.visitkorea.or.kr/img/call?cmd=VIEW&id=f0da2316-57ca-4c0f-af21-798fda785d43&thumb,경기도 가평군 가평읍 자라섬로 60,37.82089751,127.5210451,37.0
370,캠프통 아일랜드,경기 가평군,031-585-6000,"['가족여행', '레포츠', '수상레포츠', '청평호', '캠프통아일랜드', '캠핑&글램핑']",https://cdn.visitkorea.or.kr/img/call?cmd=VIEW&id=db59a8dd-2afc-43a6-b750-b91da979e350&thumb,경기도 가평군 청평면 호반로 976,37.7105574,127.48443229999998,38.0
371,어린이비전센터 사계절썰매장,경기 남양주시,031-560-1560,"['겨울 스포츠', '레포츠', '사계절썰매장', '아이와함께', '어린이비전센터', '어린이비전센터 사계절썰매장']",https://cdn.visitkorea.or.kr/img/call?cmd=VIEW&id=8f0bb445-31a6-4027-941f-bb214e3c1f83&thumb,경기도 남양주시 진접읍 해밀예당1로 96,37.71709051,127.1910488,39.0
372,[서울둘레길 6코스] 안양천코스,경기 안양시,02-779-7902,"['레포츠', '서울둘레길', '수도권', '안양천코스']",https://cdn.visitkorea.or.kr/img/call?cmd=VIEW&id=75328274-0c76-4bdf-8452-c27e13fbefbd&thumb,경기도 안양시 만안구 경수대로 1431,37.43434247,126.90252920000002,40.0
373,SRC재활체육관 광주,경기 광주시,031-799-3891,"['SRC재활체육관', '경기광주', '경기권', '레포츠']",https://cdn.visitkorea.or.kr/img/call?cmd=VIEW&id=5f32f952-549a-4479-83f8-32cad471990b&thumb,경기도 광주시 초월읍 경수길 25,37.41948735,127.287081,41.0
374,엑스라이프(X-LIFE),경기 양평군,- 0507-1355-9901,"['가족과함께', '레포츠', '복합레저스포츠', '스포츠체험', '익스트림스포츠', '친구와함께']",https://cdn.visitkorea.or.kr/img/call?cmd=VIEW&id=530d5c84-eaf7-4166-81e9-a85ed6f9955e&thumb,경기도 양평군 옥천면,37.51806468,127.4560724,42.0
375,서정온천오토캠핑장,경기 연천군,031-835-0312,"['가족여행', '레포츠', '연천군', '오토캠핑장', '온천수', '힐링']",https://cdn.visitkorea.or.kr/img/call?cmd=VIEW&id=2ad99d96-64db-4083-bf47-9dee5d18f793&thumb,경기도 연천군 장남면 장백로330번길 137-28,37.99592044,126.8859611,43.0
376,하노버승마장,경기 안성시,031-672-4746,"['가족과함께', '경기권', '레포츠', '서울근교여행', '승마장', '승마체험', '아이와함께']",https://cdn.visitkorea.or.kr/img/call?cmd=VIEW&id=427199e6-f409-4e47-ae99-69bd915722a2&thumb,경기도 안성시 일죽면 원설로 1042,37.13481803,127.4467941,44.0
377,삼풍수영장(실외),경기 수원시,031-271-3500,"['가족과함께', '레포츠', '수영장', '실외수영장', '아이가_좋아하는_여행', '아이와함께']",https://cdn.visitkorea.or.kr/img/call?cmd=VIEW&id=a231f8bb-0514-49a9-95f6-4a3fcdb331e5&thumb,경기도 수원시 장안구 서부로 2388,37.31739781,126.9854649,45.0
378,미사리 경정공원,경기 하남시,031-790-8114,"['가족여행', '경기권', '레포츠', '미사리경정공원', '아이와함께', '연인과함께']",https://cdn.visitkorea.or.kr/img/call?cmd=VIEW&id=9eca48de-f427-4934-bff2-b92ad4116a9a&thumb,경기도 하남시 미사대로 505 미사경정공원,37.55362591,127.2132296,46.0
379,뉴서울 다이빙 풀,경기 광명시,02-892-4943,"['뉴서울다이빙풀', '레포츠', '서울근교여행', '수도권']",https://cdn.visitkorea.or.kr/img/call?cmd=VIEW&id=875942a9-c0dd-4323-ae27-ecc592db6fea&thumb,경기도 광명시 하안로288번길 15,37.46224731,126.8813411,47.0
380,딱따구리청소년수련원,경기 양주시,031-837-4461,['레포츠'],https://cdn.visitkorea.or.kr/img/call?cmd=VIEW&id=0795c281-5d83-4269-9c9d-198e7017cbea&thumb,경기도 양주시 광적면 현석로 313-44,37.83271237,126.9414906,48.0
381,왕송호수 캠핑장,경기 의왕시,031-8086-7371,['레포츠'],https://cdn.visitkorea.or.kr/img/call?cmd=VIEW&id=c06da601-8ab2-4e06-a094-f261ddf7599f&thumb,경기도 의왕시 왕송못동로 295,37.30582873,126.95278229999998,49.0
382,곤지암리조트 스키장,경기 광주시,1661-8787,"['경기권', '광주곤지암리조트', '레포츠', '스키장']",https://cdn.visitkorea.or.kr/img/call?cmd=VIEW&id=10329432-29bf-4483-9f98-a4f47344da87&thumb,경기도 광주시 도척면 도척윗로 278,37.3375066,127.2963741,50.0
383,스타힐리조트,경기 남양주시,031-594-1211,"['가족과함께', '겨울 스포츠', '레포츠', '복합레저스포츠', '수도권', '스키장', '스타힐리조트']",https://cdn.visitkorea.or.kr/img/call?cmd=VIEW&id=2cc43a24-cb1a-421f-b38e-3f584dc23703&thumb,경기도 남양주시 화도읍 먹갓로 96,37.6634947,127.2694304,51.0
384,양평물소리길,경기 양평군,031-771-9508,['레포츠'],https://cdn.visitkorea.or.kr/img/call?cmd=VIEW&id=0387ef54-ce8e-41a9-ac80-c96f5122c7c7&thumb,경기도 양평군 양서면 목왕로 55-10,37.54575225,127.3288429,52.0
385,미필스키랜드,경기 성남시,031-713-2002,"['레포츠', '스키', '스키 강습소', '초보탈출']",https://cdn.visitkorea.or.kr/img/call?cmd=VIEW&id=fc18dbcc-ff09-4387-9fca-7ccdb8b58723&thumb,경기도 성남시 분당구 구미로 120,37.3397408,127.1221485,53.0
386,베어스타운리조트 스키장,경기 포천시,031-540-5000,"['가족과함께', '겨울스포츠', '레포츠', '복합레저스포츠', '스키장', '연인과함께']",https://cdn.visitkorea.or.kr/img/call?cmd=VIEW&id=8861b3e3-3ce1-4c06-876c-1e969e8a2a78&thumb,경기도 포천시 내촌면 금강로2536번길 27,37.79991851,127.2451998,54.0
387,시흥 그린웨이,경기 시흥시,031-310-2331,"['레포츠', '산책로', '산책코스', '수변산책로', '자전거길', '자전거코스', '커플데이트']",https://cdn.visitkorea.or.kr/img/call?cmd=VIEW&id=8b994274-4b31-4ecc-9b44-72e33e9fc743&thumb,경기도 시흥시 동서로 287,37.38979099,126.7812554,55.0
388,토토큰바위캠핑장,경기 가평군,010-9787-2139,"['가평캠핑장', '레포츠', '캠핑장', '화악산캠핑장']",https://cdn.visitkorea.or.kr/img/call?cmd=VIEW&id=9fd1ac05-d460-476a-86e0-b7d1e2e0497b&thumb,경기도 가평군 북면 화악산로 1246,37.96217692,127.5278801,56.0
389,동수원 뉴코아 PG휘트니스,경기 수원시,031-231-6550,['레포츠'],https://cdn.visitkorea.or.kr/img/call?cmd=VIEW&id=478744dd-e8e4-4ef9-8cc8-34af91cf8888&thumb,경기도 수원시 팔달구 인계로 154,37.26630686,127.034316,57.0
390,평화누리길 4코스 행주나루길,경기 고양시,031-8075-3409,"['남녀노소', '레포츠', '산책길', '산책로', '산책코스', '산책하기', '산책하기좋은곳']",https://cdn.visitkorea.or.kr/img/call?cmd=VIEW&id=3f1425a2-60f3-41ca-9abc-5d5f3a5b8d86&thumb,경기도 고양시 덕양구 행주로15번길 89,37.59610775,126.8287118,58.0
391,스카이어드벤처,경기 하남시,010-2999-5207,['레포츠'],https://cdn.visitkorea.or.kr/img/call?cmd=VIEW&id=a67c196e-95fd-458f-b4ef-62c50550eba0&thumb,경기도 하남시 미사대로 505,37.55362591,127.2132296,59.0
392,가평TOP랜드 번지점프,경기 가평군,031-582-5372,['레포츠'],https://cdn.visitkorea.or.kr/img/call?cmd=VIEW&id=9ef1dbbe-6f02-4a81-a677-fced959fa056&thumb,경기도 가평군 가평읍 북한강변로 1044-15,37.80604214,127.5260286,60.0
393,한숲스포츠센터,경기 군포시,031-395-1900,['레포츠'],https://cdn.visitkorea.or.kr/img/call?cmd=VIEW&id=abe62d31-54b6-45be-a4ee-4d3c5cdc5f27&thumb,경기도 군포시 산본천로 43-6,37.36067457,126.9281743,61.0
394,양평 카누체험,경기 양평군,010-2046-8667,"['레포츠', '카누선수양성', '카누체험', '힐링']",https://cdn.visitkorea.or.kr/img/call?cmd=VIEW&id=fb6a2a78-6b9b-4c00-8526-549133be0b24&thumb,경기도 양평군 개군면 신내길7번길 37,37.4682398,127.53086299999998,62.0
395,[경기옛길 삼남길 제8길] 오나리길(오산고인돌공원 ~ 맑음터공원),경기 오산시,070-8269-6937,"['레포츠', '산책코스', '오나리길', '오나리길', '오산고인돌공원', '자연환경']",https://cdn.visitkorea.or.kr/img/call?cmd=VIEW&id=75e0ed7a-73e3-4586-93d5-0fc73291684f&thumb,경기도 오산시 금암동,37.1728364,127.0459409,63.0
396,김포스포츠센터(실내수영장),경기 김포시,031-983-8821,['레포츠'],https://cdn.visitkorea.or.kr/img/call?cmd=VIEW&id=ac1d4f8c-bdaf-47f1-a9fb-7feddb8451e6&thumb,경기도 김포시 봉화로181번길 31-20,37.62624013,126.7009209,64.0
397,에어로마스터,경기 화성시,031-356-2023,"['경비행기', '교육', '레포츠', '비행', '클럽', '화성시']",https://cdn.visitkorea.or.kr/img/call?cmd=VIEW&id=38b2fdd1-b003-4174-a2db-c5e203e4e4ae&thumb,경기도 화성시 송산면 삼존리 622-13,37.22496268,126.7701984,65.0
398,미리내캠프 눈썰매장,경기 양평군,1566-3131,"['겨울스포츠', '눈썰매장', '레포츠', '미리내캠프 눈썰매장', '복합레저스포츠']",https://cdn.visitkorea.or.kr/img/call?cmd=VIEW&id=a977e8a3-c397-4820-99b1-a50bd842f019&thumb,경기도 양평군 지평면 월산저수지길 21,37.48098811,127.6497617,66.0
399,안성팜랜드 승마센터 (구. 안성목장 승마센터),경기 안성시,031-8053-7979,"['가족과함께', '레포츠', '승마', '승마레슨', '승마장', '승마체험', '승마캠프', '승마트레킹']",https://cdn.visitkorea.or.kr/img/call?cmd=VIEW&id=e1a339a7-0443-49c8-9ee8-0b064cac407a&thumb,경기도 안성시 공도읍 대신두길 28,36.99208881,127.1944227,67.0
400,여주카라반,경기 여주시,02-2002-9847,"['경기권', '레포츠', '여주카라반', '이색체험', '카라반']",https://cdn.visitkorea.or.kr/img/call?cmd=VIEW&id=a3be2010-92fd-482a-bb75-b70b32c2959f&thumb,경기도 여주시 점동면 선사길 321,37.23807757,127.684189,68.0
401,[경기옛길 영남길 제3길] 구성현길,경기 성남시,031-231-8574,"['경기옛길', '구성현길', '레포츠', '산책코스', '트래킹']",https://cdn.visitkorea.or.kr/img/call?cmd=VIEW&id=0cb65260-b453-4248-af27-3d4b0d0be994&thumb,경기도 성남시 분당구 미금로22번길 6,37.33588233,127.1182402,69.0
402,[경기옛길 삼남길 제9길] 진위고을길(맑음터공원 ~ 원균장군묘),경기 오산시,070-8269-6937,"['경기옛길', '레포츠', '맑음터공원', '삼남길', '진위고을길']",https://cdn.visitkorea.or.kr/img/call?cmd=VIEW&id=4db3a559-4994-4667-ad1f-075e6f828643&thumb,경기도 오산시 오산천로 52,37.14500510000001,127.0677543,70.0
403,남부골프연습장,경기 용인시,031-288-2880,"['골프', '남부골프연습장', '레포츠', '수도권']",https://cdn.visitkorea.or.kr/img/call?cmd=VIEW&id=b199faca-83d1-435b-9e6f-2c4f81cb2e57&thumb,경기도 용인시 기흥구 민속촌로 95,37.26146841,127.1150646,71.0
404,성림스포츠센터,경기 구리시,031-553-2255,['레포츠'],https://cdn.visitkorea.or.kr/img/call?cmd=VIEW&id=6514ae5e-9c33-4f57-8ac1-7bcea9ec77a3&thumb,경기도 구리시 동구릉로 65,37.60594278,127.13385759999998,72.0
405,[경기옛길 영남길 제1길] 달래내고개길,경기 성남시,031-231-8574,"['경기옛길', '달래내고개길', '레포츠', '산책로', '트래킹', '판교박물관]']",https://cdn.visitkorea.or.kr/img/call?cmd=VIEW&id=94964757-37af-40c1-b675-c71485c32702&thumb,경기도 성남시 수정구 옛골로,37.42635402,127.0655119,73.0
406,경기도청소년수련원,경기 안산시,032-886-6900,"['레포츠', '숙박', '안산숙소', '청소년수련원']",https://cdn.visitkorea.or.kr/img/call?cmd=VIEW&id=d2eaa3b7-c082-402b-809e-47c2d8a9a3cf&thumb,경기도 안산시 단원구 선감로 255,37.21515797,126.6421073,74.0
407,안산해피승마클럽,경기 안산시,031-418-5400,"['가족과함께', '경기권', '레포츠', '승마체험', '아이와함께', '안산해피승마클럽']",https://cdn.visitkorea.or.kr/img/call?cmd=VIEW&id=488423ce-b0a4-47d9-8494-d0f911f0dd90&thumb,경기도 안산시 상록구 목장길 36-21,37.31277259,126.8816188,75.0
408,평화누리길 9코스 율곡길,경기 파주시,031-940-4361,"['레포츠', '산책길', '산책로', '산책코스', '산책하기', '산책하기좋은곳', '자연속으로']",https://cdn.visitkorea.or.kr/img/call?cmd=VIEW&id=f86108fd-5294-4d09-8d57-dcb22114be4d&thumb,경기도 파주시 파평면,37.92193589,126.8379492,76.0
409,고초골낚시터,경기 용인시,031-321-6636,"['경기권', '고초골낚시터', '낚시터', '레포츠']",https://cdn.visitkorea.or.kr/img/call?cmd=VIEW&id=a536bede-6dc5-4f2a-9f33-ac2d6c97372f&thumb,경기도 용인시 처인구 원삼면 이원로913번길 19-21,37.1572936,127.2831176,77.0
410,호텔미란다수영장(실내.외),경기 이천시,031-639-5000,"['가족과함께', '레포츠', '수도권', '연인과함께', '호텔미란다수영장']",https://cdn.visitkorea.or.kr/img/call?cmd=VIEW&id=ba72533e-de14-42a3-beb7-da4a21bce4b5&thumb,경기도 이천시 중리천로115번길 45,37.27638756,127.4507682,78.0
411,[경기옛길 삼남길 제6길] 화성효행길 (배양교 ~ 세마교),경기 화성시,070-8269-6937,"['걷기길', '경기옛길', '레포츠', '수도권', '화성효행길']",https://cdn.visitkorea.or.kr/img/call?cmd=VIEW&id=3866ddd1-7716-4e43-8103-3564e7e2309c&thumb,경기도 화성시 배양동,37.2217002,126.9938616,79.0
412,렉스필드 컨트리클럽,경기 여주시,031-880-8700 031-880-0300,['레포츠'],https://cdn.visitkorea.or.kr/img/call?cmd=VIEW&id=e44a6025-32f6-48a7-9340-3ba0688ca6c8&thumb,경기도 여주시 산북면 광여로 1115,37.39889207,127.4313951,80.0
413,분당올림픽스포츠센터 아이스링크,경기 성남시,031-708-7485,"['레포츠', '분당올림픽스포츠센터 아이스링크', '스케이트장']",https://cdn.visitkorea.or.kr/img/call?cmd=VIEW&id=d30c98bc-7202-4a18-8f1d-a81017cfe64e&thumb,경기도 성남시 분당구 중앙공원로 35,37.38086956,127.12866409999998,81.0
414,아시아나 컨트리클럽,경기 용인시,031-334-8800,['레포츠'],https://cdn.visitkorea.or.kr/img/call?cmd=VIEW&id=undefined&thumb,경기도 용인시 처인구 양지면 양대로 290,37.2546997,127.2926706,82.0
415,[구리 둘레길 1코스] 역사와 자연이 살아있는 구리 둘레길,경기 구리시,031-550-2241,"['걷기코스', '구리둘레길', '레포츠', '수도권']",https://cdn.visitkorea.or.kr/img/call?cmd=VIEW&id=064ad012-5b57-4db2-8d1c-8f5c117ee24c&thumb,경기도 구리시 장자호수공원,37.5851107,127.1418934,83.0
416,한탄강,경기 연천군,031-833-0030,"['경기권', '레포츠', '민물낚시', '연천낚시터', '한탄강낚시']",https://cdn.visitkorea.or.kr/img/call?cmd=VIEW&id=4310a91a-e762-4f5b-ac16-799c452319da&thumb,경기도 연천군 전곡읍 선사로,38.02667149,127.0720691,84.0
417,[경기옛길 의주길 제4길] 파주고을길,경기 파주시,031-231-8574,"['가족과함께', '경기옛길', '레포츠', '산책코스', '산책하기좋은곳', '역사속으로']",https://cdn.visitkorea.or.kr/img/call?cmd=VIEW&id=29a6319d-368f-416e-8b0a-a624ebb77d51&thumb,경기도 파주시 광탄면,37.77615422,126.8512579,85.0
418,의정부시 청소년수련관,경기 의정부시,031-828-9501,['레포츠'],https://cdn.visitkorea.or.kr/img/call?cmd=VIEW&id=21866d95-51d4-45f2-a5d4-a9e6e9b76a84&thumb,경기도 의정부시 의정로 27,37.73517724,127.0338894,86.0
419,[경기옛길 삼남길 제2길] 인덕원길(인덕원옛터 ~ 백운호수입구),경기 안양시,070-8269-6937,"['경기옛길', '레포츠', '산책코스', '인덕원길', '트래킹']",https://cdn.visitkorea.or.kr/img/call?cmd=VIEW&id=e41cf942-7b52-45be-a826-4ecc1c8a70ce&thumb,경기도 안양시 동안구 인덕원로30번길 14,37.40194941,126.9751006,87.0
420,김포사계절썰매장,경기 김포시,031-981-7300,"['겨울스포츠', '김포사계절썰매장', '눈썰매장', '레포츠', '복합레저스포츠', '사계절썰매장']",https://cdn.visitkorea.or.kr/img/call?cmd=VIEW&id=799ca589-b9ef-4be6-aabb-c075c43dfaf7&thumb,경기도 김포시 월곶면 용강로13번길 38,37.72080378,126.552204,88.0
421,안양실내체육관,경기 안양시,031-389-5228,"['경기권', '레포츠', '스포츠센터', '안양실내체육관']",https://cdn.visitkorea.or.kr/img/call?cmd=VIEW&id=82c4109c-f375-49a6-bf6d-fc61172141bb&thumb,경기도 안양시 동안구 평촌대로 389,37.40629131,126.9487366,89.0
422,[경기옛길 영남길 제4길] 석성산길,경기 용인시,031-231-8574,"['걷기코스', '레포츠', '석성산길', '수도권', '트래킹']",https://cdn.visitkorea.or.kr/img/call?cmd=VIEW&id=055ebc72-a0ad-4493-b6a8-655dba8804d9&thumb,경기도 용인시 기흥구 동백중앙로 239,37.27496587,127.1500328,90.0
423,[경기옛길 삼남길 제7길] 독산성길(세마교 ~ 오산고인돌공원),경기 화성시,070-8269-6937,"['경기옛길', '경기트래킹', '레포츠', '삼남길', '트래킹', '트래킹코스']",https://cdn.visitkorea.or.kr/img/call?cmd=VIEW&id=d9269400-fc68-4d05-8338-fd4457d8d36a&thumb,경기도 화성시 안녕동,37.20310255,126.9942236,91.0
424,코오롱스포렉스(분당점),경기 성남시,031-780-7777,['레포츠'],https://cdn.visitkorea.or.kr/img/call?cmd=VIEW&id=925d4c3a-866e-444a-8f85-05a5350358d9&thumb,경기도 성남시 분당구 탄천로 27,37.39502725,127.1229819,92.0
425,서울랜드 눈썰매장,경기,02-509-6000,"['가족과함께', '겨울레포츠', '겨울방학', '겨울스포츠', '눈썰매장', '레포츠', '복합레저스포츠']",https://cdn.visitkorea.or.kr/img/call?cmd=VIEW&id=91e85d69-a541-4f29-926d-b658ab42d6f6&thumb,경기도 과천시 광명로 181,37.43654743,127.0240449,93.0
426,용인레저스포츠 야외수영장,경기 용인시,031-336-0504,"['레포츠', '민박', '수영장', '야영장', '용인시']",https://cdn.visitkorea.or.kr/img/call?cmd=VIEW&id=e2e996f4-8d5c-4348-afa3-1b41bb379180&thumb,경기도 용인시 처인구 이동읍 이원로 495,37.16762404,127.2401253,94.0
427,평화누리길 2코스 조강철책길,경기 김포시,031-980-2481,"['남녀노소', '레포츠', '산책길', '산책로', '산책코스', '산책하기', '산책하기좋은곳']",https://cdn.visitkorea.or.kr/img/call?cmd=VIEW&id=299f57c9-da19-4f77-a58b-16a7e1746729&thumb,경기도 김포시 월곶면 포내리,37.72216581,126.5347665,95.0
428,쇠꼴마을 눈썰매장,경기 파주시,031-959-0123,"['눈썰매장', '레포츠', '쇠꼴마을 눈썰매장']",https://cdn.visitkorea.or.kr/img/call?cmd=VIEW&id=d1378228-c93f-4a19-876d-03660c57e548&thumb,경기도 파주시 법원읍 술이홀로1333번길 164,37.88229941,126.8698929,96.0
429,양평한화리조트 눈썰매장,경기 양평군,031-772-3811,"['겨울스포츠', '눈썰매장', '레포츠', '복합레저스포츠', '아이와함께', '양평한화리조트']",https://cdn.visitkorea.or.kr/img/call?cmd=VIEW&id=0fba3e26-f97c-48c5-a3bc-93b77ee221f4&thumb,경기도 양평군 옥천면 신촌길 188,37.5669431,127.4569926,97.0
430,[경기옛길 삼남길 제5길] 중복들길(서호공원입구 ~ 배양교),경기 수원시,070-8269-6937,"['경기옛길', '경기트래킹', '레포츠', '삼남길', '트래킹', '트래킹코스']",https://cdn.visitkorea.or.kr/img/call?cmd=VIEW&id=4717e1c8-b0fc-44f6-8f4b-cb86a1cac262&thumb,경기도 수원시 팔달구 수성로,37.2881678,127.0023402,98.0
431,율동공원번지점프,경기 성남시,031-704-6266,"['레포츠', '번지점프', '성남번지점프', '이색체험']",https://cdn.visitkorea.or.kr/img/call?cmd=VIEW&id=8c28ae02-2829-42e2-8fa9-1dd284b45376&thumb,경기도 성남시 분당구 문정로 145,37.38335593,127.150005,99.0
432,베르아델 승마클럽,경기 안산시,032-882-2255,"['가족과함께', '레포츠', '승마', '승마장', '승마체험', '승마캠프', '승마트레킹']",https://cdn.visitkorea.or.kr/img/call?cmd=VIEW&id=4c490adb-21ad-4b59-9417-dfc7a0e01098&thumb,경기도 안산시 단원구 부흥로 376,37.21378124,126.6090332,100.0
433,뒷방울 저수지,경기 시흥시,031-498-0737,"['경기권', '낚시체험', '낚시터', '레포츠']",https://cdn.visitkorea.or.kr/img/call?cmd=VIEW&id=b5e4251b-386e-453e-a766-50658ca09d55&thumb,경기도 시흥시 뒷방울길 147,37.37045536,126.7507241,101.0
434,안양컨트리클럽,경기 군포시,031-460-3301,['레포츠'],https://cdn.visitkorea.or.kr/img/call?cmd=VIEW&id=977dcb5a-a879-4a88-8979-c4ce355f31cb&thumb,경기도 군포시 군포로 364,37.3394048,126.9392884,102.0
435,하니랜드 눈썰매장,경기 파주시,031-945-2250,"['겨울스포츠', '눈썰매장', '레포츠', '복합레저스포츠', '아이와함께', '익스트림스포츠']",https://cdn.visitkorea.or.kr/img/call?cmd=VIEW&id=efc27610-328b-4be3-897c-ea6044aa96a8&thumb,경기도 파주시 조리읍 장곡로 218,37.74984994,126.8335561,103.0
436,남수원컨트리클럽,경기 화성시,031-229-9300,"['가족과함께', '건강여행', '골프', '골프장', '골프클럽', '레포츠', '스포츠']",https://cdn.visitkorea.or.kr/img/call?cmd=VIEW&id=9778b5b7-9903-4b60-aba3-f578c1b6f040&thumb,경기도 화성시 황계남길 21-10,37.21444511,127.0080122,104.0
437,평화누리길 6코스 출판도시길,경기 고양시,031-956-8306,"['도보여행', '도보코스', '레포츠', '산책', '산책길', '산책로', '산책코스', '산책하기']",https://cdn.visitkorea.or.kr/img/call?cmd=VIEW&id=b010b625-b51e-4cfe-980d-bdd73c705d97&thumb,경기도 고양시 일산서구,37.67519827,126.75066909999998,105.0
438,평택시 무봉산청소년수련원,경기 평택시,031-610-4416,"['경기권', '레포츠', '무봉산', '청소년수련원', '평택']",https://cdn.visitkorea.or.kr/img/call?cmd=VIEW&id=999622c7-435b-4c53-a289-3a46f983d09f&thumb,경기도 평택시 진위면 진위로 181-94,37.10584894,127.1012038,106.0
439,평화누리길 7코스 헤이리길,경기 파주시,031-940-4361,"['레포츠', '산책길', '산책로', '산책코스', '산책하기', '산책하기좋은곳', '자연속으로']",https://cdn.visitkorea.or.kr/img/call?cmd=VIEW&id=a3e45f80-a865-4fea-8c3b-d1950540cd8e&thumb,경기도 파주시 탄현면 성동리,37.78446488,126.6781165,107.0
